<?xml version="1.0" encoding="UTF-8"?>
<country code="bd" name="Bangladesh">
  <city name="Abad Chandipur">
    <latitude>22.2833333</latitude>
    <longitude>89.1666667</longitude>
  </city>
  <city name="Abadpur">
    <latitude>24.8333333</latitude>
    <longitude>88.8833333</longitude>
  </city>
  <city name="Abaipur">
    <latitude>23.6</latitude>
    <longitude>89.3333333</longitude>
  </city>
  <city name="Abari">
    <latitude>23.8666667</latitude>
    <longitude>88.9</longitude>
  </city>
  <city name="Abdalpur">
    <latitude>24.1666667</latitude>
    <longitude>88.85</longitude>
  </city>
  <city name="Abdanpur">
    <latitude>24.5333333</latitude>
    <longitude>88.9333333</longitude>
  </city>
  <city name="Abdul Beparir Kandi">
    <latitude>23.35</latitude>
    <longitude>90.35</longitude>
  </city>
  <city name="Abdulgani Maliat">
    <latitude>23.7666667</latitude>
    <longitude>89.4666667</longitude>
  </city>
  <city name="Abdulkhali">
    <latitude>22.3666667</latitude>
    <longitude>89.0333333</longitude>
  </city>
  <city name="Abdul Khana">
    <latitude>24.05</latitude>
    <longitude>90.7333333</longitude>
  </city>
  <city name="Abdullabad">
    <latitude>23.4166667</latitude>
    <longitude>90.0666667</longitude>
  </city>
  <city name="Abdullahbad">
    <latitude>23.4166667</latitude>
    <longitude>90.0666667</longitude>
  </city>
  <city name="Abdullahpur">
    <latitude>22.8166667</latitude>
    <longitude>91.0833333</longitude>
  </city>
  <city name="Abdullapur">
    <latitude>22.8166667</latitude>
    <longitude>91.0833333</longitude>
  </city>
  <city name="Abdullapur Banati">
    <latitude>24.55</latitude>
    <longitude>90.8166667</longitude>
  </city>
  <city name="Abdulpur">
    <latitude>24.25</latitude>
    <longitude>88.9833333</longitude>
  </city>
  <city name="Abdupur">
    <latitude>24.8333333</latitude>
    <longitude>88.8833333</longitude>
  </city>
  <city name="Abedpur">
    <latitude>24.95</latitude>
    <longitude>89.0666667</longitude>
  </city>
  <city name="Abhaya">
    <latitude>24.5166667</latitude>
    <longitude>88.3166667</longitude>
  </city>
  <city name="Abhaynagar">
    <latitude>23.0166667</latitude>
    <longitude>89.4666667</longitude>
  </city>
  <city name="Abhaynil">
    <latitude>22.5833333</latitude>
    <longitude>90.2833333</longitude>
  </city>
  <city name="Abhaypara">
    <latitude>23.4</latitude>
    <longitude>90.8666667</longitude>
  </city>
  <city name="Abhiram">
    <latitude>25.8166667</latitude>
    <longitude>89.2</longitude>
  </city>
  <city name="Abhirampur">
    <latitude>22.95</latitude>
    <longitude>91.0166667</longitude>
  </city>
  <city name="Abhirkhil">
    <latitude>22.95</latitude>
    <longitude>90.8833333</longitude>
  </city>
  <city name="Abhoypara">
    <latitude>23.4</latitude>
    <longitude>90.8666667</longitude>
  </city>
  <city name="Abidhara">
    <latitude>23.6666667</latitude>
    <longitude>90.0166667</longitude>
  </city>
  <city name="Abidpara">
    <latitude>24.6833333</latitude>
    <longitude>88.8166667</longitude>
  </city>
  <city name="Abidpur">
    <latitude>23.5166667</latitude>
    <longitude>91.0666667</longitude>
  </city>
  <city name="Abilanda">
    <latitude>24.55</latitude>
    <longitude>88.3666667</longitude>
  </city>
  <city name="Abirerpara">
    <latitude>25.2666667</latitude>
    <longitude>89.25</longitude>
  </city>
  <city name="Abirnagar">
    <latitude>22.9166667</latitude>
    <longitude>90.85</longitude>
  </city>
  <city name="Abirnagr">
    <latitude>22.9166667</latitude>
    <longitude>90.85</longitude>
  </city>
  <city name="Abirpara">
    <latitude>22.9833333</latitude>
    <longitude>91.0</longitude>
  </city>
  <city name="Abjalpur">
    <latitude>25.6166667</latitude>
    <longitude>89.25</longitude>
  </city>
  <city name="Ablakpur">
    <latitude>24.4</latitude>
    <longitude>88.5</longitude>
  </city>
  <city name="Abpasa">
    <latitude>24.7833333</latitude>
    <longitude>90.8166667</longitude>
  </city>
  <city name="Abudia">
    <latitude>24.5333333</latitude>
    <longitude>89.55</longitude>
  </city>
  <city name="Abupur">
    <latitude>23.0</latitude>
    <longitude>90.4333333</longitude>
  </city>
  <city name="Abura">
    <latitude>23.25</latitude>
    <longitude>90.3</longitude>
  </city>
  <city name="Aburi">
    <latitude>23.8666667</latitude>
    <longitude>88.9</longitude>
  </city>
  <city name="Aburkandi">
    <latitude>23.4333333</latitude>
    <longitude>90.6666667</longitude>
  </city>
  <city name="Abu Said">
    <latitude>23.9333333</latitude>
    <longitude>90.1</longitude>
  </city>
  <city name="Abutorabnagar">
    <latitude>23.0666667</latitude>
    <longitude>90.9833333</longitude>
  </city>
  <city name="Achaichaila">
    <latitude>23.3252778</latitude>
    <longitude>90.7586111</longitude>
  </city>
  <city name="Achalchhila">
    <latitude>23.3252778</latitude>
    <longitude>90.7586111</longitude>
  </city>
  <city name="Achargaon">
    <latitude>24.55</latitude>
    <longitude>90.7333333</longitude>
  </city>
  <city name="Acharjeepur">
    <latitude>23.65</latitude>
    <longitude>89.6</longitude>
  </city>
  <city name="Acharjyapur">
    <latitude>23.65</latitude>
    <longitude>89.6</longitude>
  </city>
  <city name="Achhabhaya">
    <latitude>24.5166667</latitude>
    <longitude>90.9166667</longitude>
  </city>
  <city name="Achhadnagar">
    <latitude>23.5166667</latitude>
    <longitude>90.95</longitude>
  </city>
  <city name="Achhadnasar">
    <latitude>23.7833333</latitude>
    <longitude>90.8</longitude>
  </city>
  <city name="Achhanulla Munshir Kandi">
    <latitude>23.35</latitude>
    <longitude>90.3666667</longitude>
  </city>
  <city name="Achhanulla Munsir Kandi">
    <latitude>23.35</latitude>
    <longitude>90.3666667</longitude>
  </city>
  <city name="Achhim Patuli">
    <latitude>24.5333333</latitude>
    <longitude>90.3</longitude>
  </city>
  <city name="Achinghat">
    <latitude>24.5333333</latitude>
    <longitude>88.7166667</longitude>
  </city>
  <city name="Achintanagar">
    <latitude>23.55</latitude>
    <longitude>89.2833333</longitude>
  </city>
  <city name="Achintapur">
    <latitude>24.75</latitude>
    <longitude>90.6333333</longitude>
  </city>
  <city name="Achintyanagar">
    <latitude>23.55</latitude>
    <longitude>89.2833333</longitude>
  </city>
  <city name="Achmita">
    <latitude>24.2666667</latitude>
    <longitude>90.7833333</longitude>
  </city>
  <city name="Achra">
    <latitude>24.5833333</latitude>
    <longitude>90.1166667</longitude>
  </city>
  <city name="Achura">
    <latitude>23.2333333</latitude>
    <longitude>90.3833333</longitude>
  </city>
  <city name="Adaba Chak">
    <latitude>23.7666667</latitude>
    <longitude>90.3666667</longitude>
  </city>
  <city name="Adabai">
    <latitude>23.9666667</latitude>
    <longitude>90.4333333</longitude>
  </city>
  <city name="Adabaria">
    <latitude>23.8</latitude>
    <longitude>89.1666667</longitude>
  </city>
  <city name="Adakhola">
    <latitude>22.5166667</latitude>
    <longitude>90.15</longitude>
  </city>
  <city name="Adalatpur">
    <latitude>22.5333333</latitude>
    <longitude>89.1666667</longitude>
  </city>
  <city name="Adalpur">
    <latitude>25.6</latitude>
    <longitude>89.2833333</longitude>
  </city>
  <city name="Adam Durgapur">
    <latitude>24.85</latitude>
    <longitude>88.9666667</longitude>
  </city>
  <city name="Adam Manirabad">
    <latitude>23.3166667</latitude>
    <longitude>90.5</longitude>
  </city>
  <city name="Adampur">
    <latitude>23.2833333</latitude>
    <longitude>91.1666667</longitude>
  </city>
  <city name="Adampur Manoharpur">
    <latitude>24.25</latitude>
    <longitude>90.7833333</longitude>
  </city>
  <city name="Adarpara">
    <latitude>24.4333333</latitude>
    <longitude>88.4</longitude>
  </city>
  <city name="Adasan">
    <latitude>23.1166667</latitude>
    <longitude>90.4</longitude>
  </city>
  <city name="Adda">
    <latitude>23.35</latitude>
    <longitude>90.9833333</longitude>
  </city>
  <city name="Adgatia">
    <latitude>23.9833333</latitude>
    <longitude>90.75</longitude>
  </city>
  <city name="Adhaipur">
    <latitude>24.9833333</latitude>
    <longitude>88.95</longitude>
  </city>
  <city name="Adhara">
    <latitude>23.3833333</latitude>
    <longitude>90.7833333</longitude>
  </city>
  <city name="Adhepasa">
    <latitude>23.9666667</latitude>
    <longitude>90.3666667</longitude>
  </city>
  <city name="Adhkhala">
    <latitude>24.3333333</latitude>
    <longitude>90.8666667</longitude>
  </city>
  <city name="Adhpakhia">
    <latitude>24.7666667</latitude>
    <longitude>90.2333333</longitude>
  </city>
  <city name="Adhuna">
    <latitude>22.9166667</latitude>
    <longitude>90.3</longitude>
  </city>
  <city name="Adhunagar">
    <latitude>21.9833333</latitude>
    <longitude>92.0833333</longitude>
  </city>
  <city name="Adhuria">
    <latitude>23.8</latitude>
    <longitude>90.5833333</longitude>
  </city>
  <city name="Adiabad">
    <latitude>23.9666667</latitude>
    <longitude>90.8</longitude>
  </city>
  <city name="Adilpur">
    <latitude>23.0</latitude>
    <longitude>91.2</longitude>
  </city>
  <city name="Adinath">
    <latitude>21.5166667</latitude>
    <longitude>91.9666667</longitude>
  </city>
  <city name="Adinath Bazar">
    <latitude>21.5166667</latitude>
    <longitude>91.9666667</longitude>
  </city>
  <city name="Aditaypur">
    <latitude>24.95</latitude>
    <longitude>88.75</longitude>
  </city>
  <city name="Adityapasa">
    <latitude>24.3</latitude>
    <longitude>90.7</longitude>
  </city>
  <city name="Adityapur">
    <latitude>23.2</latitude>
    <longitude>90.1166667</longitude>
  </city>
  <city name="Adla">
    <latitude>23.8666667</latitude>
    <longitude>90.6</longitude>
  </city>
  <city name="Adoar">
    <latitude>23.4333333</latitude>
    <longitude>90.8166667</longitude>
  </city>
  <city name="Adpur">
    <latitude>24.8166667</latitude>
    <longitude>90.7166667</longitude>
  </city>
  <city name="Adra">
    <latitude>23.15</latitude>
    <longitude>91.15</longitude>
  </city>
  <city name="Adra Ramchandrapur">
    <latitude>23.3</latitude>
    <longitude>90.9833333</longitude>
  </city>
  <city name="Adsa">
    <latitude>23.1333333</latitude>
    <longitude>90.8166667</longitude>
  </city>
  <city name="Adytapur">
    <latitude>23.2</latitude>
    <longitude>90.1166667</longitude>
  </city>
  <city name="Afalkati">
    <latitude>22.4833333</latitude>
    <longitude>90.4333333</longitude>
  </city>
  <city name="Afra">
    <latitude>23.75</latitude>
    <longitude>89.55</longitude>
  </city>
  <city name="Afsarkhil">
    <latitude>23.05</latitude>
    <longitude>91.0</longitude>
  </city>
  <city name="Agalpur">
    <latitude>24.4333333</latitude>
    <longitude>88.45</longitude>
  </city>
  <city name="Aganagar">
    <latitude>23.4166667</latitude>
    <longitude>91.0666667</longitude>
  </city>
  <city name="Agardari">
    <latitude>22.6333333</latitude>
    <longitude>89.1833333</longitude>
  </city>
  <city name="Agarkandi">
    <latitude>24.95</latitude>
    <longitude>89.4166667</longitude>
  </city>
  <city name="Agarkenda">
    <latitude>24.9666667</latitude>
    <longitude>90.6833333</longitude>
  </city>
  <city name="Agarpara">
    <latitude>23.7666667</latitude>
    <longitude>90.65</longitude>
  </city>
  <city name="Agarpatta">
    <latitude>24.35</latitude>
    <longitude>90.7333333</longitude>
  </city>
  <city name="Agarpur">
    <latitude>23.9833333</latitude>
    <longitude>90.8166667</longitude>
  </city>
  <city name="Agarsal">
    <latitude>24.8166667</latitude>
    <longitude>89.2833333</longitude>
  </city>
  <city name="Ag Dhalla">
    <latitude>24.1166667</latitude>
    <longitude>90.0666667</longitude>
  </city>
  <city name="Agdia">
    <latitude>23.0833333</latitude>
    <longitude>89.45</longitude>
  </city>
  <city name="Ag Digha">
    <latitude>24.4166667</latitude>
    <longitude>88.9166667</longitude>
  </city>
  <city name="Agharbari">
    <latitude>22.65</latitude>
    <longitude>90.2166667</longitude>
  </city>
  <city name="Aghhulat">
    <latitude>22.9588889</latitude>
    <longitude>88.8627778</longitude>
  </city>
  <city name="Aghora">
    <latitude>24.8</latitude>
    <longitude>89.2833333</longitude>
  </city>
  <city name="Aghor">
    <latitude>24.7333333</latitude>
    <longitude>88.5666667</longitude>
  </city>
  <city name="Agia">
    <latitude>24.95</latitude>
    <longitude>90.5666667</longitude>
  </city>
  <city name="Agjana">
    <latitude>24.1</latitude>
    <longitude>90.2</longitude>
  </city>
  <city name="Ag- Jethail">
    <latitude>24.0</latitude>
    <longitude>90.0666667</longitude>
  </city>
  <city name="Ag Kalia">
    <latitude>23.9666667</latitude>
    <longitude>89.9</longitude>
  </city>
  <city name="Agla">
    <latitude>23.6497222</latitude>
    <longitude>90.22</longitude>
  </city>
  <city name="Agmajhi">
    <latitude>24.75</latitude>
    <longitude>89.3333333</longitude>
  </city>
  <city name="Ag Markenda">
    <latitude>24.9666667</latitude>
    <longitude>90.6833333</longitude>
  </city>
  <city name="Agna">
    <latitude>24.6666667</latitude>
    <longitude>88.3333333</longitude>
  </city>
  <city name="Agnagari">
    <latitude>24.55</latitude>
    <longitude>88.9833333</longitude>
  </city>
  <city name="Agnati">
    <latitude>24.9833333</latitude>
    <longitude>90.75</longitude>
  </city>
  <city name="Agra">
    <latitude>25.15</latitude>
    <longitude>88.7</longitude>
  </city>
  <city name="Agrail">
    <latitude>23.75</latitude>
    <longitude>89.9666667</longitude>
  </city>
  <city name="Agrakunda">
    <latitude>23.85</latitude>
    <longitude>89.25</longitude>
  </city>
  <city name="Agrakundu">
    <latitude>23.85</latitude>
    <longitude>89.25</longitude>
  </city>
  <city name="Agripara">
    <latitude>25.05</latitude>
    <longitude>92.2666667</longitude>
  </city>
  <city name="Ag Roail">
    <latitude>23.85</latitude>
    <longitude>90.1666667</longitude>
  </city>
  <city name="Ag Simulia">
    <latitude>23.8166667</latitude>
    <longitude>89.9</longitude>
  </city>
  <city name="Aguandi">
    <latitude>23.75</latitude>
    <longitude>90.7</longitude>
  </city>
  <city name="Aguankhil">
    <latitude>23.1</latitude>
    <longitude>90.85</longitude>
  </city>
  <city name="Aguna">
    <latitude>24.6666667</latitude>
    <longitude>88.3333333</longitude>
  </city>
  <city name="Agunda">
    <latitude>23.8333333</latitude>
    <longitude>90.35</longitude>
  </city>
  <city name="Aguniapara">
    <latitude>23.7</latitude>
    <longitude>89.2166667</longitude>
  </city>
  <city name="Agunpur">
    <latitude>23.8666667</latitude>
    <longitude>89.8166667</longitude>
  </city>
  <city name="Ahadi Bayatir Kandi">
    <latitude>23.35</latitude>
    <longitude>90.3166667</longitude>
  </city>
  <city name="Ahadi Matabarer Kandi">
    <latitude>23.35</latitude>
    <longitude>90.3333333</longitude>
  </city>
  <city name="Ahadi Matbarer Kandi">
    <latitude>23.35</latitude>
    <longitude>90.3333333</longitude>
  </city>
  <city name="Ahadipur">
    <latitude>23.7166667</latitude>
    <longitude>90.3</longitude>
  </city>
  <city name="Ahammadkati">
    <latitude>23.05</latitude>
    <longitude>90.1833333</longitude>
  </city>
  <city name="Ahammadpur">
    <latitude>22.9833333</latitude>
    <longitude>90.8666667</longitude>
  </city>
  <city name="Ahammedkati">
    <latitude>23.05</latitude>
    <longitude>90.1833333</longitude>
  </city>
  <city name="Ahammedpur">
    <latitude>23.2166667</latitude>
    <longitude>90.9</longitude>
  </city>
  <city name="Ahar Kandar">
    <latitude>24.8166667</latitude>
    <longitude>88.5</longitude>
  </city>
  <city name="Ahladinagar">
    <latitude>22.9</latitude>
    <longitude>91.05</longitude>
  </city>
  <city name="Ahladipur">
    <latitude>23.65</latitude>
    <longitude>90.1333333</longitude>
  </city>
  <city name="Ahmadkati">
    <latitude>23.05</latitude>
    <longitude>90.1833333</longitude>
  </city>
  <city name="Ahmadpur">
    <latitude>23.8833333</latitude>
    <longitude>89.0666667</longitude>
  </city>
  <city name="Ahmedpur">
    <latitude>24.9166667</latitude>
    <longitude>91.0</longitude>
  </city>
  <city name="Ahmmadpur">
    <latitude>22.9833333</latitude>
    <longitude>90.8666667</longitude>
  </city>
  <city name="Ahulia">
    <latitude>23.9666667</latitude>
    <longitude>89.9</longitude>
  </city>
  <city name="Ahura">
    <latitude>24.7</latitude>
    <longitude>88.35</longitude>
  </city>
  <city name="Ahutia">
    <latitude>24.3</latitude>
    <longitude>90.75</longitude>
  </city>
  <city name="Ahuti Bhatra">
    <latitude>23.0333333</latitude>
    <longitude>90.1333333</longitude>
  </city>
  <city name="Ahutio">
    <latitude>24.3</latitude>
    <longitude>90.75</longitude>
  </city>
  <city name="Ahybnagar">
    <latitude>23.7666667</latitude>
    <longitude>90.3833333</longitude>
  </city>
  <city name="Aicha">
    <latitude>22.7666667</latitude>
    <longitude>90.3833333</longitude>
  </city>
  <city name="Aichapara">
    <latitude>23.25</latitude>
    <longitude>90.4166667</longitude>
  </city>
  <city name="Aichar Char">
    <latitude>23.6166667</latitude>
    <longitude>90.8166667</longitude>
  </city>
  <city name="Aichhapara">
    <latitude>22.9833333</latitude>
    <longitude>91.0333333</longitude>
  </city>
  <city name="Aich Noadda">
    <latitude>23.85</latitude>
    <longitude>90.2666667</longitude>
  </city>
  <city name="Aich Nodda">
    <latitude>23.85</latitude>
    <longitude>90.2666667</longitude>
  </city>
  <city name="Aietpara">
    <latitude>23.25</latitude>
    <longitude>90.4166667</longitude>
  </city>
  <city name="Aihai">
    <latitude>24.5</latitude>
    <longitude>88.4166667</longitude>
  </city>
  <city name="Aihar">
    <latitude>22.6666667</latitude>
    <longitude>90.15</longitude>
  </city>
  <city name="Aijhara">
    <latitude>23.1833333</latitude>
    <longitude>90.4166667</longitude>
  </city>
  <city name="Aikdia">
    <latitude>23.2833333</latitude>
    <longitude>89.9333333</longitude>
  </city>
  <city name="Aila">
    <latitude>24.4666667</latitude>
    <longitude>90.8833333</longitude>
  </city>
  <city name="Ailbahar">
    <latitude>23.6833333</latitude>
    <longitude>90.4333333</longitude>
  </city>
  <city name="Ailhas">
    <latitude>23.6333333</latitude>
    <longitude>88.95</longitude>
  </city>
  <city name="Ailkundi">
    <latitude>23.7</latitude>
    <longitude>90.0166667</longitude>
  </city>
  <city name="Ailsardi">
    <latitude>23.5833333</latitude>
    <longitude>90.5333333</longitude>
  </city>
  <city name="Aima Debipur">
    <latitude>24.8</latitude>
    <longitude>90.8</longitude>
  </city>
  <city name="Ainara Anantapur">
    <latitude>24.95</latitude>
    <longitude>88.8833333</longitude>
  </city>
  <city name="Aingiri">
    <latitude>23.3283333</latitude>
    <longitude>90.9611111</longitude>
  </city>
  <city name="Ainpur">
    <latitude>23.4</latitude>
    <longitude>90.8833333</longitude>
  </city>
  <city name="Ainta">
    <latitude>23.6666667</latitude>
    <longitude>90.4333333</longitude>
  </city>
  <city name="Airaba">
    <latitude>23.75</latitude>
    <longitude>90.5666667</longitude>
  </city>
  <city name="Airmara">
    <latitude>23.9333333</latitude>
    <longitude>90.0</longitude>
  </city>
  <city name="Aisar">
    <latitude>23.1</latitude>
    <longitude>90.1666667</longitude>
  </city>
  <city name="Aishara">
    <latitude>23.1833333</latitude>
    <longitude>90.4166667</longitude>
  </city>
  <city name="Aitala">
    <latitude>22.6333333</latitude>
    <longitude>89.1666667</longitude>
  </city>
  <city name="Aithadi">
    <latitude>23.4</latitude>
    <longitude>90.6333333</longitude>
  </city>
  <city name="Aithar">
    <latitude>24.6666667</latitude>
    <longitude>90.8333333</longitude>
  </city>
  <city name="Aitpara">
    <latitude>23.2</latitude>
    <longitude>90.8</longitude>
  </city>
  <city name="Aiyanagar">
    <latitude>23.0666667</latitude>
    <longitude>90.8833333</longitude>
  </city>
  <city name="Ajabpur">
    <latitude>24.1166667</latitude>
    <longitude>91.0666667</longitude>
  </city>
  <city name="Ajagara">
    <latitude>23.2333333</latitude>
    <longitude>90.9166667</longitude>
  </city>
  <city name="Ajagora">
    <latitude>23.2333333</latitude>
    <longitude>90.9166667</longitude>
  </city>
  <city name="Ajail">
    <latitude>23.7833333</latitude>
    <longitude>89.25</longitude>
  </city>
  <city name="Ajalbera">
    <latitude>23.5166667</latitude>
    <longitude>89.75</longitude>
  </city>
  <city name="Ajaldi">
    <latitude>24.35</latitude>
    <longitude>90.7166667</longitude>
  </city>
  <city name="Ajalia">
    <latitude>23.0666667</latitude>
    <longitude>90.1833333</longitude>
  </city>
  <city name="Ajampur">
    <latitude>23.1166667</latitude>
    <longitude>89.0333333</longitude>
  </city>
  <city name="Ajgara">
    <latitude>23.6833333</latitude>
    <longitude>90.1833333</longitude>
  </city>
  <city name="Ajhair">
    <latitude>24.7666667</latitude>
    <longitude>88.35</longitude>
  </city>
  <city name="Ajipur">
    <latitude>24.75</latitude>
    <longitude>88.4333333</longitude>
  </city>
  <city name="Ajkitala">
    <latitude>24.05</latitude>
    <longitude>90.8166667</longitude>
  </city>
  <city name="Ajmatpur">
    <latitude>23.2166667</latitude>
    <longitude>89.0166667</longitude>
  </city>
  <city name="Ajodhya">
    <latitude>23.0833333</latitude>
    <longitude>91.8333333</longitude>
  </city>
  <city name="Ajodhya Bazar">
    <latitude>23.0833333</latitude>
    <longitude>91.8333333</longitude>
  </city>
  <city name="Ajolia">
    <latitude>23.0666667</latitude>
    <longitude>90.1833333</longitude>
  </city>
  <city name="Ajugara">
    <latitude>23.75</latitude>
    <longitude>89.5833333</longitude>
  </city>
  <city name="Ajugitala">
    <latitude>24.8</latitude>
    <longitude>90.05</longitude>
  </city>
  <city name="Ajul">
    <latitude>24.95</latitude>
    <longitude>88.7666667</longitude>
  </city>
  <city name="Akain">
    <latitude>23.5333333</latitude>
    <longitude>89.8333333</longitude>
  </city>
  <city name="Akaira">
    <latitude>23.3333333</latitude>
    <longitude>90.9166667</longitude>
  </city>
  <city name="Akaliabari">
    <latitude>24.6333333</latitude>
    <longitude>90.05</longitude>
  </city>
  <city name="Akalmegh">
    <latitude>23.4333333</latitude>
    <longitude>90.5</longitude>
  </city>
  <city name="Akanagar">
    <latitude>23.8333333</latitude>
    <longitude>90.8333333</longitude>
  </city>
  <city name="Akandapara">
    <latitude>24.9</latitude>
    <longitude>89.4833333</longitude>
  </city>
  <city name="Akania">
    <latitude>23.35</latitude>
    <longitude>90.8833333</longitude>
  </city>
  <city name="Akania Nachhirpur">
    <latitude>23.3</latitude>
    <longitude>90.9</longitude>
  </city>
  <city name="Akania Nasirpur">
    <latitude>23.3</latitude>
    <longitude>90.9</longitude>
  </city>
  <city name="Akargaon">
    <latitude>25.6666667</latitude>
    <longitude>88.4666667</longitude>
  </city>
  <city name="Akartama">
    <latitude>23.1166667</latitude>
    <longitude>90.9166667</longitude>
  </city>
  <city name="Akashtara">
    <latitude>24.85</latitude>
    <longitude>89.4</longitude>
  </city>
  <city name="Akasi">
    <latitude>23.95</latitude>
    <longitude>89.95</longitude>
  </city>
  <city name="Akastara">
    <latitude>24.85</latitude>
    <longitude>89.4</longitude>
  </city>
  <city name="Akater Char">
    <latitude>23.5333333</latitude>
    <longitude>90.0666667</longitude>
  </city>
  <city name="Akbar Hat">
    <latitude>22.55</latitude>
    <longitude>91.45</longitude>
  </city>
  <city name="Akbarnagar">
    <latitude>24.1</latitude>
    <longitude>90.9333333</longitude>
  </city>
  <city name="Akbarpur">
    <latitude>23.95</latitude>
    <longitude>88.8333333</longitude>
  </city>
  <city name="Akchail">
    <latitude>23.7166667</latitude>
    <longitude>90.2833333</longitude>
  </city>
  <city name="Akhalia">
    <latitude>23.7333333</latitude>
    <longitude>90.6166667</longitude>
  </city>
  <city name="Akhalipara">
    <latitude>23.3833333</latitude>
    <longitude>89.6166667</longitude>
  </city>
  <city name="Akharjani">
    <latitude>23.7166667</latitude>
    <longitude>89.45</longitude>
  </city>
  <city name="Akharpara">
    <latitude>22.6</latitude>
    <longitude>90.25</longitude>
  </city>
  <city name="Akhasri">
    <latitude>24.6833333</latitude>
    <longitude>90.9333333</longitude>
  </city>
  <city name="Akhaura">
    <latitude>23.8616667</latitude>
    <longitude>91.2188889</longitude>
  </city>
  <city name="Akherti">
    <latitude>24.95</latitude>
    <longitude>88.9</longitude>
  </city>
  <city name="Akhirapara">
    <latitude>24.8833333</latitude>
    <longitude>88.6666667</longitude>
  </city>
  <city name="Akhorjani">
    <latitude>23.7166667</latitude>
    <longitude>89.45</longitude>
  </city>
  <city name="Akhra">
    <latitude>24.9</latitude>
    <longitude>88.7666667</longitude>
  </city>
  <city name="Akhrail">
    <latitude>24.5333333</latitude>
    <longitude>90.45</longitude>
  </city>
  <city name="Akhra Sal">
    <latitude>24.0166667</latitude>
    <longitude>90.75</longitude>
  </city>
  <city name="Akiadal">
    <latitude>23.4333333</latitude>
    <longitude>90.3333333</longitude>
  </city>
  <city name="Akiara">
    <latitude>23.3333333</latitude>
    <longitude>90.9166667</longitude>
  </city>
  <city name="Akilpur">
    <latitude>22.9</latitude>
    <longitude>91.3833333</longitude>
  </city>
  <city name="Akkel Mahmud Munsir Kandi">
    <latitude>23.3333333</latitude>
    <longitude>90.3333333</longitude>
  </city>
  <city name="Akkelmammud Munsir Kandi">
    <latitude>23.3333333</latitude>
    <longitude>90.3333333</longitude>
  </city>
  <city name="Akkelmamud Munsir Kandi">
    <latitude>23.3333333</latitude>
    <longitude>90.3333333</longitude>
  </city>
  <city name="Akkelpur">
    <latitude>23.6833333</latitude>
    <longitude>90.0166667</longitude>
  </city>
  <city name="Aklas">
    <latitude>24.9833333</latitude>
    <longitude>89.1666667</longitude>
  </city>
  <city name="Akra">
    <latitude>22.6666667</latitude>
    <longitude>89.4166667</longitude>
  </city>
  <city name="Akran">
    <latitude>23.8666667</latitude>
    <longitude>90.3333333</longitude>
  </city>
  <city name="Aksa">
    <latitude>23.25</latitude>
    <longitude>90.4166667</longitude>
  </city>
  <city name="Aksidanga">
    <latitude>23.4333333</latitude>
    <longitude>89.5666667</longitude>
  </city>
  <city name="Akta">
    <latitude>24.5666667</latitude>
    <longitude>90.2166667</longitude>
  </city>
  <city name="Akua">
    <latitude>24.75</latitude>
    <longitude>90.4</longitude>
  </city>
  <city name="Akubpur">
    <latitude>23.7808333</latitude>
    <longitude>91.0125</longitude>
  </city>
  <city name="Akur Takur">
    <latitude>24.2666667</latitude>
    <longitude>89.8833333</longitude>
  </city>
  <city name="Akusar">
    <latitude>23.35</latitude>
    <longitude>91.1166667</longitude>
  </city>
  <city name="Alabaksapur">
    <latitude>24.5</latitude>
    <longitude>90.7333333</longitude>
  </city>
  <city name="Aladatpur">
    <latitude>23.1666667</latitude>
    <longitude>89.5</longitude>
  </city>
  <city name="Aladipur">
    <latitude>23.7</latitude>
    <longitude>89.65</longitude>
  </city>
  <city name="Alagchhatra">
    <latitude>24.4166667</latitude>
    <longitude>88.5333333</longitude>
  </city>
  <city name="Alaha">
    <latitude>24.4833333</latitude>
    <longitude>91.7</longitude>
  </city>
  <city name="Alahari">
    <latitude>24.5333333</latitude>
    <longitude>90.35</longitude>
  </city>
  <city name="Alaiarpur">
    <latitude>22.95</latitude>
    <longitude>91.3</longitude>
  </city>
  <city name="Alai Bidirpur">
    <latitude>24.4833333</latitude>
    <longitude>88.6166667</longitude>
  </city>
  <city name="Alaipur">
    <latitude>22.8333333</latitude>
    <longitude>89.6333333</longitude>
  </city>
  <city name="Alaka">
    <latitude>23.2</latitude>
    <longitude>91.4166667</longitude>
  </city>
  <city name="Alak Chhatra">
    <latitude>24.6833333</latitude>
    <longitude>88.3833333</longitude>
  </city>
  <city name="Alakdia">
    <latitude>21.95</latitude>
    <longitude>91.8833333</longitude>
  </city>
  <city name="Alakdi">
    <latitude>24.9833333</latitude>
    <longitude>90.3833333</longitude>
  </city>
  <city name="Alakdiar">
    <latitude>24.9833333</latitude>
    <longitude>89.35</longitude>
  </city>
  <city name="Alakjhari">
    <latitude>26.0</latitude>
    <longitude>88.7166667</longitude>
  </city>
  <city name="Alal Diabari">
    <latitude>24.4833333</latitude>
    <longitude>90.0666667</longitude>
  </city>
  <city name="Alali">
    <latitude>24.2833333</latitude>
    <longitude>90.5833333</longitude>
  </city>
  <city name="Alalpur">
    <latitude>23.6666667</latitude>
    <longitude>90.0833333</longitude>
  </city>
  <city name="Alambari">
    <latitude>23.8833333</latitude>
    <longitude>89.3166667</longitude>
  </city>
  <city name="Alam Biditar">
    <latitude>25.9166667</latitude>
    <longitude>89.1333333</longitude>
  </city>
  <city name="Alamdanga">
    <latitude>23.6833333</latitude>
    <longitude>89.3833333</longitude>
  </city>
  <city name="Alamdia">
    <latitude>24.2833333</latitude>
    <longitude>90.7</longitude>
  </city>
  <city name="Alamdi">
    <latitude>23.7833333</latitude>
    <longitude>89.9166667</longitude>
  </city>
  <city name="Alamnagar">
    <latitude>23.8833333</latitude>
    <longitude>90.95</longitude>
  </city>
  <city name="Alampur">
    <latitude>22.8833333</latitude>
    <longitude>91.0666667</longitude>
  </city>
  <city name="Alamsri">
    <latitude>24.6333333</latitude>
    <longitude>90.9333333</longitude>
  </city>
  <city name="Alamtala">
    <latitude>22.5666667</latitude>
    <longitude>89.3166667</longitude>
  </city>
  <city name="Alangidanga">
    <latitude>23.6666667</latitude>
    <longitude>89.4833333</longitude>
  </city>
  <city name="Alankarpur">
    <latitude>24.95</latitude>
    <longitude>88.8</longitude>
  </city>
  <city name="Alapdi">
    <latitude>23.6333333</latitude>
    <longitude>90.5666667</longitude>
  </city>
  <city name="Alapsingh Challisa">
    <latitude>24.75</latitude>
    <longitude>90.7333333</longitude>
  </city>
  <city name="Alapur">
    <latitude>24.7666667</latitude>
    <longitude>91.85</longitude>
  </city>
  <city name="Alawa">
    <latitude>24.4833333</latitude>
    <longitude>91.7</longitude>
  </city>
  <city name="Alawakhawa">
    <latitude>26.2166667</latitude>
    <longitude>88.35</longitude>
  </city>
  <city name="Alayarpur">
    <latitude>22.95</latitude>
    <longitude>91.3</longitude>
  </city>
  <city name="Aldadpur">
    <latitude>25.5333333</latitude>
    <longitude>89.05</longitude>
  </city>
  <city name="Aldi">
    <latitude>23.5</latitude>
    <longitude>90.5</longitude>
  </city>
  <city name="Aledadpur">
    <latitude>24.8666667</latitude>
    <longitude>88.9333333</longitude>
  </city>
  <city name="Alekhar Char">
    <latitude>23.4666667</latitude>
    <longitude>91.1333333</longitude>
  </city>
  <city name="Alfadanga">
    <latitude>23.3</latitude>
    <longitude>89.7</longitude>
  </city>
  <city name="Alfapur">
    <latitude>23.6333333</latitude>
    <longitude>89.35</longitude>
  </city>
  <city name="Algi">
    <latitude>23.2333333</latitude>
    <longitude>90.75</longitude>
  </city>
  <city name="Algi Mukundi">
    <latitude>23.3333333</latitude>
    <longitude>90.7</longitude>
  </city>
  <city name="Algir Char">
    <latitude>23.7333333</latitude>
    <longitude>90.8166667</longitude>
  </city>
  <city name="Alhadpur">
    <latitude>24.8333333</latitude>
    <longitude>88.8166667</longitude>
  </city>
  <city name="Alhas">
    <latitude>23.6333333</latitude>
    <longitude>88.95</longitude>
  </city>
  <city name="Aliabad">
    <latitude>23.5666667</latitude>
    <longitude>91.05</longitude>
  </city>
  <city name="Alia Bakri">
    <latitude>23.5833333</latitude>
    <longitude>89.2833333</longitude>
  </city>
  <city name="Ali Akbardeil">
    <latitude>21.8</latitude>
    <longitude>91.85</longitude>
  </city>
  <city name="Ali Akbari">
    <latitude>24.15</latitude>
    <longitude>90.9</longitude>
  </city>
  <city name="Aliara">
    <latitude>23.3833333</latitude>
    <longitude>90.8166667</longitude>
  </city>
  <city name="Aliarpara">
    <latitude>24.4</latitude>
    <longitude>90.7166667</longitude>
  </city>
  <city name="Alideola">
    <latitude>24.9333333</latitude>
    <longitude>88.65</longitude>
  </city>
  <city name="Alidhani">
    <latitude>23.5</latitude>
    <longitude>89.3833333</longitude>
  </city>
  <city name="Aligadi">
    <latitude>23.75</latitude>
    <longitude>90.6833333</longitude>
  </city>
  <city name="Aliganja">
    <latitude>24.4</latitude>
    <longitude>88.5833333</longitude>
  </city>
  <city name="Aliganj">
    <latitude>23.65</latitude>
    <longitude>90.4666667</longitude>
  </city>
  <city name="Aligaon">
    <latitude>25.1666667</latitude>
    <longitude>89.2166667</longitude>
  </city>
  <city name="Alihargati">
    <latitude>24.55</latitude>
    <longitude>90.5666667</longitude>
  </city>
  <city name="Ali Hashimpur">
    <latitude>22.9166667</latitude>
    <longitude>91.05</longitude>
  </city>
  <city name="Alikamora">
    <latitude>23.45</latitude>
    <longitude>90.9833333</longitude>
  </city>
  <city name="Alikhalipara">
    <latitude>20.9666667</latitude>
    <longitude>92.25</longitude>
  </city>
  <city name="Alimabad">
    <latitude>23.0066667</latitude>
    <longitude>90.3377778</longitude>
  </city>
  <city name="Ali Mohammadpur">
    <latitude>24.9666667</latitude>
    <longitude>89.0833333</longitude>
  </city>
  <city name="Alimpur">
    <latitude>24.5833333</latitude>
    <longitude>91.4333333</longitude>
  </city>
  <city name="Ali Muhammadpur">
    <latitude>24.9666667</latitude>
    <longitude>89.0833333</longitude>
  </city>
  <city name="Alinagar">
    <latitude>23.6333333</latitude>
    <longitude>90.4666667</longitude>
  </city>
  <city name="Alinagar Chak">
    <latitude>23.9166667</latitude>
    <longitude>90.75</longitude>
  </city>
  <city name="Alinagar Diara">
    <latitude>23.9</latitude>
    <longitude>89.9666667</longitude>
  </city>
  <city name="Alinapara">
    <latitude>24.9833333</latitude>
    <longitude>90.1166667</longitude>
  </city>
  <city name="Alipura">
    <latitude>23.4166667</latitude>
    <longitude>90.6666667</longitude>
  </city>
  <city name="Alipur">
    <latitude>22.85</latitude>
    <longitude>91.2333333</longitude>
  </city>
  <city name="Ali Rayer Char">
    <latitude>24.1666667</latitude>
    <longitude>90.95</longitude>
  </city>
  <city name="Alirgaon">
    <latitude>23.5833333</latitude>
    <longitude>90.7833333</longitude>
  </city>
  <city name="Alirtek">
    <latitude>23.5833333</latitude>
    <longitude>90.4666667</longitude>
  </city>
  <city name="Alisakandi">
    <latitude>23.0666667</latitude>
    <longitude>90.1333333</longitude>
  </city>
  <city name="Alisapur">
    <latitude>24.7333333</latitude>
    <longitude>88.35</longitude>
  </city>
  <city name="Alisha Kandi">
    <latitude>23.0666667</latitude>
    <longitude>90.1333333</longitude>
  </city>
  <city name="Alishor Kandi">
    <latitude>23.0666667</latitude>
    <longitude>90.1333333</longitude>
  </city>
  <city name="Aliswar">
    <latitude>23.3</latitude>
    <longitude>91.1333333</longitude>
  </city>
  <city name="Alkara">
    <latitude>23.1066667</latitude>
    <longitude>91.3419444</longitude>
  </city>
  <city name="Alladir Algi">
    <latitude>24.65</latitude>
    <longitude>90.5166667</longitude>
  </city>
  <city name="Allipur">
    <latitude>24.9833333</latitude>
    <longitude>90.9833333</longitude>
  </city>
  <city name="Aloakandi">
    <latitude>24.2</latitude>
    <longitude>90.75</longitude>
  </city>
  <city name="Aloakhawa">
    <latitude>26.2166667</latitude>
    <longitude>88.35</longitude>
  </city>
  <city name="Alohali">
    <latitude>24.85</latitude>
    <longitude>89.1833333</longitude>
  </city>
  <city name="Alokbali">
    <latitude>23.9</latitude>
    <longitude>90.8</longitude>
  </city>
  <city name="Alokdia">
    <latitude>23.2833333</latitude>
    <longitude>91.1166667</longitude>
  </city>
  <city name="Alokdihi">
    <latitude>25.75</latitude>
    <longitude>88.8166667</longitude>
  </city>
  <city name="Alokedia">
    <latitude>23.3833333</latitude>
    <longitude>91.1666667</longitude>
  </city>
  <city name="Alokjhari">
    <latitude>26.0</latitude>
    <longitude>88.7166667</longitude>
  </city>
  <city name="Alphadanga">
    <latitude>23.3</latitude>
    <longitude>89.7</longitude>
  </city>
  <city name="Altadighi">
    <latitude>24.9666667</latitude>
    <longitude>88.8166667</longitude>
  </city>
  <city name="Altakuri">
    <latitude>23.15</latitude>
    <longitude>90.4166667</longitude>
  </city>
  <city name="Alua Chandipur">
    <latitude>23.5833333</latitude>
    <longitude>91.0833333</longitude>
  </city>
  <city name="Alukanda">
    <latitude>24.85</latitude>
    <longitude>92.1833333</longitude>
  </city>
  <city name="Alukdia">
    <latitude>23.65</latitude>
    <longitude>88.8166667</longitude>
  </city>
  <city name="Alumoora">
    <latitude>23.2666667</latitude>
    <longitude>90.7333333</longitude>
  </city>
  <city name="Alumura">
    <latitude>23.2666667</latitude>
    <longitude>90.7333333</longitude>
  </city>
  <city name="Alunia">
    <latitude>23.05</latitude>
    <longitude>90.7333333</longitude>
  </city>
  <city name="Amabasyakhali">
    <latitude>21.6166667</latitude>
    <longitude>91.8666667</longitude>
  </city>
  <city name="Amadbala">
    <latitude>24.95</latitude>
    <longitude>89.3833333</longitude>
  </city>
  <city name="Amadi">
    <latitude>22.4666667</latitude>
    <longitude>89.3166667</longitude>
  </city>
  <city name="Amadpur">
    <latitude>25.5</latitude>
    <longitude>89.3666667</longitude>
  </city>
  <city name="Amaia">
    <latitude>23.85</latitude>
    <longitude>90.45</longitude>
  </city>
  <city name="Amaipukur">
    <latitude>25.1</latitude>
    <longitude>88.7166667</longitude>
  </city>
  <city name="Amair">
    <latitude>23.6666667</latitude>
    <longitude>90.55</longitude>
  </city>
  <city name="Amalia">
    <latitude>23.75</latitude>
    <longitude>90.4666667</longitude>
  </city>
  <city name="Amalsar">
    <latitude>23.65</latitude>
    <longitude>89.4166667</longitude>
  </city>
  <city name="Amanatpur">
    <latitude>22.9333333</latitude>
    <longitude>91.0833333</longitude>
  </city>
  <city name="Amanganda">
    <latitude>23.2666667</latitude>
    <longitude>91.3</longitude>
  </city>
  <city name="Amani Lakshmipur">
    <latitude>22.9833333</latitude>
    <longitude>91.0</longitude>
  </city>
  <city name="Amanta">
    <latitude>25.1333333</latitude>
    <longitude>88.6666667</longitude>
  </city>
  <city name="Amanullah">
    <latitude>22.4552778</latitude>
    <longitude>91.5016667</longitude>
  </city>
  <city name="Amanullahpur">
    <latitude>22.9166667</latitude>
    <longitude>91.0</longitude>
  </city>
  <city name="Amanullapur">
    <latitude>22.9666667</latitude>
    <longitude>90.8833333</longitude>
  </city>
  <city name="Amarak">
    <latitude>24.65</latitude>
    <longitude>88.3166667</longitude>
  </city>
  <city name="Amarakpur">
    <latitude>24.65</latitude>
    <longitude>88.3166667</longitude>
  </city>
  <city name="Amardi">
    <latitude>23.45</latitude>
    <longitude>89.7333333</longitude>
  </city>
  <city name="Amarpur">
    <latitude>22.8166667</latitude>
    <longitude>91.2333333</longitude>
  </city>
  <city name="Amar Singhapur">
    <latitude>24.75</latitude>
    <longitude>88.6166667</longitude>
  </city>
  <city name="Amarsinhapur">
    <latitude>24.75</latitude>
    <longitude>88.6166667</longitude>
  </city>
  <city name="Amatia">
    <latitude>24.4333333</latitude>
    <longitude>90.6166667</longitude>
  </city>
  <city name="Amati">
    <latitude>24.7666667</latitude>
    <longitude>90.8166667</longitude>
  </city>
  <city name="Amati Shibpur">
    <latitude>24.4166667</latitude>
    <longitude>90.8</longitude>
  </city>
  <city name="Amati Sibpur">
    <latitude>24.4166667</latitude>
    <longitude>90.8</longitude>
  </city>
  <city name="Amatta">
    <latitude>24.9666667</latitude>
    <longitude>89.0166667</longitude>
  </city>
  <city name="Amaturer Tenk">
    <latitude>24.3166667</latitude>
    <longitude>90.5833333</longitude>
  </city>
  <city name="Amavasyakhali">
    <latitude>21.6166667</latitude>
    <longitude>91.8666667</longitude>
  </city>
  <city name="Ambala">
    <latitude>22.95</latitude>
    <longitude>90.0833333</longitude>
  </city>
  <city name="Ambanagai">
    <latitude>22.9833333</latitude>
    <longitude>91.1833333</longitude>
  </city>
  <city name="Ambanagar">
    <latitude>22.9833333</latitude>
    <longitude>91.1833333</longitude>
  </city>
  <city name="Ambaria">
    <latitude>23.75</latitude>
    <longitude>89.45</longitude>
  </city>
  <city name="Ambari Mirzapur">
    <latitude>23.8</latitude>
    <longitude>88.9666667</longitude>
  </city>
  <city name="Ambarpur">
    <latitude>23.4666667</latitude>
    <longitude>90.9166667</longitude>
  </city>
  <city name="Ambikapur">
    <latitude>22.8333333</latitude>
    <longitude>90.5333333</longitude>
  </city>
  <city name="Amchhimair">
    <latitude>23.9833333</latitude>
    <longitude>90.1</longitude>
  </city>
  <city name="Amdaha">
    <latitude>24.0</latitude>
    <longitude>88.9333333</longitude>
  </city>
  <city name="Amdala">
    <latitude>23.8166667</latitude>
    <longitude>89.8333333</longitude>
  </city>
  <city name="Amdanga">
    <latitude>23.5166667</latitude>
    <longitude>89.6166667</longitude>
  </city>
  <city name="Amdi">
    <latitude>23.6666667</latitude>
    <longitude>90.6</longitude>
  </city>
  <city name="Amgachhiabari">
    <latitude>23.8</latitude>
    <longitude>90.05</longitude>
  </city>
  <city name="Amgachhi">
    <latitude>24.4333333</latitude>
    <longitude>88.7166667</longitude>
  </city>
  <city name="Amgaon">
    <latitude>25.9166667</latitude>
    <longitude>88.15</longitude>
  </city>
  <city name="Amghail">
    <latitude>24.85</latitude>
    <longitude>90.9</longitude>
  </city>
  <city name="Amghata">
    <latitude>23.4666667</latitude>
    <longitude>90.5333333</longitude>
  </city>
  <city name="Amghoshpara">
    <latitude>24.5</latitude>
    <longitude>88.9</longitude>
  </city>
  <city name="Amgram">
    <latitude>23.1694444</latitude>
    <longitude>90.0538889</longitude>
  </city>
  <city name="Amhati">
    <latitude>24.4333333</latitude>
    <longitude>89.0</longitude>
  </city>
  <city name="Amhati Kalikapur">
    <latitude>24.4333333</latitude>
    <longitude>88.9666667</longitude>
  </city>
  <city name="Amhati Sibpur">
    <latitude>24.4166667</latitude>
    <longitude>88.9666667</longitude>
  </city>
  <city name="Amian">
    <latitude>22.4666667</latitude>
    <longitude>89.0333333</longitude>
  </city>
  <city name="Amian Dangri">
    <latitude>24.5666667</latitude>
    <longitude>90.4833333</longitude>
  </city>
  <city name="Amini">
    <latitude>23.05</latitude>
    <longitude>89.0333333</longitude>
  </city>
  <city name="Aminpur">
    <latitude>23.65</latitude>
    <longitude>90.6</longitude>
  </city>
  <city name="Amira">
    <latitude>25.0</latitude>
    <longitude>89.05</longitude>
  </city>
  <city name="Amirabad">
    <latitude>22.0333333</latitude>
    <longitude>92.0833333</longitude>
  </city>
  <city name="Amirabari">
    <latitude>24.4833333</latitude>
    <longitude>90.4</longitude>
  </city>
  <city name="Amirpur">
    <latitude>23.1</latitude>
    <longitude>90.9166667</longitude>
  </city>
  <city name="Amishapara">
    <latitude>23.0166667</latitude>
    <longitude>91.05</longitude>
  </city>
  <city name="Amiyapur">
    <latitude>23.4666667</latitude>
    <longitude>90.6333333</longitude>
  </city>
  <city name="Amjadhat">
    <latitude>23.1166667</latitude>
    <longitude>91.5</longitude>
  </city>
  <city name="Amjani">
    <latitude>24.4166667</latitude>
    <longitude>90.0833333</longitude>
  </city>
  <city name="Amjhupi">
    <latitude>23.75</latitude>
    <longitude>88.7</longitude>
  </city>
  <city name="Amkathalia">
    <latitude>23.95</latitude>
    <longitude>89.0333333</longitude>
  </city>
  <city name="Amkhawa">
    <latitude>25.3</latitude>
    <longitude>89.7666667</longitude>
  </city>
  <city name="Amkhola">
    <latitude>24.3833333</latitude>
    <longitude>90.55</longitude>
  </city>
  <city name="Amkhowa">
    <latitude>25.3</latitude>
    <longitude>89.7666667</longitude>
  </city>
  <city name="Amla">
    <latitude>23.9</latitude>
    <longitude>88.9333333</longitude>
  </city>
  <city name="Amlaba">
    <latitude>23.8</latitude>
    <longitude>90.55</longitude>
  </city>
  <city name="Amlab">
    <latitude>23.8</latitude>
    <longitude>90.55</longitude>
  </city>
  <city name="Amlabari">
    <latitude>23.8833333</latitude>
    <longitude>89.3166667</longitude>
  </city>
  <city name="Amlagachhi">
    <latitude>24.3333333</latitude>
    <longitude>88.9166667</longitude>
  </city>
  <city name="Amlai">
    <latitude>22.9547222</latitude>
    <longitude>88.9216667</longitude>
  </city>
  <city name="Amlaki">
    <latitude>23.35</latitude>
    <longitude>90.95</longitude>
  </city>
  <city name="Amla Para">
    <latitude>23.7166667</latitude>
    <longitude>90.3833333</longitude>
  </city>
  <city name="Amlichukai">
    <latitude>25.0</latitude>
    <longitude>89.4</longitude>
  </city>
  <city name="Amli Keshabpur">
    <latitude>24.9</latitude>
    <longitude>90.7</longitude>
  </city>
  <city name="Ammajhi">
    <latitude>24.75</latitude>
    <longitude>89.3333333</longitude>
  </city>
  <city name="Amnura">
    <latitude>24.6166667</latitude>
    <longitude>88.4166667</longitude>
  </city>
  <city name="Amodabad">
    <latitude>24.55</latitude>
    <longitude>90.6666667</longitude>
  </city>
  <city name="Amrabari">
    <latitude>25.4666667</latitude>
    <longitude>88.95</longitude>
  </city>
  <city name="Amragachhia Hogalpati">
    <latitude>22.2333333</latitude>
    <longitude>89.9166667</longitude>
  </city>
  <city name="Amrai">
    <latitude>24.95</latitude>
    <longitude>88.6333333</longitude>
  </city>
  <city name="Amraid">
    <latitude>24.2</latitude>
    <longitude>90.6166667</longitude>
  </city>
  <city name="Amrapur">
    <latitude>23.9833333</latitude>
    <longitude>90.0333333</longitude>
  </city>
  <city name="Amrapur Dhulandi">
    <latitude>23.85</latitude>
    <longitude>89.9</longitude>
  </city>
  <city name="Amratala">
    <latitude>23.1333333</latitude>
    <longitude>90.1666667</longitude>
  </city>
  <city name="Amratali">
    <latitude>23.3666667</latitude>
    <longitude>91.1</longitude>
  </city>
  <city name="Amrita Bazar">
    <latitude>23.15</latitude>
    <longitude>89.0666667</longitude>
  </city>
  <city name="Amritapara">
    <latitude>24.1833333</latitude>
    <longitude>88.9333333</longitude>
  </city>
  <city name="Amritapur">
    <latitude>24.85</latitude>
    <longitude>88.5166667</longitude>
  </city>
  <city name="Amritapur Srimantapur">
    <latitude>24.8333333</latitude>
    <longitude>90.95</longitude>
  </city>
  <city name="Amrulbari">
    <latitude>25.6833333</latitude>
    <longitude>89.0333333</longitude>
  </city>
  <city name="Amsatta">
    <latitude>24.85</latitude>
    <longitude>89.1</longitude>
  </city>
  <city name="Amsola">
    <latitude>24.7666667</latitude>
    <longitude>90.5333333</longitude>
  </city>
  <city name="Amta">
    <latitude>23.9833333</latitude>
    <longitude>90.0666667</longitude>
  </city>
  <city name="Amtail">
    <latitude>23.5666667</latitude>
    <longitude>89.4166667</longitude>
  </city>
  <city name="Amtail Nischintapur">
    <latitude>24.9333333</latitude>
    <longitude>90.4333333</longitude>
  </city>
  <city name="Amtala">
    <latitude>24.6333333</latitude>
    <longitude>90.8166667</longitude>
  </city>
  <city name="Amtala Digar">
    <latitude>24.6333333</latitude>
    <longitude>90.7833333</longitude>
  </city>
  <city name="Amtali">
    <latitude>22.75</latitude>
    <longitude>91.7666667</longitude>
  </city>
  <city name="Amtoli">
    <latitude>23.2</latitude>
    <longitude>91.0666667</longitude>
  </city>
  <city name="Amua">
    <latitude>22.3833333</latitude>
    <longitude>90.0833333</longitude>
  </city>
  <city name="Amua Kanda">
    <latitude>24.9333333</latitude>
    <longitude>90.3666667</longitude>
  </city>
  <city name="Amuakandi">
    <latitude>23.4</latitude>
    <longitude>90.75</longitude>
  </city>
  <city name="Amudabad">
    <latitude>24.55</latitude>
    <longitude>90.6666667</longitude>
  </city>
  <city name="Amudpur">
    <latitude>24.55</latitude>
    <longitude>90.6333333</longitude>
  </city>
  <city name="Amujan">
    <latitude>23.2833333</latitude>
    <longitude>90.95</longitude>
  </city>
  <city name="Amukandi">
    <latitude>23.4</latitude>
    <longitude>90.75</longitude>
  </city>
  <city name="Amurdi">
    <latitude>23.5333333</latitude>
    <longitude>89.7</longitude>
  </city>
  <city name="Amuria">
    <latitude>23.0666667</latitude>
    <longitude>89.7833333</longitude>
  </city>
  <city name="Amurkata">
    <latitude>22.55</latitude>
    <longitude>89.3666667</longitude>
  </city>
  <city name="Anailakhola">
    <latitude>24.0</latitude>
    <longitude>90.1666667</longitude>
  </city>
  <city name="Anailkota">
    <latitude>23.3</latitude>
    <longitude>91.0</longitude>
  </city>
  <city name="Anakhanda">
    <latitude>23.25</latitude>
    <longitude>90.4</longitude>
  </city>
  <city name="Analbania">
    <latitude>22.4</latitude>
    <longitude>90.1166667</longitude>
  </city>
  <city name="Analia">
    <latitude>22.9166667</latitude>
    <longitude>90.6</longitude>
  </city>
  <city name="Anandabas">
    <latitude>23.6166667</latitude>
    <longitude>88.6333333</longitude>
  </city>
  <city name="Anandakati">
    <latitude>22.65</latitude>
    <longitude>90.1666667</longitude>
  </city>
  <city name="Anandanagar">
    <latitude>23.7833333</latitude>
    <longitude>90.35</longitude>
  </city>
  <city name="Anandapur">
    <latitude>23.0833333</latitude>
    <longitude>91.45</longitude>
  </city>
  <city name="Anandi">
    <latitude>23.85</latitude>
    <longitude>90.6833333</longitude>
  </city>
  <city name="Anandipur">
    <latitude>22.9166667</latitude>
    <longitude>91.4</longitude>
  </city>
  <city name="Anantabala">
    <latitude>24.9666667</latitude>
    <longitude>89.35</longitude>
  </city>
  <city name="Anantabari">
    <latitude>24.8666667</latitude>
    <longitude>90.0333333</longitude>
  </city>
  <city name="Ananta Gobindapur">
    <latitude>24.8833333</latitude>
    <longitude>88.8833333</longitude>
  </city>
  <city name="Anantagobindpur">
    <latitude>24.8833333</latitude>
    <longitude>88.8833333</longitude>
  </city>
  <city name="Anantamuchha">
    <latitude>23.6333333</latitude>
    <longitude>90.6</longitude>
  </city>
  <city name="Anantapara">
    <latitude>24.5833333</latitude>
    <longitude>88.85</longitude>
  </city>
  <city name="Anantapur">
    <latitude>22.9</latitude>
    <longitude>91.0833333</longitude>
  </city>
  <city name="Anantaram">
    <latitude>25.65</latitude>
    <longitude>89.4166667</longitude>
  </city>
  <city name="Anantasar">
    <latitude>23.4666667</latitude>
    <longitude>90.2833333</longitude>
  </city>
  <city name="Anarabad">
    <latitude>24.0166667</latitude>
    <longitude>90.95</longitude>
  </city>
  <city name="Anarpur">
    <latitude>23.5666667</latitude>
    <longitude>90.6333333</longitude>
  </city>
  <city name="Anchua">
    <latitude>24.65</latitude>
    <longitude>88.3333333</longitude>
  </city>
  <city name="Anda">
    <latitude>24.95</latitude>
    <longitude>90.55</longitude>
  </city>
  <city name="Andalpota">
    <latitude>23.0833333</latitude>
    <longitude>89.0333333</longitude>
  </city>
  <city name="Andar Char">
    <latitude>21.8666667</latitude>
    <longitude>90.5166667</longitude>
  </city>
  <city name="Andarmanik">
    <latitude>24.4333333</latitude>
    <longitude>90.8833333</longitude>
  </city>
  <city name="Andarul">
    <latitude>23.9</latitude>
    <longitude>90.35</longitude>
  </city>
  <city name="Andharail">
    <latitude>24.75</latitude>
    <longitude>88.4333333</longitude>
  </city>
  <city name="Andhariapara">
    <latitude>24.6333333</latitude>
    <longitude>90.3333333</longitude>
  </city>
  <city name="Andharkota">
    <latitude>23.6333333</latitude>
    <longitude>89.3166667</longitude>
  </city>
  <city name="Andharmanik">
    <latitude>22.9666667</latitude>
    <longitude>91.7</longitude>
  </city>
  <city name="Andhar Manik">
    <latitude>24.4333333</latitude>
    <longitude>90.8833333</longitude>
  </city>
  <city name="Andharpara">
    <latitude>25.15</latitude>
    <longitude>90.1833333</longitude>
  </city>
  <city name="Andherchar">
    <latitude>23.0333333</latitude>
    <longitude>90.3</longitude>
  </city>
  <city name="Andhrail">
    <latitude>24.75</latitude>
    <longitude>88.4333333</longitude>
  </city>
  <city name="Andi">
    <latitude>24.2</latitude>
    <longitude>88.95</longitude>
  </city>
  <city name="Andibari">
    <latitude>23.95</latitude>
    <longitude>89.9333333</longitude>
  </city>
  <city name="Andirpar">
    <latitude>23.3666667</latitude>
    <longitude>90.9166667</longitude>
  </city>
  <city name="Andua">
    <latitude>24.4166667</latitude>
    <longitude>88.7166667</longitude>
  </city>
  <city name="Andulbaria">
    <latitude>23.4833333</latitude>
    <longitude>88.8833333</longitude>
  </city>
  <city name="Andulia">
    <latitude>23.75</latitude>
    <longitude>89.3833333</longitude>
  </city>
  <city name="Angajur">
    <latitude>24.8666667</latitude>
    <longitude>92.2333333</longitude>
  </city>
  <city name="Angargara">
    <latitude>24.3666667</latitude>
    <longitude>90.2666667</longitude>
  </city>
  <city name="Angaria">
    <latitude>22.4833333</latitude>
    <longitude>90.3666667</longitude>
  </city>
  <city name="Angari">
    <latitude>24.2666667</latitude>
    <longitude>90.6166667</longitude>
  </city>
  <city name="Angarjora">
    <latitude>23.85</latitude>
    <longitude>90.5666667</longitude>
  </city>
  <city name="Angarjur">
    <latitude>25.0166667</latitude>
    <longitude>91.8333333</longitude>
  </city>
  <city name="Angarpara">
    <latitude>23.0833333</latitude>
    <longitude>90.8666667</longitude>
  </city>
  <city name="Angarua">
    <latitude>24.7</latitude>
    <longitude>90.7</longitude>
  </city>
  <city name="Angatia">
    <latitude>24.0666667</latitude>
    <longitude>90.3666667</longitude>
  </city>
  <city name="Angfand">
    <latitude>25.0166667</latitude>
    <longitude>91.8333333</longitude>
  </city>
  <city name="Angiadi">
    <latitude>24.2833333</latitude>
    <longitude>90.6833333</longitude>
  </city>
  <city name="Angrat">
    <latitude>25.1166667</latitude>
    <longitude>88.8666667</longitude>
  </city>
  <city name="Angutia">
    <latitude>23.8833333</latitude>
    <longitude>90.0333333</longitude>
  </city>
  <city name="Anjaba">
    <latitude>24.1333333</latitude>
    <longitude>90.6166667</longitude>
  </city>
  <city name="Anjadhat">
    <latitude>23.1155556</latitude>
    <longitude>91.51</longitude>
  </city>
  <city name="Anjanagachhi">
    <latitude>23.9</latitude>
    <longitude>88.9833333</longitude>
  </city>
  <city name="Anjanagachi Village">
    <latitude>23.9</latitude>
    <longitude>88.9833333</longitude>
  </city>
  <city name="Anjangachi">
    <latitude>23.9</latitude>
    <longitude>88.9833333</longitude>
  </city>
  <city name="Ankutia">
    <latitude>24.2</latitude>
    <longitude>89.25</longitude>
  </city>
  <city name="Anoarkhali">
    <latitude>24.35</latitude>
    <longitude>90.6833333</longitude>
  </city>
  <city name="Anoar Khila">
    <latitude>24.95</latitude>
    <longitude>90.35</longitude>
  </city>
  <city name="Anowara">
    <latitude>22.2433333</latitude>
    <longitude>91.88</longitude>
  </city>
  <city name="Antabania">
    <latitude>22.3833333</latitude>
    <longitude>89.2833333</longitude>
  </city>
  <city name="Antahar">
    <latitude>24.9166667</latitude>
    <longitude>89.3</longitude>
  </city>
  <city name="Antehari">
    <latitude>24.5666667</latitude>
    <longitude>91.7666667</longitude>
  </city>
  <city name="Anuakhola">
    <latitude>23.4930556</latitude>
    <longitude>90.8641667</longitude>
  </city>
  <city name="Anuha">
    <latitude>24.45</latitude>
    <longitude>90.6833333</longitude>
  </city>
  <city name="Anuhadi">
    <latitude>24.5666667</latitude>
    <longitude>90.2</longitude>
  </city>
  <city name="Anul">
    <latitude>23.8666667</latitude>
    <longitude>90.4333333</longitude>
  </city>
  <city name="Anulia">
    <latitude>24.5166667</latitude>
    <longitude>88.8333333</longitude>
  </city>
  <city name="Anupampur">
    <latitude>24.2833333</latitude>
    <longitude>88.7666667</longitude>
  </city>
  <city name="Anupnagar">
    <latitude>24.5166667</latitude>
    <longitude>88.3</longitude>
  </city>
  <city name="Anurag">
    <latitude>22.65</latitude>
    <longitude>90.3</longitude>
  </city>
  <city name="Anwarpur">
    <latitude>23.45</latitude>
    <longitude>90.7</longitude>
  </city>
  <city name="Anyapur">
    <latitude>23.8166667</latitude>
    <longitude>89.7833333</longitude>
  </city>
  <city name="Anyaypur">
    <latitude>23.8166667</latitude>
    <longitude>89.7833333</longitude>
  </city>
  <city name="Aodha">
    <latitude>23.65</latitude>
    <longitude>89.3333333</longitude>
  </city>
  <city name="Aodhata">
    <latitude>23.4166667</latitude>
    <longitude>90.9833333</longitude>
  </city>
  <city name="Aolahat">
    <latitude>23.8833333</latitude>
    <longitude>90.6333333</longitude>
  </city>
  <city name="Aolakhair">
    <latitude>24.8</latitude>
    <longitude>89.25</longitude>
  </city>
  <city name="Aolakhayer">
    <latitude>24.8</latitude>
    <longitude>89.25</longitude>
  </city>
  <city name="Aolatail">
    <latitude>24.3666667</latitude>
    <longitude>90.0666667</longitude>
  </city>
  <city name="Aolat">
    <latitude>23.8833333</latitude>
    <longitude>90.6333333</longitude>
  </city>
  <city name="Aoliapur">
    <latitude>23.2166667</latitude>
    <longitude>90.25</longitude>
  </city>
  <city name="Aona">
    <latitude>23.7</latitude>
    <longitude>90.2</longitude>
  </city>
  <city name="Aorabania">
    <latitude>22.4666667</latitude>
    <longitude>90.1666667</longitude>
  </city>
  <city name="Aoral">
    <latitude>23.4333333</latitude>
    <longitude>90.95</longitude>
  </city>
  <city name="Aosanpur">
    <latitude>23.5833333</latitude>
    <longitude>91.0333333</longitude>
  </city>
  <city name="Apar">
    <latitude>23.4747222</latitude>
    <longitude>90.3747222</longitude>
  </city>
  <city name="Aparkati">
    <latitude>23.5</latitude>
    <longitude>90.4333333</longitude>
  </city>
  <city name="Apashi">
    <latitude>23.1833333</latitude>
    <longitude>90.1166667</longitude>
  </city>
  <city name="Apasi">
    <latitude>23.1833333</latitude>
    <longitude>90.1166667</longitude>
  </city>
  <city name="Aphulsi">
    <latitude>23.0</latitude>
    <longitude>91.05</longitude>
  </city>
  <city name="Aptair">
    <latitude>25.2833333</latitude>
    <longitude>89.0166667</longitude>
  </city>
  <city name="Ara">
    <latitude>23.9</latitude>
    <longitude>90.5333333</longitude>
  </city>
  <city name="Arabab">
    <latitude>24.45</latitude>
    <longitude>88.8333333</longitude>
  </city>
  <city name="Arabaria">
    <latitude>23.7166667</latitude>
    <longitude>89.55</longitude>
  </city>
  <city name="Arabari">
    <latitude>24.1833333</latitude>
    <longitude>90.65</longitude>
  </city>
  <city name="Arabpur">
    <latitude>23.1666667</latitude>
    <longitude>89.1833333</longitude>
  </city>
  <city name="Arachaandi">
    <latitude>23.3333333</latitude>
    <longitude>90.3</longitude>
  </city>
  <city name="Arachandi">
    <latitude>23.3333333</latitude>
    <longitude>90.3</longitude>
  </city>
  <city name="Arachari">
    <latitude>22.4333333</latitude>
    <longitude>92.2666667</longitude>
  </city>
  <city name="Arachhari">
    <latitude>22.4333333</latitude>
    <longitude>92.2666667</longitude>
  </city>
  <city name="Aradaha">
    <latitude>23.2333333</latitude>
    <longitude>89.0833333</longitude>
  </city>
  <city name="Aradhipara">
    <latitude>23.55</latitude>
    <longitude>90.2833333</longitude>
  </city>
  <city name="Arai">
    <latitude>23.3666667</latitude>
    <longitude>91.0833333</longitude>
  </city>
  <city name="Araibaria">
    <latitude>24.4333333</latitude>
    <longitude>90.6666667</longitude>
  </city>
  <city name="Araibari">
    <latitude>23.75</latitude>
    <longitude>91.1333333</longitude>
  </city>
  <city name="Araibeki">
    <latitude>22.5166667</latitude>
    <longitude>90.3</longitude>
  </city>
  <city name="Araidron">
    <latitude>22.7333333</latitude>
    <longitude>90.2833333</longitude>
  </city>
  <city name="Araihazar">
    <latitude>23.7916667</latitude>
    <longitude>90.6644444</longitude>
  </city>
  <city name="Arail">
    <latitude>24.4833333</latitude>
    <longitude>88.8333333</longitude>
  </city>
  <city name="Araipara">
    <latitude>23.2166667</latitude>
    <longitude>90.1</longitude>
  </city>
  <city name="Araisat">
    <latitude>23.5333333</latitude>
    <longitude>89.4</longitude>
  </city>
  <city name="Araisidha">
    <latitude>24.0</latitude>
    <longitude>91.0</longitude>
  </city>
  <city name="Araisprasad">
    <latitude>24.05</latitude>
    <longitude>90.4</longitude>
  </city>
  <city name="Araiura">
    <latitude>23.4666667</latitude>
    <longitude>91.15</longitude>
  </city>
  <city name="Araji Amdabad">
    <latitude>23.15</latitude>
    <longitude>89.1166667</longitude>
  </city>
  <city name="Araji Bahirchar Ghoshkati">
    <latitude>22.85</latitude>
    <longitude>90.3</longitude>
  </city>
  <city name="Araji Barkhadia">
    <latitude>23.4</latitude>
    <longitude>89.7166667</longitude>
  </city>
  <city name="Araji Borkhadia">
    <latitude>23.4</latitude>
    <longitude>89.7166667</longitude>
  </city>
  <city name="Araji Gariana">
    <latitude>23.75</latitude>
    <longitude>89.55</longitude>
  </city>
  <city name="Araji Gobindpur">
    <latitude>22.6</latitude>
    <longitude>90.2333333</longitude>
  </city>
  <city name="Araji Jinapur">
    <latitude>24.7666667</latitude>
    <longitude>88.6833333</longitude>
  </city>
  <city name="Araji Kalikapur">
    <latitude>22.8</latitude>
    <longitude>90.3333333</longitude>
  </city>
  <city name="Araji Musuria">
    <latitude>22.7666667</latitude>
    <longitude>90.2666667</longitude>
  </city>
  <city name="Araji Naya Naobhanga">
    <latitude>24.6333333</latitude>
    <longitude>88.2333333</longitude>
  </city>
  <city name="Araji Osmanpur">
    <latitude>23.8</latitude>
    <longitude>89.25</longitude>
  </city>
  <city name="Araji Paikhati">
    <latitude>23.45</latitude>
    <longitude>89.6666667</longitude>
  </city>
  <city name="Araji Sahapur">
    <latitude>25.1</latitude>
    <longitude>89.4333333</longitude>
  </city>
  <city name="Araji Sibanandapur">
    <latitude>23.4333333</latitude>
    <longitude>89.7166667</longitude>
  </city>
  <city name="Araji Sree Nagar">
    <latitude>23.3833333</latitude>
    <longitude>89.7666667</longitude>
  </city>
  <city name="Araji Srinagar">
    <latitude>23.3833333</latitude>
    <longitude>89.7666667</longitude>
  </city>
  <city name="Araji Umedpur">
    <latitude>23.4</latitude>
    <longitude>89.5333333</longitude>
  </city>
  <city name="Arakul">
    <latitude>23.65</latitude>
    <longitude>90.4166667</longitude>
  </city>
  <city name="Aral">
    <latitude>24.1166667</latitude>
    <longitude>90.65</longitude>
  </city>
  <city name="Aralia">
    <latitude>23.6166667</latitude>
    <longitude>90.95</longitude>
  </city>
  <city name="Arali">
    <latitude>24.0333333</latitude>
    <longitude>90.75</longitude>
  </city>
  <city name="Aralia Srimantapur">
    <latitude>23.5333333</latitude>
    <longitude>89.3666667</longitude>
  </city>
  <city name="Aranagar">
    <latitude>25.1</latitude>
    <longitude>88.85</longitude>
  </city>
  <city name="Arangabad">
    <latitude>23.9666667</latitude>
    <longitude>89.3166667</longitude>
  </city>
  <city name="Arangachha">
    <latitude>22.3666667</latitude>
    <longitude>89.0166667</longitude>
  </city>
  <city name="Arani">
    <latitude>24.2833333</latitude>
    <longitude>88.8666667</longitude>
  </city>
  <city name="Arankhola">
    <latitude>24.6833333</latitude>
    <longitude>90.0833333</longitude>
  </city>
  <city name="Aranyapasa">
    <latitude>24.5666667</latitude>
    <longitude>90.75</longitude>
  </city>
  <city name="Aranyapur">
    <latitude>23.4666667</latitude>
    <longitude>91.2333333</longitude>
  </city>
  <city name="Arapara">
    <latitude>23.85</latitude>
    <longitude>90.25</longitude>
  </city>
  <city name="Arar">
    <latitude>22.6</latitude>
    <longitude>89.2</longitude>
  </city>
  <city name="Arardaha">
    <latitude>23.2333333</latitude>
    <longitude>89.0833333</longitude>
  </city>
  <city name="Aratankanpara">
    <latitude>24.9833333</latitude>
    <longitude>90.4333333</longitude>
  </city>
  <city name="Arazee Cheenatulee">
    <latitude>25.8333333</latitude>
    <longitude>89.45</longitude>
  </city>
  <city name="Arazi Amdabad">
    <latitude>23.15</latitude>
    <longitude>89.1166667</longitude>
  </city>
  <city name="Arazi Bahirchar Ghoshkati">
    <latitude>22.85</latitude>
    <longitude>90.3</longitude>
  </city>
  <city name="Arazi Baknai">
    <latitude>24.1666667</latitude>
    <longitude>88.9333333</longitude>
  </city>
  <city name="Arazi Balarampur">
    <latitude>23.9333333</latitude>
    <longitude>89.3166667</longitude>
  </city>
  <city name="Arazi Barkhadia">
    <latitude>23.4</latitude>
    <longitude>89.7166667</longitude>
  </city>
  <city name="Arazi Bhabanipur">
    <latitude>22.6</latitude>
    <longitude>89.2666667</longitude>
  </city>
  <city name="Arazi Bhawanipur">
    <latitude>22.6</latitude>
    <longitude>89.2666667</longitude>
  </city>
  <city name="Arazi Chandpur">
    <latitude>24.1666667</latitude>
    <longitude>88.8833333</longitude>
  </city>
  <city name="Arazi Chinatuli">
    <latitude>25.8333333</latitude>
    <longitude>89.45</longitude>
  </city>
  <city name="Arazi Daudpur">
    <latitude>24.9833333</latitude>
    <longitude>88.9</longitude>
  </city>
  <city name="Arazi Dawdpur">
    <latitude>24.9833333</latitude>
    <longitude>88.9</longitude>
  </city>
  <city name="Arazi Gariana">
    <latitude>23.75</latitude>
    <longitude>89.55</longitude>
  </city>
  <city name="Arazi Gayespur">
    <latitude>23.05</latitude>
    <longitude>89.2</longitude>
  </city>
  <city name="Arazi Gobindapur">
    <latitude>22.6</latitude>
    <longitude>90.2333333</longitude>
  </city>
  <city name="Arazi Gokhurabad">
    <latitude>24.2166667</latitude>
    <longitude>88.9</longitude>
  </city>
  <city name="Arazigoyespur">
    <latitude>23.05</latitude>
    <longitude>89.2</longitude>
  </city>
  <city name="Arazi Jalalpur">
    <latitude>24.3333333</latitude>
    <longitude>88.9</longitude>
  </city>
  <city name="Arazi Jinarpur">
    <latitude>24.7666667</latitude>
    <longitude>88.6833333</longitude>
  </city>
  <city name="Arazi Kalikapur">
    <latitude>22.8</latitude>
    <longitude>90.3333333</longitude>
  </city>
  <city name="Arazi Kasibritti">
    <latitude>24.9166667</latitude>
    <longitude>88.5833333</longitude>
  </city>
  <city name="Arazi Lakhhati">
    <latitude>22.9333333</latitude>
    <longitude>89.55</longitude>
  </city>
  <city name="Arazi Leppara">
    <latitude>24.5</latitude>
    <longitude>88.9</longitude>
  </city>
  <city name="Arazi Maminpur">
    <latitude>25.7666667</latitude>
    <longitude>89.15</longitude>
  </city>
  <city name="Arazi Mandalgati">
    <latitude>23.2833333</latitude>
    <longitude>89.5666667</longitude>
  </city>
  <city name="Arazi Mominpoor">
    <latitude>25.7666667</latitude>
    <longitude>89.15</longitude>
  </city>
  <city name="Arazi Musuria">
    <latitude>22.7666667</latitude>
    <longitude>90.2666667</longitude>
  </city>
  <city name="Arazinagar">
    <latitude>23.5833333</latitude>
    <longitude>91.0166667</longitude>
  </city>
  <city name="Arazi Naogaon">
    <latitude>24.8</latitude>
    <longitude>88.9333333</longitude>
  </city>
  <city name="Arazi Narayanpur">
    <latitude>23.6666667</latitude>
    <longitude>89.5833333</longitude>
  </city>
  <city name="Arazinasar">
    <latitude>23.5833333</latitude>
    <longitude>91.0166667</longitude>
  </city>
  <city name="Arazi Naya Naobhanga">
    <latitude>24.6333333</latitude>
    <longitude>88.2333333</longitude>
  </city>
  <city name="Arazi Naya Noabhanga">
    <latitude>24.6333333</latitude>
    <longitude>88.2333333</longitude>
  </city>
  <city name="Arazi Osmanpur">
    <latitude>23.8</latitude>
    <longitude>89.25</longitude>
  </city>
  <city name="Arazi Paikhati">
    <latitude>23.45</latitude>
    <longitude>89.6666667</longitude>
  </city>
  <city name="Arazi Paikpara">
    <latitude>24.3333333</latitude>
    <longitude>88.8833333</longitude>
  </city>
  <city name="Arazi Par Achlai">
    <latitude>25.0</latitude>
    <longitude>89.3666667</longitude>
  </city>
  <city name="Arazi Pom">
    <latitude>23.1833333</latitude>
    <longitude>90.4166667</longitude>
  </city>
  <city name="Arazi Radhakantapur">
    <latitude>24.2333333</latitude>
    <longitude>88.9</longitude>
  </city>
  <city name="Arazi Rudrabana">
    <latitude>23.3333333</latitude>
    <longitude>89.6166667</longitude>
  </city>
  <city name="Arazi Sadipur">
    <latitude>24.2833333</latitude>
    <longitude>88.75</longitude>
  </city>
  <city name="Arazi Sahapur">
    <latitude>25.1</latitude>
    <longitude>89.4333333</longitude>
  </city>
  <city name="Arazi Sajiara">
    <latitude>22.8166667</latitude>
    <longitude>89.4333333</longitude>
  </city>
  <city name="Arazi Sara">
    <latitude>24.0666667</latitude>
    <longitude>89.0333333</longitude>
  </city>
  <city name="Arazi Sekherpukur">
    <latitude>24.75</latitude>
    <longitude>88.8833333</longitude>
  </city>
  <city name="Arazi Sibanandapur">
    <latitude>23.4333333</latitude>
    <longitude>89.7166667</longitude>
  </city>
  <city name="Arazi Srinagar">
    <latitude>23.3833333</latitude>
    <longitude>89.7666667</longitude>
  </city>
  <city name="Arazi Sultan">
    <latitude>24.2166667</latitude>
    <longitude>88.9333333</longitude>
  </city>
  <city name="Arazi Sultanpur">
    <latitude>24.2166667</latitude>
    <longitude>88.9333333</longitude>
  </city>
  <city name="Arazi Tupipara">
    <latitude>23.5666667</latitude>
    <longitude>89.3833333</longitude>
  </city>
  <city name="Arazi Umedpur">
    <latitude>23.4</latitude>
    <longitude>89.5333333</longitude>
  </city>
  <city name="Arbab">
    <latitude>24.2333333</latitude>
    <longitude>88.9666667</longitude>
  </city>
  <city name="Archa">
    <latitude>24.9</latitude>
    <longitude>88.9333333</longitude>
  </city>
  <city name="Archail">
    <latitude>23.6833333</latitude>
    <longitude>90.0333333</longitude>
  </city>
  <city name="Arctika">
    <latitude>24.2</latitude>
    <longitude>88.9</longitude>
  </city>
  <city name="Ardhipara">
    <latitude>23.55</latitude>
    <longitude>90.2833333</longitude>
  </city>
  <city name="Argaria">
    <latitude>23.9833333</latitude>
    <longitude>90.4833333</longitude>
  </city>
  <city name="Aria">
    <latitude>23.95</latitude>
    <longitude>88.9</longitude>
  </city>
  <city name="Ariaba">
    <latitude>23.75</latitude>
    <longitude>90.55</longitude>
  </city>
  <city name="Ariadaha">
    <latitude>23.9</latitude>
    <longitude>89.9333333</longitude>
  </city>
  <city name="Arial">
    <latitude>24.0666667</latitude>
    <longitude>91.15</longitude>
  </city>
  <city name="Aricha">
    <latitude>23.8166667</latitude>
    <longitude>89.7666667</longitude>
  </city>
  <city name="Arifpur">
    <latitude>23.4166667</latitude>
    <longitude>91.0333333</longitude>
  </city>
  <city name="Arigaon">
    <latitude>23.2166667</latitude>
    <longitude>90.3166667</longitude>
  </city>
  <city name="Arijpur">
    <latitude>23.0666667</latitude>
    <longitude>90.8166667</longitude>
  </city>
  <city name="Ariol">
    <latitude>24.0666667</latitude>
    <longitude>91.15</longitude>
  </city>
  <city name="Arippur">
    <latitude>24.0</latitude>
    <longitude>89.25</longitude>
  </city>
  <city name="Arita">
    <latitude>23.6333333</latitude>
    <longitude>90.1</longitude>
  </city>
  <city name="Arji Narayanpur">
    <latitude>23.6666667</latitude>
    <longitude>89.5833333</longitude>
  </city>
  <city name="Arjinoagaon">
    <latitude>24.8</latitude>
    <longitude>88.9333333</longitude>
  </city>
  <city name="Arjjuna">
    <latitude>24.5333333</latitude>
    <longitude>89.85</longitude>
  </city>
  <city name="Arjjundi">
    <latitude>23.65</latitude>
    <longitude>90.6</longitude>
  </city>
  <city name="Arjjunhar">
    <latitude>25.9833333</latitude>
    <longitude>88.65</longitude>
  </city>
  <city name="Arjjun Kachhra">
    <latitude>24.4333333</latitude>
    <longitude>90.0166667</longitude>
  </city>
  <city name="Arjjun Nalai">
    <latitude>23.95</latitude>
    <longitude>90.0666667</longitude>
  </city>
  <city name="Arjjuntala">
    <latitude>23.03</latitude>
    <longitude>91.1916667</longitude>
  </city>
  <city name="Arjuna Barai Chara">
    <latitude>23.6</latitude>
    <longitude>89.25</longitude>
  </city>
  <city name="Arjun Char">
    <latitude>24.1666667</latitude>
    <longitude>90.7</longitude>
  </city>
  <city name="Arjundaha">
    <latitude>23.2666667</latitude>
    <longitude>89.85</longitude>
  </city>
  <city name="Arjungari">
    <latitude>24.8833333</latitude>
    <longitude>89.0833333</longitude>
  </city>
  <city name="Arjunhar">
    <latitude>25.9833333</latitude>
    <longitude>88.65</longitude>
  </city>
  <city name="Arjuni">
    <latitude>24.9</latitude>
    <longitude>88.8166667</longitude>
  </city>
  <city name="Arjuni Madarbaria">
    <latitude>24.6166667</latitude>
    <longitude>89.2833333</longitude>
  </city>
  <city name="Arjun Khila">
    <latitude>24.9166667</latitude>
    <longitude>90.4</longitude>
  </city>
  <city name="Arjunmisra">
    <latitude>25.7833333</latitude>
    <longitude>89.5666667</longitude>
  </city>
  <city name="Arjunpara">
    <latitude>24.2</latitude>
    <longitude>88.95</longitude>
  </city>
  <city name="Arjunpur">
    <latitude>24.3833333</latitude>
    <longitude>89.05</longitude>
  </city>
  <city name="Arjuntala">
    <latitude>23.03</latitude>
    <longitude>91.1916667</longitude>
  </city>
  <city name="Arjuntola">
    <latitude>23.03</latitude>
    <longitude>91.1916667</longitude>
  </city>
  <city name="Arjya Narayanpur">
    <latitude>23.5666667</latitude>
    <longitude>89.2833333</longitude>
  </city>
  <city name="Arkain">
    <latitude>22.9166667</latitude>
    <longitude>91.3833333</longitude>
  </city>
  <city name="Ar Kalmi">
    <latitude>22.0666667</latitude>
    <longitude>90.65</longitude>
  </city>
  <city name="Arkamli">
    <latitude>22.0666667</latitude>
    <longitude>90.65</longitude>
  </city>
  <city name="Arkandi">
    <latitude>23.5333333</latitude>
    <longitude>89.4166667</longitude>
  </city>
  <city name="Armadi">
    <latitude>22.4666667</latitude>
    <longitude>89.3166667</longitude>
  </city>
  <city name="Armahal">
    <latitude>23.55</latitude>
    <longitude>90.4166667</longitude>
  </city>
  <city name="Arola">
    <latitude>24.9</latitude>
    <longitude>89.2833333</longitude>
  </city>
  <city name="Arozipom">
    <latitude>23.1833333</latitude>
    <longitude>90.4166667</longitude>
  </city>
  <city name="Arpangasia">
    <latitude>22.1</latitude>
    <longitude>90.1833333</longitude>
  </city>
  <city name="Arpara">
    <latitude>23.05</latitude>
    <longitude>89.8333333</longitude>
  </city>
  <city name="Arpara Gariadaha">
    <latitude>23.5333333</latitude>
    <longitude>89.55</longitude>
  </city>
  <city name="Arpara Guriadaha">
    <latitude>23.5333333</latitude>
    <longitude>89.55</longitude>
  </city>
  <city name="Arpara Mirzapur">
    <latitude>23.05</latitude>
    <longitude>89.5</longitude>
  </city>
  <city name="Arpora">
    <latitude>23.7166667</latitude>
    <longitude>89.7</longitude>
  </city>
  <city name="Arra">
    <latitude>24.1166667</latitude>
    <longitude>89.8666667</longitude>
  </city>
  <city name="Arra Kumed">
    <latitude>23.9833333</latitude>
    <longitude>89.8666667</longitude>
  </city>
  <city name="Arsingri">
    <latitude>23.0333333</latitude>
    <longitude>89.05</longitude>
  </city>
  <city name="Artika">
    <latitude>24.2</latitude>
    <longitude>88.9</longitude>
  </city>
  <city name="Arua">
    <latitude>23.7666667</latitude>
    <longitude>89.85</longitude>
  </city>
  <city name="Aruail">
    <latitude>24.1666667</latitude>
    <longitude>91.0333333</longitude>
  </city>
  <city name="Aruajangalia">
    <latitude>23.2333333</latitude>
    <longitude>89.8166667</longitude>
  </city>
  <city name="Aruakandi">
    <latitude>23.0833333</latitude>
    <longitude>90.15</longitude>
  </city>
  <city name="Arua Kangsur">
    <latitude>23.0666667</latitude>
    <longitude>89.8666667</longitude>
  </city>
  <city name="Arua Kansur">
    <latitude>23.0666667</latitude>
    <longitude>89.8666667</longitude>
  </city>
  <city name="Aruarkhil">
    <latitude>22.9</latitude>
    <longitude>91.3666667</longitude>
  </city>
  <city name="Arul">
    <latitude>24.8</latitude>
    <longitude>89.3166667</longitude>
  </city>
  <city name="Arulia">
    <latitude>24.85</latitude>
    <longitude>89.3333333</longitude>
  </city>
  <city name="Aruli">
    <latitude>23.2166667</latitude>
    <longitude>90.8666667</longitude>
  </city>
  <city name="Arunbari">
    <latitude>24.6833333</latitude>
    <longitude>88.2666667</longitude>
  </city>
  <city name="Arzikashibrithi">
    <latitude>24.9166667</latitude>
    <longitude>88.5833333</longitude>
  </city>
  <city name="Arzi Sara">
    <latitude>24.0666667</latitude>
    <longitude>89.0333333</longitude>
  </city>
  <city name="Asabari">
    <latitude>23.6333333</latitude>
    <longitude>91.1666667</longitude>
  </city>
  <city name="Asabat">
    <latitude>24.8833333</latitude>
    <longitude>90.3</longitude>
  </city>
  <city name="Asadati">
    <latitude>24.7833333</latitude>
    <longitude>90.7666667</longitude>
  </city>
  <city name="Asadnagar">
    <latitude>23.5166667</latitude>
    <longitude>90.95</longitude>
  </city>
  <city name="Asadnager">
    <latitude>23.7833333</latitude>
    <longitude>90.8</longitude>
  </city>
  <city name="Asadpur">
    <latitude>23.6833333</latitude>
    <longitude>90.8333333</longitude>
  </city>
  <city name="Asakpur">
    <latitude>24.8666667</latitude>
    <longitude>88.6166667</longitude>
  </city>
  <city name="Asali Santoshpur">
    <latitude>22.8666667</latitude>
    <longitude>90.4166667</longitude>
  </city>
  <city name="Asandi">
    <latitude>24.8833333</latitude>
    <longitude>88.6</longitude>
  </city>
  <city name="Asannagar">
    <latitude>23.75</latitude>
    <longitude>89.05</longitude>
  </city>
  <city name="Asanpur">
    <latitude>23.6</latitude>
    <longitude>91.0166667</longitude>
  </city>
  <city name="Asanpur Bilkaila">
    <latitude>24.7</latitude>
    <longitude>90.5333333</longitude>
  </city>
  <city name="Asanura">
    <latitude>24.95</latitude>
    <longitude>90.7</longitude>
  </city>
  <city name="Asapat">
    <latitude>23.2166667</latitude>
    <longitude>90.1333333</longitude>
  </city>
  <city name="Asapur">
    <latitude>23.1333333</latitude>
    <longitude>90.9</longitude>
  </city>
  <city name="Asara">
    <latitude>23.2833333</latitude>
    <longitude>91.0666667</longitude>
  </city>
  <city name="Asarampur">
    <latitude>23.9666667</latitude>
    <longitude>90.8333333</longitude>
  </city>
  <city name="Asarkot">
    <latitude>23.15</latitude>
    <longitude>90.9</longitude>
  </city>
  <city name="Asasuni">
    <latitude>22.5333333</latitude>
    <longitude>89.1666667</longitude>
  </city>
  <city name="Asataka">
    <latitude>24.4333333</latitude>
    <longitude>90.9333333</longitude>
  </city>
  <city name="Asatia">
    <latitude>24.0666667</latitude>
    <longitude>90.7166667</longitude>
  </city>
  <city name="Asatkuari">
    <latitude>23.1666667</latitude>
    <longitude>90.7833333</longitude>
  </city>
  <city name="Asaypur">
    <latitude>23.6833333</latitude>
    <longitude>90.0333333</longitude>
  </city>
  <city name="Asekpur">
    <latitude>24.8</latitude>
    <longitude>89.3666667</longitude>
  </city>
  <city name="Asgram">
    <latitude>24.4</latitude>
    <longitude>88.5333333</longitude>
  </city>
  <city name="Ashabari">
    <latitude>23.6333333</latitude>
    <longitude>91.1666667</longitude>
  </city>
  <city name="Ashair">
    <latitude>23.1</latitude>
    <longitude>90.1666667</longitude>
  </city>
  <city name="Ashanulla Munsir Kandi">
    <latitude>23.35</latitude>
    <longitude>90.3666667</longitude>
  </city>
  <city name="Ashara">
    <latitude>23.4833333</latitude>
    <longitude>91.0333333</longitude>
  </city>
  <city name="Asharampur">
    <latitude>23.9666667</latitude>
    <longitude>90.8333333</longitude>
  </city>
  <city name="Asharia Char">
    <latitude>23.6166667</latitude>
    <longitude>90.6</longitude>
  </city>
  <city name="Asharkata">
    <latitude>23.4</latitude>
    <longitude>90.8333333</longitude>
  </city>
  <city name="Asharkota">
    <latitude>23.4</latitude>
    <longitude>90.8333333</longitude>
  </city>
  <city name="Ashdati">
    <latitude>24.7833333</latitude>
    <longitude>90.7666667</longitude>
  </city>
  <city name="Ashekpur">
    <latitude>24.8</latitude>
    <longitude>89.3666667</longitude>
  </city>
  <city name="Ashera">
    <latitude>24.3166667</latitude>
    <longitude>91.3666667</longitude>
  </city>
  <city name="Ashidun">
    <latitude>24.2833333</latitude>
    <longitude>91.7</longitude>
  </city>
  <city name="Ashkahil">
    <latitude>21.45</latitude>
    <longitude>92.0833333</longitude>
  </city>
  <city name="Ashkar">
    <latitude>22.95</latitude>
    <longitude>90.1166667</longitude>
  </city>
  <city name="Ashkarkhil">
    <latitude>21.45</latitude>
    <longitude>92.0833333</longitude>
  </city>
  <city name="Ashkarnagar">
    <latitude>26.05</latitude>
    <longitude>89.6333333</longitude>
  </city>
  <city name="Ashokola">
    <latitude>24.9166667</latitude>
    <longitude>89.3333333</longitude>
  </city>
  <city name="Ashrafpur">
    <latitude>23.9166667</latitude>
    <longitude>90.9833333</longitude>
  </city>
  <city name="Ashraghari">
    <latitude>24.8333333</latitude>
    <longitude>92.2333333</longitude>
  </city>
  <city name="Ashta">
    <latitude>23.1666667</latitude>
    <longitude>90.8166667</longitude>
  </city>
  <city name="Ashtabarga">
    <latitude>24.4666667</latitude>
    <longitude>90.7666667</longitude>
  </city>
  <city name="Ashtadhar">
    <latitude>24.8666667</latitude>
    <longitude>90.2</longitude>
  </city>
  <city name="Ashtadhar Baliapara">
    <latitude>24.8666667</latitude>
    <longitude>90.2</longitude>
  </city>
  <city name="Ashtadona">
    <latitude>23.8166667</latitude>
    <longitude>90.0333333</longitude>
  </city>
  <city name="Ashtagharia">
    <latitude>24.2666667</latitude>
    <longitude>90.8</longitude>
  </city>
  <city name="Ashta Manisha">
    <latitude>24.25</latitude>
    <longitude>89.35</longitude>
  </city>
  <city name="Ashtamnisha">
    <latitude>24.25</latitude>
    <longitude>89.35</longitude>
  </city>
  <city name="Ashtani">
    <latitude>24.0666667</latitude>
    <longitude>90.8</longitude>
  </city>
  <city name="Ashtapaika">
    <latitude>23.85</latitude>
    <longitude>90.6833333</longitude>
  </city>
  <city name="Ashtodona">
    <latitude>23.2666667</latitude>
    <longitude>91.0166667</longitude>
  </city>
  <city name="Ashtogram">
    <latitude>24.0166667</latitude>
    <longitude>91.0666667</longitude>
  </city>
  <city name="Ashuganj">
    <latitude>24.0333333</latitude>
    <longitude>91.0166667</longitude>
  </city>
  <city name="Ashwadia">
    <latitude>22.7947222</latitude>
    <longitude>91.1838889</longitude>
  </city>
  <city name="Asiar">
    <latitude>22.7333333</latitude>
    <longitude>90.2333333</longitude>
  </city>
  <city name="Asidun">
    <latitude>24.2833333</latitude>
    <longitude>91.7</longitude>
  </city>
  <city name="Asighar">
    <latitude>22.9</latitude>
    <longitude>90.55</longitude>
  </city>
  <city name="Asikathi">
    <latitude>23.2666667</latitude>
    <longitude>90.7</longitude>
  </city>
  <city name="Asikati">
    <latitude>23.2666667</latitude>
    <longitude>90.7</longitude>
  </city>
  <city name="Asikura">
    <latitude>22.3666667</latitude>
    <longitude>89.0</longitude>
  </city>
  <city name="Asi Panchkahania">
    <latitude>24.9333333</latitude>
    <longitude>90.35</longitude>
  </city>
  <city name="Askamta">
    <latitude>23.3166667</latitude>
    <longitude>91.15</longitude>
  </city>
  <city name="Askarpur">
    <latitude>22.5333333</latitude>
    <longitude>89.0333333</longitude>
  </city>
  <city name="Asli Narottampur">
    <latitude>23.9333333</latitude>
    <longitude>90.05</longitude>
  </city>
  <city name="Asma">
    <latitude>24.9</latitude>
    <longitude>90.9</longitude>
  </city>
  <city name="Asmandi">
    <latitude>23.9</latitude>
    <longitude>90.6666667</longitude>
  </city>
  <city name="Asoar">
    <latitude>22.8166667</latitude>
    <longitude>90.2166667</longitude>
  </city>
  <city name="Asokati">
    <latitude>22.95</latitude>
    <longitude>90.2166667</longitude>
  </city>
  <city name="Asokola">
    <latitude>24.9166667</latitude>
    <longitude>89.3333333</longitude>
  </city>
  <city name="Asrabbad">
    <latitude>23.7666667</latitude>
    <longitude>90.8333333</longitude>
  </city>
  <city name="Asrabpur">
    <latitude>22.8666667</latitude>
    <longitude>91.2333333</longitude>
  </city>
  <city name="Asrafdi">
    <latitude>23.5666667</latitude>
    <longitude>90.6</longitude>
  </city>
  <city name="Asrafpur">
    <latitude>23.2833333</latitude>
    <longitude>90.9666667</longitude>
  </city>
  <city name="Assasuni">
    <latitude>22.5333333</latitude>
    <longitude>89.1666667</longitude>
  </city>
  <city name="Assurhat">
    <latitude>23.7</latitude>
    <longitude>89.4333333</longitude>
  </city>
  <city name="Asta">
    <latitude>23.1666667</latitude>
    <longitude>90.8166667</longitude>
  </city>
  <city name="Astadana">
    <latitude>23.6333333</latitude>
    <longitude>90.45</longitude>
  </city>
  <city name="Astadona">
    <latitude>23.6333333</latitude>
    <longitude>90.45</longitude>
  </city>
  <city name="Astagram">
    <latitude>24.0166667</latitude>
    <longitude>91.0666667</longitude>
  </city>
  <city name="Astakati">
    <latitude>22.7</latitude>
    <longitude>90.3</longitude>
  </city>
  <city name="Astakhali">
    <latitude>22.2833333</latitude>
    <longitude>89.0</longitude>
  </city>
  <city name="Astanagar">
    <latitude>23.7833333</latitude>
    <longitude>89.0833333</longitude>
  </city>
  <city name="Asthaghari">
    <latitude>24.8333333</latitude>
    <longitude>92.2333333</longitude>
  </city>
  <city name="Astickpara">
    <latitude>24.3</latitude>
    <longitude>88.9</longitude>
  </city>
  <city name="Astikpara">
    <latitude>24.3</latitude>
    <longitude>88.9</longitude>
  </city>
  <city name="Asuganj">
    <latitude>24.0333333</latitude>
    <longitude>91.0166667</longitude>
  </city>
  <city name="Asujia">
    <latitude>24.7333333</latitude>
    <longitude>90.8</longitude>
  </city>
  <city name="Asunja">
    <latitude>24.8666667</latitude>
    <longitude>89.1333333</longitude>
  </city>
  <city name="Asuran">
    <latitude>23.4833333</latitude>
    <longitude>90.5166667</longitude>
  </city>
  <city name="Asura Sitarambari">
    <latitude>24.5833333</latitude>
    <longitude>90.0166667</longitude>
  </city>
  <city name="Asurhat">
    <latitude>23.5833333</latitude>
    <longitude>89.25</longitude>
  </city>
  <city name="Asutia">
    <latitude>23.8833333</latitude>
    <longitude>90.3666667</longitude>
  </city>
  <city name="Aswadia">
    <latitude>22.8333333</latitude>
    <longitude>91.15</longitude>
  </city>
  <city name="Aswandia">
    <latitude>22.8333333</latitude>
    <longitude>91.15</longitude>
  </city>
  <city name="Aswatthatala">
    <latitude>23.3333333</latitude>
    <longitude>91.1333333</longitude>
  </city>
  <city name="Aswinpur">
    <latitude>23.4</latitude>
    <longitude>90.7666667</longitude>
  </city>
  <city name="Ataani">
    <latitude>23.5166667</latitude>
    <longitude>90.6</longitude>
  </city>
  <city name="Atabari">
    <latitude>24.3666667</latitude>
    <longitude>90.0166667</longitude>
  </city>
  <city name="Atabdi">
    <latitude>23.75</latitude>
    <longitude>90.6333333</longitude>
  </city>
  <city name="Atadar">
    <latitude>24.8333333</latitude>
    <longitude>90.5166667</longitude>
  </city>
  <city name="Atadi">
    <latitude>23.75</latitude>
    <longitude>90.6833333</longitude>
  </city>
  <city name="Atadi Khas">
    <latitude>23.75</latitude>
    <longitude>90.6833333</longitude>
  </city>
  <city name="Ataikola">
    <latitude>24.7</latitude>
    <longitude>88.9166667</longitude>
  </city>
  <city name="Ataikula">
    <latitude>24.0333333</latitude>
    <longitude>89.4</longitude>
  </city>
  <city name="Atakara">
    <latitude>23.25</latitude>
    <longitude>91.0</longitude>
  </city>
  <city name="Atak">
    <latitude>23.3333333</latitude>
    <longitude>89.6166667</longitude>
  </city>
  <city name="Atakati">
    <latitude>22.5</latitude>
    <longitude>90.3333333</longitude>
  </city>
  <city name="Atakhara">
    <latitude>23.0833333</latitude>
    <longitude>90.9166667</longitude>
  </city>
  <city name="Atal">
    <latitude>24.9166667</latitude>
    <longitude>89.1333333</longitude>
  </city>
  <city name="Atalia">
    <latitude>23.8</latitude>
    <longitude>90.2166667</longitude>
  </city>
  <city name="Atalkuri">
    <latitude>23.15</latitude>
    <longitude>90.4166667</longitude>
  </city>
  <city name="At Ani">
    <latitude>23.5166667</latitude>
    <longitude>90.6</longitude>
  </city>
  <city name="Atapur">
    <latitude>22.5666667</latitude>
    <longitude>89.0166667</longitude>
  </city>
  <city name="Atari">
    <latitude>24.6333333</latitude>
    <longitude>88.95</longitude>
  </city>
  <city name="Atarkhali">
    <latitude>22.4166667</latitude>
    <longitude>90.0166667</longitude>
  </city>
  <city name="Atarpara">
    <latitude>24.2</latitude>
    <longitude>88.75</longitude>
  </city>
  <city name="Atartupa">
    <latitude>24.3333333</latitude>
    <longitude>90.8166667</longitude>
  </city>
  <city name="Atasia">
    <latitude>24.6833333</latitude>
    <longitude>90.8166667</longitude>
  </city>
  <city name="Atasipara">
    <latitude>23.9666667</latitude>
    <longitude>90.65</longitude>
  </city>
  <city name="Atbaria">
    <latitude>24.9666667</latitude>
    <longitude>89.4166667</longitude>
  </city>
  <city name="Atbari Alamdi">
    <latitude>23.7</latitude>
    <longitude>90.6166667</longitude>
  </city>
  <city name="Atbhag">
    <latitude>24.4333333</latitude>
    <longitude>88.8833333</longitude>
  </city>
  <city name="Atchail">
    <latitude>23.4</latitude>
    <longitude>90.9333333</longitude>
  </city>
  <city name="Atdapunia">
    <latitude>23.6833333</latitude>
    <longitude>89.6</longitude>
  </city>
  <city name="Aterhat">
    <latitude>23.1166667</latitude>
    <longitude>89.5333333</longitude>
  </city>
  <city name="Aterpara">
    <latitude>23.1666667</latitude>
    <longitude>90.4166667</longitude>
  </city>
  <city name="Atgaoan">
    <latitude>24.6666667</latitude>
    <longitude>88.9166667</longitude>
  </city>
  <city name="Atgaon">
    <latitude>24.6666667</latitude>
    <longitude>88.9166667</longitude>
  </city>
  <city name="Atghara">
    <latitude>22.7166667</latitude>
    <longitude>89.2833333</longitude>
  </city>
  <city name="Atgharia">
    <latitude>24.1</latitude>
    <longitude>89.2333333</longitude>
  </city>
  <city name="Atghari">
    <latitude>24.2</latitude>
    <longitude>88.7833333</longitude>
  </city>
  <city name="Atghoria">
    <latitude>24.1</latitude>
    <longitude>89.2333333</longitude>
  </city>
  <city name="Athaldia">
    <latitude>23.25</latitude>
    <longitude>89.8833333</longitude>
  </city>
  <city name="Athaldi">
    <latitude>23.25</latitude>
    <longitude>89.8833333</longitude>
  </city>
  <city name="Athanagar">
    <latitude>24.9333333</latitude>
    <longitude>90.8666667</longitude>
  </city>
  <city name="Athara Baria">
    <latitude>24.2833333</latitude>
    <longitude>90.9</longitude>
  </city>
  <city name="Atharabari">
    <latitude>24.6166667</latitude>
    <longitude>90.7333333</longitude>
  </city>
  <city name="Atharachura">
    <latitude>24.5</latitude>
    <longitude>90.1</longitude>
  </city>
  <city name="Atharadana">
    <latitude>24.4666667</latitude>
    <longitude>90.5166667</longitude>
  </city>
  <city name="Athara Gachhia">
    <latitude>22.2</latitude>
    <longitude>90.35</longitude>
  </city>
  <city name="Atharagachia">
    <latitude>22.2</latitude>
    <longitude>90.35</longitude>
  </city>
  <city name="Atharajani">
    <latitude>25.0</latitude>
    <longitude>88.8333333</longitude>
  </city>
  <city name="Athara Kahania">
    <latitude>24.1</latitude>
    <longitude>90.6333333</longitude>
  </city>
  <city name="Atharakhada">
    <latitude>23.5166667</latitude>
    <longitude>89.4</longitude>
  </city>
  <city name="Atharapota">
    <latitude>24.8333333</latitude>
    <longitude>90.6166667</longitude>
  </city>
  <city name="Atharjani">
    <latitude>25.0</latitude>
    <longitude>88.8333333</longitude>
  </city>
  <city name="Atharpaika">
    <latitude>25.7</latitude>
    <longitude>89.6833333</longitude>
  </city>
  <city name="At Hazar">
    <latitude>22.75</latitude>
    <longitude>90.4333333</longitude>
  </city>
  <city name="Athiatali">
    <latitude>22.9333333</latitude>
    <longitude>90.8666667</longitude>
  </city>
  <city name="Atia">
    <latitude>23.9166667</latitude>
    <longitude>90.6166667</longitude>
  </city>
  <city name="Atiakhola">
    <latitude>23.5333333</latitude>
    <longitude>90.8666667</longitude>
  </city>
  <city name="Atiapara">
    <latitude>23.5</latitude>
    <longitude>90.8166667</longitude>
  </city>
  <city name="Ati">
    <latitude>23.7166667</latitude>
    <longitude>90.35</longitude>
  </city>
  <city name="Atia Ulain">
    <latitude>23.9666667</latitude>
    <longitude>89.8833333</longitude>
  </city>
  <city name="Ati Bhararia">
    <latitude>23.7188889</latitude>
    <longitude>90.3491667</longitude>
  </city>
  <city name="Ati Chandgaon">
    <latitude>23.9</latitude>
    <longitude>90.3333333</longitude>
  </city>
  <city name="Atigaon">
    <latitude>23.4833333</latitude>
    <longitude>90.35</longitude>
  </city>
  <city name="Atigram">
    <latitude>24.6666667</latitude>
    <longitude>90.7833333</longitude>
  </city>
  <city name="Atikhalipara">
    <latitude>20.9666667</latitude>
    <longitude>92.25</longitude>
  </city>
  <city name="Atikhalopara">
