<?xml version="1.0" encoding="UTF-8"?>
<country code="be" name="Belgique">
  <city name="Aaigem">
    <latitude>50.883333</latitude>
    <longitude>3.933333</longitude>
  </city>
  <city name="Aalbeke">
    <latitude>50.783333</latitude>
    <longitude>3.216667</longitude>
  </city>
  <city name="Aalbroek">
    <latitude>50.933333</latitude>
    <longitude>3.666667</longitude>
  </city>
  <city name="Aalst">
    <latitude>50.766667</latitude>
    <longitude>4.866667</longitude>
  </city>
  <city name="Aalst-Saint Pierre">
    <latitude>51.033333</latitude>
    <longitude>3.7</longitude>
  </city>
  <city name="Aalst Sint-Pieter">
    <latitude>51.033333</latitude>
    <longitude>3.7</longitude>
  </city>
  <city name="Aaltebei">
    <latitude>51.1</latitude>
    <longitude>3.5</longitude>
  </city>
  <city name="Aalter">
    <latitude>51.083333</latitude>
    <longitude>3.45</longitude>
  </city>
  <city name="Aalterbei">
    <latitude>51.1</latitude>
    <longitude>3.5</longitude>
  </city>
  <city name="Aalterburg">
    <latitude>51.1</latitude>
    <longitude>3.433333</longitude>
  </city>
  <city name="Aan de Bunders">
    <latitude>50.933333</latitude>
    <longitude>5.233333</longitude>
  </city>
  <city name="Aan de Kippen">
    <latitude>51.15</latitude>
    <longitude>5.466667</longitude>
  </city>
  <city name="Aan de Luyssen">
    <latitude>51.183333</latitude>
    <longitude>5.633333</longitude>
  </city>
  <city name="Aan den Nieuwen Vijver">
    <latitude>50.983333</latitude>
    <longitude>5.283333</longitude>
  </city>
  <city name="Aan den Steenoven">
    <latitude>51.05</latitude>
    <longitude>5.3</longitude>
  </city>
  <city name="Aan de Steenoven">
    <latitude>51.05</latitude>
    <longitude>5.3</longitude>
  </city>
  <city name="Aan de Vreenen">
    <latitude>51.1</latitude>
    <longitude>5.433333</longitude>
  </city>
  <city name="Aan de Vrenen">
    <latitude>51.1</latitude>
    <longitude>5.433333</longitude>
  </city>
  <city name="Aan de Wolfsberg">
    <latitude>51.0</latitude>
    <longitude>5.483333</longitude>
  </city>
  <city name="Aan 't Holven">
    <latitude>51.05</latitude>
    <longitude>5.616667</longitude>
  </city>
  <city name="Aan 't Hoolven">
    <latitude>51.05</latitude>
    <longitude>5.616667</longitude>
  </city>
  <city name="Aard">
    <latitude>51.416667</latitude>
    <longitude>4.716667</longitude>
  </city>
  <city name="Aardappelhoek">
    <latitude>50.95</latitude>
    <longitude>3.15</longitude>
  </city>
  <city name="Aard en Hemelrijksche Heide">
    <latitude>51.4</latitude>
    <longitude>4.733333</longitude>
  </city>
  <city name="Aard en Hemelrijkseheide">
    <latitude>51.4</latitude>
    <longitude>4.733333</longitude>
  </city>
  <city name="Aardenweg">
    <latitude>50.966667</latitude>
    <longitude>5.066667</longitude>
  </city>
  <city name="Aarle">
    <latitude>51.483333</latitude>
    <longitude>5.016667</longitude>
  </city>
  <city name="Aarlen">
    <latitude>49.683333</latitude>
    <longitude>5.816667</longitude>
  </city>
  <city name="Aarschot">
    <latitude>50.983333</latitude>
    <longitude>4.833333</longitude>
  </city>
  <city name="Aarsele">
    <latitude>51.0</latitude>
    <longitude>3.416667</longitude>
  </city>
  <city name="Aars Houw">
    <latitude>51.05</latitude>
    <longitude>5.633333</longitude>
  </city>
  <city name="Aart">
    <latitude>51.2</latitude>
    <longitude>4.983333</longitude>
  </city>
  <city name="Aartrijke">
    <latitude>51.116667</latitude>
    <longitude>3.083333</longitude>
  </city>
  <city name="Aartselaar">
    <latitude>51.133333</latitude>
    <longitude>4.383333</longitude>
  </city>
  <city name="Aartshouw">
    <latitude>51.05</latitude>
    <longitude>5.633333</longitude>
  </city>
  <city name="Aat">
    <latitude>50.633333</latitude>
    <longitude>3.783333</longitude>
  </city>
  <city name="Abbaye d' Aulne">
    <latitude>50.35</latitude>
    <longitude>4.316667</longitude>
  </city>
  <city name="Abbaye de la Trappe">
    <latitude>51.3</latitude>
    <longitude>5.483333</longitude>
  </city>
  <city name="Abbaye d'Orval">
    <latitude>49.65</latitude>
    <longitude>5.35</longitude>
  </city>
  <city name="Abdeneyk">
    <latitude>51.1</latitude>
    <longitude>5.8</longitude>
  </city>
  <city name="Abée">
    <latitude>50.466667</latitude>
    <longitude>5.35</longitude>
  </city>
  <city name="Abeelbroekstraat">
    <latitude>51.066667</latitude>
    <longitude>3.783333</longitude>
  </city>
  <city name="Abeele">
    <latitude>50.816667</latitude>
    <longitude>2.666667</longitude>
  </city>
  <city name="Abeelhoek">
    <latitude>50.85</latitude>
    <longitude>3.283333</longitude>
  </city>
  <city name="Abeiche">
    <latitude>50.7</latitude>
    <longitude>4.366667</longitude>
  </city>
  <city name="Abele">
    <latitude>50.816667</latitude>
    <longitude>2.666667</longitude>
  </city>
  <city name="Abîme">
    <latitude>50.266667</latitude>
    <longitude>5.233333</longitude>
  </city>
  <city name="Abolens">
    <latitude>50.666667</latitude>
    <longitude>5.15</longitude>
  </city>
  <city name="Abtsul">
    <latitude>50.883333</latitude>
    <longitude>3.283333</longitude>
  </city>
  <city name="Achel">
    <latitude>51.25</latitude>
    <longitude>5.483333</longitude>
  </city>
  <city name="Achêne">
    <latitude>50.266667</latitude>
    <longitude>5.05</longitude>
  </city>
  <city name="Achenfosse">
    <latitude>50.7</latitude>
    <longitude>4.183333</longitude>
  </city>
  <city name="Achet">
    <latitude>50.333333</latitude>
    <longitude>5.183333</longitude>
  </city>
  <city name="À Chinecha">
    <latitude>49.983333</latitude>
    <longitude>5.816667</longitude>
  </city>
  <city name="Achonfosse">
    <latitude>50.7</latitude>
    <longitude>4.183333</longitude>
  </city>
  <city name="Achouffe">
    <latitude>50.15</latitude>
    <longitude>5.75</longitude>
  </city>
  <city name="Achtel">
    <latitude>51.383333</latitude>
    <longitude>4.766667</longitude>
  </city>
  <city name="Achtendries">
    <latitude>51.066667</latitude>
    <longitude>3.8</longitude>
  </city>
  <city name="Achtendriesch">
    <latitude>51.066667</latitude>
    <longitude>3.8</longitude>
  </city>
  <city name="Achterbist">
    <latitude>51.166667</latitude>
    <longitude>4.633333</longitude>
  </city>
  <city name="Achterbos">
    <latitude>51.2</latitude>
    <longitude>5.1</longitude>
  </city>
  <city name="Achterbosch">
    <latitude>51.2</latitude>
    <longitude>5.1</longitude>
  </city>
  <city name="Achterbroek">
    <latitude>51.4</latitude>
    <longitude>4.483333</longitude>
  </city>
  <city name="Achter den Berg">
    <latitude>50.883333</latitude>
    <longitude>4.55</longitude>
  </city>
  <city name="Achter-Den-Bergh">
    <latitude>50.883333</latitude>
    <longitude>4.55</longitude>
  </city>
  <city name="Achter den Houw">
    <latitude>51.05</latitude>
    <longitude>5.65</longitude>
  </city>
  <city name="Achter den Kraanberg">
    <latitude>51.066667</latitude>
    <longitude>5.35</longitude>
  </city>
  <city name="Achterheide">
    <latitude>51.05</latitude>
    <longitude>4.266667</longitude>
  </city>
  <city name="Achterheide-Asdonk">
    <latitude>51.033333</latitude>
    <longitude>5.033333</longitude>
  </city>
  <city name="Achter het Heiderveld">
    <latitude>51.016667</latitude>
    <longitude>5.566667</longitude>
  </city>
  <city name="Achterhoek">
    <latitude>51.133333</latitude>
    <longitude>4.666667</longitude>
  </city>
  <city name="Achterle">
    <latitude>51.216667</latitude>
    <longitude>4.866667</longitude>
  </city>
  <city name="Achterlee">
    <latitude>51.216667</latitude>
    <longitude>4.866667</longitude>
  </city>
  <city name="Achter Olen">
    <latitude>51.166667</latitude>
    <longitude>4.9</longitude>
  </city>
  <city name="Achter-Oolen">
    <latitude>51.166667</latitude>
    <longitude>4.9</longitude>
  </city>
  <city name="Achterrot">
    <latitude>51.183333</latitude>
    <longitude>4.483333</longitude>
  </city>
  <city name="Achterste Hostie">
    <latitude>51.2</latitude>
    <longitude>5.5</longitude>
  </city>
  <city name="Achtersten-Hostie">
    <latitude>51.2</latitude>
    <longitude>5.5</longitude>
  </city>
  <city name="Achter Weert">
    <latitude>51.1</latitude>
    <longitude>4.183333</longitude>
  </city>
  <city name="À Clapette">
    <latitude>50.516667</latitude>
    <longitude>4.766667</longitude>
  </city>
  <city name="Acosse">
    <latitude>50.6</latitude>
    <longitude>5.05</longitude>
  </city>
  <city name="Acoz">
    <latitude>50.35</latitude>
    <longitude>4.516667</longitude>
  </city>
  <city name="Acremont">
    <latitude>49.9</latitude>
    <longitude>5.216667</longitude>
  </city>
  <city name="Adegem">
    <latitude>51.2</latitude>
    <longitude>3.483333</longitude>
  </city>
  <city name="Adesberg">
    <latitude>50.346389</latitude>
    <longitude>6.170556</longitude>
  </city>
  <city name="Adijk">
    <latitude>50.816667</latitude>
    <longitude>3.816667</longitude>
  </city>
  <city name="Adinkerke">
    <latitude>51.066667</latitude>
    <longitude>2.6</longitude>
  </city>
  <city name="Adseux">
    <latitude>50.533333</latitude>
    <longitude>5.733333</longitude>
  </city>
  <city name="Aelbeke">
    <latitude>50.783333</latitude>
    <longitude>3.216667</longitude>
  </city>
  <city name="Aelst">
    <latitude>50.766667</latitude>
    <longitude>4.866667</longitude>
  </city>
  <city name="Aeltebey">
    <latitude>51.1</latitude>
    <longitude>3.5</longitude>
  </city>
  <city name="Aeltre">
    <latitude>51.083333</latitude>
    <longitude>3.45</longitude>
  </city>
  <city name="Aeltrebrugge">
    <latitude>51.1</latitude>
    <longitude>3.433333</longitude>
  </city>
  <city name="Aerd-Appelhoek">
    <latitude>50.95</latitude>
    <longitude>3.15</longitude>
  </city>
  <city name="Aerle">
    <latitude>51.483333</latitude>
    <longitude>5.016667</longitude>
  </city>
  <city name="Aerschot">
    <latitude>50.983333</latitude>
    <longitude>4.833333</longitude>
  </city>
  <city name="Aerseele">
    <latitude>51.0</latitude>
    <longitude>3.416667</longitude>
  </city>
  <city name="Aertrycke">
    <latitude>51.116667</latitude>
    <longitude>3.083333</longitude>
  </city>
  <city name="Aertselaer">
    <latitude>51.133333</latitude>
    <longitude>4.383333</longitude>
  </city>
  <city name="À Faihay">
    <latitude>50.216667</latitude>
    <longitude>5.5</longitude>
  </city>
  <city name="Affnay">
    <latitude>50.733333</latitude>
    <longitude>5.766667</longitude>
  </city>
  <city name="Afnai">
    <latitude>50.733333</latitude>
    <longitude>5.766667</longitude>
  </city>
  <city name="Afnay">
    <latitude>50.733333</latitude>
    <longitude>5.766667</longitude>
  </city>
  <city name="Afsné">
    <latitude>51.033333</latitude>
    <longitude>3.666667</longitude>
  </city>
  <city name="Afsnee">
    <latitude>51.033333</latitude>
    <longitude>3.666667</longitude>
  </city>
  <city name="Afst">
    <latitude>50.333333</latitude>
    <longitude>6.383333</longitude>
  </city>
  <city name="Agimont">
    <latitude>50.166667</latitude>
    <longitude>4.8</longitude>
  </city>
  <city name="Aherée">
    <latitude>50.316667</latitude>
    <longitude>4.483333</longitude>
  </city>
  <city name="Ahin">
    <latitude>50.516667</latitude>
    <longitude>5.216667</longitude>
  </city>
  <city name="Aiby">
    <latitude>50.25</latitude>
    <longitude>4.35</longitude>
  </city>
  <city name="Aillemont">
    <latitude>50.716667</latitude>
    <longitude>3.716667</longitude>
  </city>
  <city name="Aineffe">
    <latitude>50.616667</latitude>
    <longitude>5.266667</longitude>
  </city>
  <city name="Ainières">
    <latitude>50.7</latitude>
    <longitude>3.55</longitude>
  </city>
  <city name="Aische">
    <latitude>50.6</latitude>
    <longitude>4.816667</longitude>
  </city>
  <city name="Aische-en-Refail">
    <latitude>50.6</latitude>
    <longitude>4.816667</longitude>
  </city>
  <city name="Aiseau">
    <latitude>50.416667</latitude>
    <longitude>4.583333</longitude>
  </city>
  <city name="Aisémont">
    <latitude>50.716667</latitude>
    <longitude>4.616667</longitude>
  </city>
  <city name="Aisemont">
    <latitude>50.4</latitude>
    <longitude>4.65</longitude>
  </city>
  <city name="Aisne">
    <latitude>50.35</latitude>
    <longitude>5.55</longitude>
  </city>
  <city name="Aisomont">
    <latitude>50.361667</latitude>
    <longitude>5.904444</longitude>
  </city>
  <city name="Aissomont">
    <latitude>50.361667</latitude>
    <longitude>5.904444</longitude>
  </city>
  <city name="Aix-sur-Cloix">
    <latitude>49.583333</latitude>
    <longitude>5.783333</longitude>
  </city>
  <city name="Akker">
    <latitude>51.2</latitude>
    <longitude>3.833333</longitude>
  </city>
  <city name="Akkerhoek">
    <latitude>51.016667</latitude>
    <longitude>3.133333</longitude>
  </city>
  <city name="Akkerhoofd">
    <latitude>51.083333</latitude>
    <longitude>4.166667</longitude>
  </city>
  <city name="Akkerstraat">
    <latitude>51.083333</latitude>
    <longitude>5.716667</longitude>
  </city>
  <city name="Akkerveke">
    <latitude>51.383333</latitude>
    <longitude>4.55</longitude>
  </city>
  <city name="Akselwal">
    <latitude>50.9</latitude>
    <longitude>3.633333</longitude>
  </city>
  <city name="Akselwalle">
    <latitude>50.9</latitude>
    <longitude>3.633333</longitude>
  </city>
  <city name="Akspoel">
    <latitude>51.066667</latitude>
    <longitude>3.4</longitude>
  </city>
  <city name="A la Chaïre">
    <latitude>50.083333</latitude>
    <longitude>5.85</longitude>
  </city>
  <city name="A-la-Fange-Botté">
    <latitude>50.166667</latitude>
    <longitude>5.433333</longitude>
  </city>
  <city name="A l' Assaint">
    <latitude>50.3</latitude>
    <longitude>5.866667</longitude>
  </city>
  <city name="A la Vieille Rochette">
    <latitude>49.933333</latitude>
    <longitude>5.25</longitude>
  </city>
  <city name="Al Bèyoûle">
    <latitude>50.166667</latitude>
    <longitude>5.333333</longitude>
  </city>
  <city name="Alden-Eijck">
    <latitude>51.1</latitude>
    <longitude>5.8</longitude>
  </city>
  <city name="Alden Eik">
    <latitude>51.1</latitude>
    <longitude>5.8</longitude>
  </city>
  <city name="Alden-Eyck">
    <latitude>51.1</latitude>
    <longitude>5.8</longitude>
  </city>
  <city name="Aldenhof">
    <latitude>50.95</latitude>
    <longitude>5.283333</longitude>
  </city>
  <city name="Aldringen">
    <latitude>50.221111</latitude>
    <longitude>6.022778</longitude>
  </city>
  <city name="Alfelaar">
    <latitude>51.1</latitude>
    <longitude>4.666667</longitude>
  </city>
  <city name="Alfersteg">
    <latitude>50.260278</latitude>
    <longitude>6.208611</longitude>
  </city>
  <city name="Al Gloriette">
    <latitude>50.183333</latitude>
    <longitude>5.433333</longitude>
  </city>
  <city name="Al Hesse">
    <latitude>50.283333</latitude>
    <longitude>5.85</longitude>
  </city>
  <city name="Alhez">
    <latitude>50.033333</latitude>
    <longitude>5.816667</longitude>
  </city>
  <city name="Alhoumont">
    <latitude>50.116667</latitude>
    <longitude>5.816667</longitude>
  </city>
  <city name="Alken">
    <latitude>50.866667</latitude>
    <longitude>5.3</longitude>
  </city>
  <city name="Allain">
    <latitude>50.6</latitude>
    <longitude>3.4</longitude>
  </city>
  <city name="Alle">
    <latitude>49.85</latitude>
    <longitude>4.966667</longitude>
  </city>
  <city name="Allemont">
    <latitude>50.716667</latitude>
    <longitude>3.716667</longitude>
  </city>
  <city name="Alleur">
    <latitude>50.683333</latitude>
    <longitude>5.5</longitude>
  </city>
  <city name="Allierscheheide">
    <latitude>51.15</latitude>
    <longitude>4.566667</longitude>
  </city>
  <city name="Allierseheide">
    <latitude>51.15</latitude>
    <longitude>4.566667</longitude>
  </city>
  <city name="Al' Linguette">
    <latitude>50.05</latitude>
    <longitude>5.333333</longitude>
  </city>
  <city name="Allmuhten">
    <latitude>50.35</latitude>
    <longitude>6.383333</longitude>
  </city>
  <city name="Allmuten">
    <latitude>50.35</latitude>
    <longitude>6.383333</longitude>
  </city>
  <city name="Allmuthen">
    <latitude>50.35</latitude>
    <longitude>6.383333</longitude>
  </city>
  <city name="Almache">
    <latitude>49.866667</latitude>
    <longitude>5.1</longitude>
  </city>
  <city name="Alnoir">
    <latitude>50.466667</latitude>
    <longitude>4.633333</longitude>
  </city>
  <city name="Alost">
    <latitude>50.933333</latitude>
    <longitude>4.033333</longitude>
  </city>
  <city name="Alphelaar">
    <latitude>51.1</latitude>
    <longitude>4.666667</longitude>
  </city>
  <city name="Alphelaer">
    <latitude>51.1</latitude>
    <longitude>4.666667</longitude>
  </city>
  <city name="Al' Saute">
    <latitude>50.033333</latitude>
    <longitude>5.366667</longitude>
  </city>
  <city name="Alsberg">
    <latitude>50.933333</latitude>
    <longitude>4.883333</longitude>
  </city>
  <city name="Alsemberg">
    <latitude>50.733333</latitude>
    <longitude>4.316667</longitude>
  </city>
  <city name="Alsput">
    <latitude>50.75</latitude>
    <longitude>4.233333</longitude>
  </city>
  <city name="Alster">
    <latitude>50.210833</latitude>
    <longitude>6.125</longitude>
  </city>
  <city name="Altembroek">
    <latitude>50.766667</latitude>
    <longitude>5.783333</longitude>
  </city>
  <city name="Altembrouck">
    <latitude>50.766667</latitude>
    <longitude>5.783333</longitude>
  </city>
  <city name="Altenbrouck">
    <latitude>50.766667</latitude>
    <longitude>5.783333</longitude>
  </city>
  <city name="Alt Hattlich">
    <latitude>50.566667</latitude>
    <longitude>6.133333</longitude>
  </city>
  <city name="Altiaux">
    <latitude>50.566667</latitude>
    <longitude>4.6</longitude>
  </city>
  <city name="Altière">
    <latitude>50.616667</latitude>
    <longitude>3.55</longitude>
  </city>
  <city name="Altières">
    <latitude>50.616667</latitude>
    <longitude>3.55</longitude>
  </city>
  <city name="Alvaux">
    <latitude>50.333333</latitude>
    <longitude>5.15</longitude>
  </city>
  <city name="Alveaux">
    <latitude>50.55</latitude>
    <longitude>4.816667</longitude>
  </city>
  <city name="Alveringem">
    <latitude>51.016667</latitude>
    <longitude>2.716667</longitude>
  </city>
  <city name="Alveringhem">
    <latitude>51.016667</latitude>
    <longitude>2.716667</longitude>
  </city>
  <city name="Al'Vove">
    <latitude>50.566667</latitude>
    <longitude>3.8</longitude>
  </city>
  <city name="Alzémont">
    <latitude>50.6</latitude>
    <longitude>4.35</longitude>
  </city>
  <city name="Am Adesberg">
    <latitude>50.346389</latitude>
    <longitude>6.170556</longitude>
  </city>
  <city name="A Marfontaine">
    <latitude>49.866667</latitude>
    <longitude>5.5</longitude>
  </city>
  <city name="Amas">
    <latitude>50.4</latitude>
    <longitude>5.4</longitude>
  </city>
  <city name="À Massehottée">
    <latitude>50.25</latitude>
    <longitude>5.75</longitude>
  </city>
  <city name="Amay">
    <latitude>50.55</latitude>
    <longitude>5.316667</longitude>
  </city>
  <city name="Amberloup">
    <latitude>50.033333</latitude>
    <longitude>5.533333</longitude>
  </city>
  <city name="Amblève">
    <latitude>50.35</latitude>
    <longitude>6.15</longitude>
  </city>
  <city name="Ambly">
    <latitude>50.15</latitude>
    <longitude>5.316667</longitude>
  </city>
  <city name="Ambresin">
    <latitude>50.633333</latitude>
    <longitude>5.033333</longitude>
  </city>
  <city name="Ambresinaux">
    <latitude>50.633333</latitude>
    <longitude>5.033333</longitude>
  </city>
  <city name="Amel">
    <latitude>50.35</latitude>
    <longitude>6.15</longitude>
  </city>
  <city name="Amelscheid">
    <latitude>50.276667</latitude>
    <longitude>6.2575</longitude>
  </city>
  <city name="Amelsdorp">
    <latitude>50.866667</latitude>
    <longitude>5.55</longitude>
  </city>
  <city name="Amercoeur">
    <latitude>50.633333</latitude>
    <longitude>5.583333</longitude>
  </city>
  <city name="America">
    <latitude>50.8</latitude>
    <longitude>3.033333</longitude>
  </city>
  <city name="Amerika">
    <latitude>50.8</latitude>
    <longitude>3.033333</longitude>
  </city>
  <city name="Amermont">
    <latitude>50.416667</latitude>
    <longitude>5.933333</longitude>
  </city>
  <city name="Amersveld">
    <latitude>51.0</latitude>
    <longitude>2.983333</longitude>
  </city>
  <city name="Amersvelde">
    <latitude>51.0</latitude>
    <longitude>2.983333</longitude>
  </city>
  <city name="Am Kreuz">
    <latitude>50.366667</latitude>
    <longitude>6.133333</longitude>
  </city>
  <city name="Amon Delbroucq">
    <latitude>50.666667</latitude>
    <longitude>5.55</longitude>
  </city>
  <city name="Amonines">
    <latitude>50.266667</latitude>
    <longitude>5.566667</longitude>
  </city>
  <city name="Amougies">
    <latitude>50.75</latitude>
    <longitude>3.483333</longitude>
  </city>
  <city name="Ampsin">
    <latitude>50.533333</latitude>
    <longitude>5.283333</longitude>
  </city>
  <city name="Amry">
    <latitude>50.733333</latitude>
    <longitude>5.633333</longitude>
  </city>
  <city name="Am Stein">
    <latitude>50.347778</latitude>
    <longitude>6.128333</longitude>
  </city>
  <city name="Ancienne Abbaye d'Aulne">
    <latitude>50.35</latitude>
    <longitude>4.316667</longitude>
  </city>
  <city name="Ancien Vivier">
    <latitude>50.533333</latitude>
    <longitude>6.033333</longitude>
  </city>
  <city name="Andenelle">
    <latitude>50.5</latitude>
    <longitude>5.116667</longitude>
  </city>
  <city name="Andenne">
    <latitude>50.483333</latitude>
    <longitude>5.1</longitude>
  </city>
  <city name="Anderenbroek">
    <latitude>50.883333</latitude>
    <longitude>4.033333</longitude>
  </city>
  <city name="Anderghen">
    <latitude>50.816667</latitude>
    <longitude>4.433333</longitude>
  </city>
  <city name="Anderlecht">
    <latitude>50.833333</latitude>
    <longitude>4.3</longitude>
  </city>
  <city name="Anderlues">
    <latitude>50.4</latitude>
    <longitude>4.266667</longitude>
  </city>
  <city name="Andler">
    <latitude>50.306111</latitude>
    <longitude>6.283056</longitude>
  </city>
  <city name="Andoumont">
    <latitude>50.533333</latitude>
    <longitude>4.383333</longitude>
  </city>
  <city name="Andoy">
    <latitude>50.433333</latitude>
    <longitude>4.933333</longitude>
  </city>
  <city name="Andricourt">
    <latitude>50.616667</latitude>
    <longitude>3.7</longitude>
  </city>
  <city name="Andrîfosse">
    <latitude>50.466667</latitude>
    <longitude>6.133333</longitude>
  </city>
  <city name="Andrimont">
    <latitude>50.333333</latitude>
    <longitude>4.4</longitude>
  </city>
  <city name="Ange">
    <latitude>51.1</latitude>
    <longitude>3.033333</longitude>
  </city>
  <city name="Angleur">
    <latitude>50.616667</latitude>
    <longitude>5.6</longitude>
  </city>
  <city name="Angousart">
    <latitude>50.716667</latitude>
    <longitude>4.566667</longitude>
  </city>
  <city name="Angoussart">
    <latitude>50.716667</latitude>
    <longitude>4.566667</longitude>
  </city>
  <city name="Angre">
    <latitude>50.366667</latitude>
    <longitude>3.683333</longitude>
  </city>
  <city name="Angreau">
    <latitude>50.35</latitude>
    <longitude>3.683333</longitude>
  </city>
  <city name="Anhée">
    <latitude>50.316667</latitude>
    <longitude>4.883333</longitude>
  </city>
  <city name="Anhée sur Meuse">
    <latitude>50.316667</latitude>
    <longitude>4.883333</longitude>
  </city>
  <city name="Anixhe">
    <latitude>50.716667</latitude>
    <longitude>5.566667</longitude>
  </city>
  <city name="Anlier">
    <latitude>49.783333</latitude>
    <longitude>5.616667</longitude>
  </city>
  <city name="Anloy">
    <latitude>49.95</latitude>
    <longitude>5.216667</longitude>
  </city>
  <city name="Annecroix">
    <latitude>50.7</latitude>
    <longitude>4.116667</longitude>
  </city>
  <city name="Annekenshoek">
    <latitude>51.166667</latitude>
    <longitude>4.316667</longitude>
  </city>
  <city name="Annevoie-Rouillon">
    <latitude>50.35</latitude>
    <longitude>4.833333</longitude>
  </city>
  <city name="Ans">
    <latitude>50.65</latitude>
    <longitude>5.533333</longitude>
  </city>
  <city name="Ansart">
    <latitude>49.7</latitude>
    <longitude>5.533333</longitude>
  </city>
  <city name="Anseghem">
    <latitude>50.833333</latitude>
    <longitude>3.466667</longitude>
  </city>
  <city name="Anseremme">
    <latitude>50.25</latitude>
    <longitude>4.9</longitude>
  </city>
  <city name="Anseroeul">
    <latitude>50.733333</latitude>
    <longitude>3.516667</longitude>
  </city>
  <city name="Ansuelle">
    <latitude>50.383333</latitude>
    <longitude>4.25</longitude>
  </city>
  <city name="Anthée">
    <latitude>50.25</latitude>
    <longitude>4.75</longitude>
  </city>
  <city name="Antheit">
    <latitude>50.55</latitude>
    <longitude>5.216667</longitude>
  </city>
  <city name="Anthisnes">
    <latitude>50.483333</latitude>
    <longitude>5.516667</longitude>
  </city>
  <city name="Antiémont">
    <latitude>50.183333</latitude>
    <longitude>5.3</longitude>
  </city>
  <city name="Antoing">
    <latitude>50.566667</latitude>
    <longitude>3.45</longitude>
  </city>
  <city name="Anton">
    <latitude>50.483333</latitude>
    <longitude>5.066667</longitude>
  </city>
  <city name="Antwerp">
    <latitude>51.216667</latitude>
    <longitude>4.416667</longitude>
  </city>
  <city name="Antwerpen">
    <latitude>51.216667</latitude>
    <longitude>4.416667</longitude>
  </city>
  <city name="Anvaing">
    <latitude>50.683333</latitude>
    <longitude>3.55</longitude>
  </city>
  <city name="Anvers">
    <latitude>51.216667</latitude>
    <longitude>4.416667</longitude>
  </city>
  <city name="Anway">
    <latitude>50.333333</latitude>
    <longitude>4.9</longitude>
  </city>
  <city name="Anzegem">
    <latitude>50.833333</latitude>
    <longitude>3.466667</longitude>
  </city>
  <city name="Apostelhuizen">
    <latitude>51.05</latitude>
    <longitude>3.9</longitude>
  </city>
  <city name="Appelblok">
    <latitude>50.933333</latitude>
    <longitude>4.783333</longitude>
  </city>
  <city name="Appelboom">
    <latitude>51.166667</latitude>
    <longitude>3.516667</longitude>
  </city>
  <city name="Appelhoek">
    <latitude>50.9</latitude>
    <longitude>3.55</longitude>
  </city>
  <city name="Appels">
    <latitude>51.033333</latitude>
    <longitude>4.066667</longitude>
  </city>
  <city name="Appels Veir">
    <latitude>51.033333</latitude>
    <longitude>4.05</longitude>
  </city>
  <city name="Appelterre-Eichem">
    <latitude>50.816667</latitude>
    <longitude>3.95</longitude>
  </city>
  <city name="Appelterre-Eychem">
    <latitude>50.816667</latitude>
    <longitude>3.95</longitude>
  </city>
  <city name="Appelveld">
    <latitude>50.9</latitude>
    <longitude>5.45</longitude>
  </city>
  <city name="Aquinot">
    <latitude>50.683333</latitude>
    <longitude>4.466667</longitude>
  </city>
  <city name="Araan">
    <latitude>50.916667</latitude>
    <longitude>5.133333</longitude>
  </city>
  <city name="Arabie">
    <latitude>50.716667</latitude>
    <longitude>3.6</longitude>
  </city>
  <city name="Araen">
    <latitude>50.916667</latitude>
    <longitude>5.133333</longitude>
  </city>
  <city name="Arbespine">
    <latitude>50.516667</latitude>
    <longitude>5.9</longitude>
  </city>
  <city name="Arbre à Limont">
    <latitude>50.7</latitude>
    <longitude>3.766667</longitude>
  </city>
  <city name="Arbre">
    <latitude>50.6</latitude>
    <longitude>3.816667</longitude>
  </city>
  <city name="Arbrefontaine">
    <latitude>50.3</latitude>
    <longitude>5.833333</longitude>
  </city>
  <city name="Arbre Saint-Michel">
    <latitude>50.616667</latitude>
    <longitude>5.45</longitude>
  </city>
  <city name="Arbre Saint-Pierre">
    <latitude>50.716667</latitude>
    <longitude>3.683333</longitude>
  </city>
  <city name="Arc-Ainières">
    <latitude>50.7</latitude>
    <longitude>3.533333</longitude>
  </city>
  <city name="Archennes">
    <latitude>50.75</latitude>
    <longitude>4.666667</longitude>
  </city>
  <city name="Arches">
    <latitude>50.466667</latitude>
    <longitude>5.15</longitude>
  </city>
  <city name="Archonwelz">
    <latitude>50.616667</latitude>
    <longitude>3.75</longitude>
  </city>
  <city name="Ardencourt">
    <latitude>50.033333</latitude>
    <longitude>5.8</longitude>
  </city>
  <city name="Ardenelle">
    <latitude>50.566667</latitude>
    <longitude>4.616667</longitude>
  </city>
  <city name="Ardennes">
    <latitude>50.633333</latitude>
    <longitude>4.183333</longitude>
  </city>
  <city name="Ardevoor">
    <latitude>50.766667</latitude>
    <longitude>5.0</longitude>
  </city>
  <city name="Ardooie">
    <latitude>50.983333</latitude>
    <longitude>3.2</longitude>
  </city>
  <city name="Ardoye">
    <latitude>50.983333</latitude>
    <longitude>3.2</longitude>
  </city>
  <city name="A Rechauvaux">
    <latitude>49.6</latitude>
    <longitude>5.75</longitude>
  </city>
  <city name="Arend">
    <latitude>51.133333</latitude>
    <longitude>3.166667</longitude>
  </city>
  <city name="Arendonck">
    <latitude>51.316667</latitude>
    <longitude>5.083333</longitude>
  </city>
  <city name="Arendonk">
    <latitude>51.316667</latitude>
    <longitude>5.083333</longitude>
  </city>
  <city name="Arendonkse Hoek">
    <latitude>51.283333</latitude>
    <longitude>5.05</longitude>
  </city>
  <city name="Arendonksenhoek">
    <latitude>51.283333</latitude>
    <longitude>5.05</longitude>
  </city>
  <city name="Argenteau">
    <latitude>50.7</latitude>
    <longitude>5.7</longitude>
  </city>
  <city name="Arimont">
    <latitude>50.416667</latitude>
    <longitude>6.066667</longitude>
  </city>
  <city name="Arisdonck">
    <latitude>51.15</latitude>
    <longitude>3.633333</longitude>
  </city>
  <city name="Arisdonk">
    <latitude>51.15</latitude>
    <longitude>3.633333</longitude>
  </city>
  <city name="Arlon">
    <latitude>49.683333</latitude>
    <longitude>5.816667</longitude>
  </city>
  <city name="Arloncourt">
    <latitude>50.033333</latitude>
    <longitude>5.8</longitude>
  </city>
  <city name="Arme Klei">
    <latitude>50.833333</latitude>
    <longitude>3.716667</longitude>
  </city>
  <city name="Arme Leut">
    <latitude>50.783333</latitude>
    <longitude>3.233333</longitude>
  </city>
  <city name="Armoede">
    <latitude>50.916667</latitude>
    <longitude>3.166667</longitude>
  </city>
  <city name="Arnelle">
    <latitude>50.7</latitude>
    <longitude>4.75</longitude>
  </city>
  <city name="Arquennes">
    <latitude>50.566667</latitude>
    <longitude>4.266667</longitude>
  </city>
  <city name="Arsimont">
    <latitude>50.433333</latitude>
    <longitude>4.65</longitude>
  </city>
  <city name="Artoishoek">
    <latitude>50.833333</latitude>
    <longitude>3.1</longitude>
  </city>
  <city name="Arton">
    <latitude>50.55</latitude>
    <longitude>4.75</longitude>
  </city>
  <city name="Arville">
    <latitude>50.033333</latitude>
    <longitude>5.316667</longitude>
  </city>
  <city name="As">
    <latitude>51.016667</latitude>
    <longitude>5.583333</longitude>
  </city>
  <city name="Asbeek">
    <latitude>50.9</latitude>
    <longitude>4.166667</longitude>
  </city>
  <city name="Asberg">
    <latitude>51.083333</latitude>
    <longitude>4.9</longitude>
  </city>
  <city name="Asbroek">
    <latitude>51.066667</latitude>
    <longitude>4.866667</longitude>
  </city>
  <city name="Asch">
    <latitude>51.016667</latitude>
    <longitude>5.583333</longitude>
  </city>
  <city name="Aschhoop">
    <latitude>50.95</latitude>
    <longitude>2.883333</longitude>
  </city>
  <city name="Ascstraat">
    <latitude>50.833333</latitude>
    <longitude>3.85</longitude>
  </city>
  <city name="Ashoop">
    <latitude>50.95</latitude>
    <longitude>2.883333</longitude>
  </city>
  <city name="Aspelaere">
    <latitude>50.833333</latitude>
    <longitude>3.95</longitude>
  </city>
  <city name="Aspelare">
    <latitude>50.833333</latitude>
    <longitude>3.95</longitude>
  </city>
  <city name="Asper">
    <latitude>50.916667</latitude>
    <longitude>3.65</longitude>
  </city>
  <city name="Aspergem">
    <latitude>51.033333</latitude>
    <longitude>3.183333</longitude>
  </city>
  <city name="Asperghem">
    <latitude>51.033333</latitude>
    <longitude>3.183333</longitude>
  </city>
  <city name="Aspot">
    <latitude>51.066667</latitude>
    <longitude>4.3</longitude>
  </city>
  <city name="Asquempont">
    <latitude>50.633333</latitude>
    <longitude>4.233333</longitude>
  </city>
  <city name="Asquilies">
    <latitude>50.4</latitude>
    <longitude>3.95</longitude>
  </city>
  <city name="Asquillies">
    <latitude>50.4</latitude>
    <longitude>3.95</longitude>
  </city>
  <city name="Assche">
    <latitude>50.916667</latitude>
    <longitude>4.2</longitude>
  </city>
  <city name="Asschestraet">
    <latitude>50.833333</latitude>
    <longitude>3.85</longitude>
  </city>
  <city name="Assche-ter-Heiden">
    <latitude>50.916667</latitude>
    <longitude>4.15</longitude>
  </city>
  <city name="Asse">
    <latitude>50.916667</latitude>
    <longitude>4.2</longitude>
  </city>
  <city name="Assebroek">
    <latitude>51.2</latitude>
    <longitude>3.266667</longitude>
  </city>
  <city name="Assebrouck">
    <latitude>51.2</latitude>
    <longitude>3.266667</longitude>
  </city>
  <city name="Asselkouter">
    <latitude>50.95</latitude>
    <longitude>3.766667</longitude>
  </city>
  <city name="Assels">
    <latitude>51.033333</latitude>
    <longitude>3.683333</longitude>
  </city>
  <city name="Assenede">
    <latitude>51.233333</latitude>
    <longitude>3.75</longitude>
  </city>
  <city name="Assenois">
    <latitude>49.8</latitude>
    <longitude>5.466667</longitude>
  </city>
  <city name="Assent">
    <latitude>50.95</latitude>
    <longitude>5.016667</longitude>
  </city>
  <city name="Assesse">
    <latitude>50.366667</latitude>
    <longitude>5.016667</longitude>
  </city>
  <city name="Assestraat">
    <latitude>50.833333</latitude>
    <longitude>3.85</longitude>
  </city>
  <city name="Asse ter Heide">
    <latitude>50.916667</latitude>
    <longitude>4.15</longitude>
  </city>
  <city name="Astene">
    <latitude>50.983333</latitude>
    <longitude>3.55</longitude>
  </city>
  <city name="Astenet">
    <latitude>50.683333</latitude>
    <longitude>6.033333</longitude>
  </city>
  <city name="Asy">
    <latitude>49.716667</latitude>
    <longitude>5.266667</longitude>
  </city>
  <city name="Atembeek">
    <latitude>50.766667</latitude>
    <longitude>3.916667</longitude>
  </city>
  <city name="Atembeke">
    <latitude>50.766667</latitude>
    <longitude>3.916667</longitude>
  </city>
  <city name="Ath">
    <latitude>50.633333</latitude>
    <longitude>3.783333</longitude>
  </city>
  <city name="Athis">
    <latitude>50.366667</latitude>
    <longitude>3.766667</longitude>
  </city>
  <city name="Athus">
    <latitude>49.566667</latitude>
    <longitude>5.833333</longitude>
  </city>
  <city name="Atrin">
    <latitude>50.416667</latitude>
    <longitude>5.366667</longitude>
  </city>
  <city name="Attenhoven">
    <latitude>50.766667</latitude>
    <longitude>5.1</longitude>
  </city>
  <city name="Attenrode">
    <latitude>50.883333</latitude>
    <longitude>4.916667</longitude>
  </city>
  <city name="Attenrode-Wever">
    <latitude>50.883333</latitude>
    <longitude>4.916667</longitude>
  </city>
  <city name="Attert">
    <latitude>49.766667</latitude>
    <longitude>5.783333</longitude>
  </city>
  <city name="Attre">
    <latitude>50.6</latitude>
    <longitude>3.833333</longitude>
  </city>
  <city name="Atzerath">
    <latitude>50.282222</latitude>
    <longitude>6.220556</longitude>
  </city>
  <city name="Aubange">
    <latitude>49.583333</latitude>
    <longitude>5.8</longitude>
  </city>
  <city name="Aubechies">
    <latitude>50.566667</latitude>
    <longitude>3.683333</longitude>
  </city>
  <city name="Aubecq">
    <latitude>50.733333</latitude>
    <longitude>3.766667</longitude>
  </city>
  <city name="Aubel">
    <latitude>50.7</latitude>
    <longitude>5.85</longitude>
  </city>
  <city name="Au Beulet">
    <latitude>49.983333</latitude>
    <longitude>5.833333</longitude>
  </city>
  <city name="Aublain">
    <latitude>50.066667</latitude>
    <longitude>4.416667</longitude>
  </city>
  <city name="Au Blanc Pignon">
    <latitude>50.583333</latitude>
    <longitude>4.216667</longitude>
  </city>
  <city name="Au Boland">
    <latitude>50.616667</latitude>
    <longitude>5.116667</longitude>
  </city>
  <city name="Aubroek">
    <latitude>51.05</latitude>
    <longitude>4.166667</longitude>
  </city>
  <city name="Auby">
    <latitude>49.816667</latitude>
    <longitude>5.166667</longitude>
  </city>
  <city name="Auby-sur-Semois">
    <latitude>49.816667</latitude>
    <longitude>5.166667</longitude>
  </city>
  <city name="Au Caillou">
    <latitude>50.083333</latitude>
    <longitude>5.666667</longitude>
  </city>
  <city name="Au Chabet">
    <latitude>49.95</latitude>
    <longitude>5.583333</longitude>
  </city>
  <city name="Au Chenay">
    <latitude>50.716667</latitude>
    <longitude>5.633333</longitude>
  </city>
  <city name="Au Cheny du Mont">
    <latitude>50.05</latitude>
    <longitude>5.3</longitude>
  </city>
  <city name="Au Cheval Dot">
    <latitude>50.066667</latitude>
    <longitude>5.283333</longitude>
  </city>
  <city name="Au Coucou">
    <latitude>50.1</latitude>
    <longitude>5.3</longitude>
  </city>
  <city name="Audegem">
    <latitude>51.016667</latitude>
    <longitude>4.066667</longitude>
  </city>
  <city name="Au dela de l'Eau">
    <latitude>50.166667</latitude>
    <longitude>5.416667</longitude>
  </city>
  <city name="Audemetz">
    <latitude>50.533333</latitude>
    <longitude>3.516667</longitude>
  </city>
  <city name="Audemez">
    <latitude>50.533333</latitude>
    <longitude>3.516667</longitude>
  </city>
  <city name="Audenaarde">
    <latitude>50.85</latitude>
    <longitude>3.6</longitude>
  </city>
  <city name="Audenaeken">
    <latitude>50.783333</latitude>
    <longitude>4.2</longitude>
  </city>
  <city name="Audenarde">
    <latitude>50.85</latitude>
    <longitude>3.6</longitude>
  </city>
  <city name="Audenhove">
    <latitude>50.766667</latitude>
    <longitude>3.666667</longitude>
  </city>
  <city name="Audenhove-Sainte-Marie">
    <latitude>50.833333</latitude>
    <longitude>3.783333</longitude>
  </city>
  <city name="Audenhove-Saint-Gery">
    <latitude>50.85</latitude>
    <longitude>3.783333</longitude>
  </city>
  <city name="Auderghem">
    <latitude>50.816667</latitude>
    <longitude>4.433333</longitude>
  </city>
  <city name="Au dessus des Bois">
    <latitude>50.483333</latitude>
    <longitude>4.2</longitude>
  </city>
  <city name="Au Dieu des Gardes">
    <latitude>49.65</latitude>
    <longitude>5.35</longitude>
  </city>
  <city name="Audion">
    <latitude>50.566667</latitude>
    <longitude>3.366667</longitude>
  </city>
  <city name="Audrange">
    <latitude>50.221111</latitude>
    <longitude>6.022778</longitude>
  </city>
  <city name="Audregnies">
    <latitude>50.383333</latitude>
    <longitude>3.716667</longitude>
  </city>
  <city name="Audrimont">
    <latitude>50.7</latitude>
    <longitude>4.466667</longitude>
  </city>
  <city name="Auel">
    <latitude>50.211944</latitude>
    <longitude>6.172222</longitude>
  </city>
  <city name="Auf Beescht">
    <latitude>49.883333</latitude>
    <longitude>5.766667</longitude>
  </city>
  <city name="Auf Berg">
    <latitude>49.883333</latitude>
    <longitude>5.75</longitude>
  </city>
  <city name="Auf Boescht">
    <latitude>49.883333</latitude>
    <longitude>5.766667</longitude>
  </city>
  <city name="Auf der Wolsch">
    <latitude>49.85</latitude>
    <longitude>5.733333</longitude>
  </city>
  <city name="Au Ferrage">
    <latitude>49.916667</latitude>
    <longitude>5.333333</longitude>
  </city>
  <city name="Auffe">
    <latitude>50.116667</latitude>
    <longitude>5.166667</longitude>
  </city>
  <city name="Au Gris Han">
    <latitude>50.1</latitude>
    <longitude>5.5</longitude>
  </city>
  <city name="Au Gros Chêné">
    <latitude>50.216667</latitude>
    <longitude>5.45</longitude>
  </city>
  <city name="Auguenne">
    <latitude>50.7</latitude>
    <longitude>3.616667</longitude>
  </city>
  <city name="Au Hestré">
    <latitude>50.233333</latitude>
    <longitude>5.783333</longitude>
  </city>
  <city name="Aulmoit">
    <latitude>50.75</latitude>
    <longitude>3.766667</longitude>
  </city>
  <city name="Aulnois">
    <latitude>50.333333</latitude>
    <longitude>3.9</longitude>
  </city>
  <city name="Aulnois Marlière">
    <latitude>50.55</latitude>
    <longitude>3.75</longitude>
  </city>
  <city name="Aulnoit">
    <latitude>50.75</latitude>
    <longitude>3.766667</longitude>
  </city>
  <city name="Au Menhir">
    <latitude>50.066667</latitude>
    <longitude>5.1</longitude>
  </city>
  <city name="Au Minire">
    <latitude>50.066667</latitude>
    <longitude>5.1</longitude>
  </city>
  <city name="Aunoit">
    <latitude>50.75</latitude>
    <longitude>3.766667</longitude>
  </city>
  <city name="Au Pape">
    <latitude>50.366667</latitude>
    <longitude>4.766667</longitude>
  </city>
  <city name="Au Pont">
    <latitude>50.6</latitude>
    <longitude>4.133333</longitude>
  </city>
  <city name="Au Relay">
    <latitude>50.233333</latitude>
    <longitude>5.8</longitude>
  </city>
  <city name="Aurheide">
    <latitude>50.966667</latitude>
    <longitude>4.833333</longitude>
  </city>
  <city name="Aurodenberg">
    <latitude>51.0</latitude>
    <longitude>4.833333</longitude>
  </city>
  <city name="Au Rolay">
    <latitude>50.233333</latitude>
    <longitude>5.8</longitude>
  </city>
  <city name="Austruweel">
    <latitude>51.25</latitude>
    <longitude>4.383333</longitude>
  </city>
  <city name="Autelbas">
    <latitude>49.65</latitude>
    <longitude>5.866667</longitude>
  </city>
  <city name="Autelhaut">
    <latitude>49.65</latitude>
    <longitude>5.85</longitude>
  </city>
  <city name="Autgaerde">
    <latitude>50.766667</latitude>
    <longitude>4.916667</longitude>
  </city>
  <city name="Au Thier">
    <latitude>50.566667</latitude>
    <longitude>5.666667</longitude>
  </city>
  <city name="Au Tomboi">
    <latitude>49.933333</latitude>
    <longitude>5.266667</longitude>
  </city>
  <city name="Au Tombois">
    <latitude>49.933333</latitude>
    <longitude>5.266667</longitude>
  </city>
  <city name="Autre-Église">
    <latitude>50.666667</latitude>
    <longitude>4.916667</longitude>
  </city>
  <city name="Autreppe">
    <latitude>50.35</latitude>
    <longitude>3.716667</longitude>
  </city>
  <city name="Au Trie du Burnot">
    <latitude>50.35</latitude>
    <longitude>4.866667</longitude>
  </city>
  <city name="Au Trou Sauvage">
    <latitude>50.583333</latitude>
    <longitude>5.083333</longitude>
  </city>
  <city name="Autryve">
    <latitude>50.75</latitude>
    <longitude>3.416667</longitude>
  </city>
  <city name="Auvelais">
    <latitude>50.45</latitude>
    <longitude>4.616667</longitude>
  </city>
  <city name="Au Voyez">
    <latitude>50.116667</latitude>
    <longitude>5.6</longitude>
  </city>
  <city name="Auwegem">
    <latitude>50.916667</latitude>
    <longitude>3.583333</longitude>
  </city>
  <city name="Aux Aibricuets">
    <latitude>50.183333</latitude>
    <longitude>5.416667</longitude>
  </city>
  <city name="Aux Aibriquets">
    <latitude>50.183333</latitude>
    <longitude>5.416667</longitude>
  </city>
  <city name="Aux Alloises">
    <latitude>49.883333</latitude>
    <longitude>5.616667</longitude>
  </city>
  <city name="Aux Bruyères">
    <latitude>50.216667</latitude>
    <longitude>5.45</longitude>
  </city>
  <city name="Aux Communes">
    <latitude>50.683333</latitude>
    <longitude>5.683333</longitude>
  </city>
  <city name="Aux Croix">
    <latitude>50.716667</latitude>
    <longitude>5.4</longitude>
  </city>
  <city name="Aux Deux Hêtres">
    <latitude>50.066667</latitude>
    <longitude>5.85</longitude>
  </city>
  <city name="Aux Fagnes">
    <latitude>50.083333</latitude>
    <longitude>5.05</longitude>
  </city>
  <city name="Aux Fontaines">
    <latitude>50.55</latitude>
    <longitude>5.383333</longitude>
  </city>
  <city name="Aux Forges">
    <latitude>50.533333</latitude>
    <longitude>5.333333</longitude>
  </city>
  <city name="Aux Fourchons">
    <latitude>49.916667</latitude>
    <longitude>5.7</longitude>
  </city>
  <city name="Aux Granges">
    <latitude>50.55</latitude>
    <longitude>5.4</longitude>
  </city>
  <city name="Aux Grosses Pierres">
    <latitude>50.566667</latitude>
    <longitude>5.65</longitude>
  </city>
  <city name="Aux Houx">
    <latitude>50.55</latitude>
    <longitude>5.383333</longitude>
  </city>
  <city name="Aux Peupliers">
    <latitude>50.716667</latitude>
    <longitude>5.083333</longitude>
  </city>
  <city name="Aux Rouges Fosses">
    <latitude>50.0</latitude>
    <longitude>5.383333</longitude>
  </city>
  <city name="Aux Sept Chemins">
    <latitude>49.966667</latitude>
    <longitude>5.783333</longitude>
  </city>
  <city name="Aux Tachenires">
    <latitude>49.966667</latitude>
    <longitude>5.316667</longitude>
  </city>
  <city name="Aux Tournants">
    <latitude>50.7</latitude>
    <longitude>5.016667</longitude>
  </city>
  <city name="Aux Trois Saules">
    <latitude>50.45</latitude>
    <longitude>5.233333</longitude>
  </city>
  <city name="Aux Zabrées">
    <latitude>50.716667</latitude>
    <longitude>5.066667</longitude>
  </city>
  <city name="Aux Zazefagnes">
    <latitude>50.316667</latitude>
    <longitude>5.866667</longitude>
  </city>
  <city name="Ave">
    <latitude>50.116667</latitude>
    <longitude>5.15</longitude>
  </city>
  <city name="Avecappelle">
    <latitude>51.066667</latitude>
    <longitude>2.733333</longitude>
  </city>
  <city name="Ave-et-Auffe">
    <latitude>50.116667</latitude>
    <longitude>5.15</longitude>
  </city>
  <city name="Avekapelle">
    <latitude>51.066667</latitude>
    <longitude>2.733333</longitude>
  </city>
  <city name="Avelgem">
    <latitude>50.766667</latitude>
    <longitude>3.433333</longitude>
  </city>
  <city name="Avelghem">
    <latitude>50.766667</latitude>
    <longitude>3.433333</longitude>
  </city>
  <city name="Avennes">
    <latitude>50.633333</latitude>
    <longitude>5.116667</longitude>
  </city>
  <city name="Averbode">
    <latitude>51.033333</latitude>
    <longitude>4.983333</longitude>
  </city>
  <city name="Averbodeheide">
    <latitude>51.05</latitude>
    <longitude>5.0</longitude>
  </city>
  <city name="Averechten">
    <latitude>51.1</latitude>
    <longitude>4.716667</longitude>
  </city>
  <city name="Averegten">
    <latitude>51.1</latitude>
    <longitude>4.716667</longitude>
  </city>
  <city name="Avermaat">
    <latitude>51.05</latitude>
    <longitude>4.05</longitude>
  </city>
  <city name="Avernas-le-Bauduin">
    <latitude>50.7</latitude>
    <longitude>5.083333</longitude>
  </city>
  <city name="Aveschoot">
    <latitude>51.183333</latitude>
    <longitude>3.616667</longitude>
  </city>
  <city name="Avin">
    <latitude>50.616667</latitude>
    <longitude>5.066667</longitude>
  </city>
  <city name="Avister">
    <latitude>50.55</latitude>
    <longitude>5.566667</longitude>
  </city>
  <city name="Avoortbrug">
    <latitude>51.25</latitude>
    <longitude>5.083333</longitude>
  </city>
  <city name="Avoortsbrug">
    <latitude>51.25</latitude>
    <longitude>5.083333</longitude>
  </city>
  <city name="Awagne">
    <latitude>50.3</latitude>
    <longitude>4.95</longitude>
  </city>
  <city name="Awan">
    <latitude>50.466667</latitude>
    <longitude>5.65</longitude>
  </city>
  <city name="Awans">
    <latitude>50.666667</latitude>
    <longitude>5.466667</longitude>
  </city>
  <city name="Awenne">
    <latitude>50.083333</latitude>
    <longitude>5.3</longitude>
  </city>
  <city name="Awirs">
    <latitude>50.6</latitude>
    <longitude>5.4</longitude>
  </city>
  <city name="Axelwalle">
    <latitude>50.9</latitude>
    <longitude>3.633333</longitude>
  </city>
  <city name="Axpoele">
    <latitude>51.066667</latitude>
    <longitude>3.4</longitude>
  </city>
  <city name="Aye">
    <latitude>50.233333</latitude>
    <longitude>5.3</longitude>
  </city>
  <city name="Ayeneux">
    <latitude>50.616667</latitude>
    <longitude>5.716667</longitude>
  </city>
  <city name="Ayghem-Saint-Pierre">
    <latitude>51.033333</latitude>
    <longitude>3.7</longitude>
  </city>
  <city name="Aywaille">
    <latitude>50.466667</latitude>
    <longitude>5.666667</longitude>
  </city>
  <city name="Azebois">
    <latitude>50.483333</latitude>
    <longitude>4.4</longitude>
  </city>
  <city name="Azette">
    <latitude>50.033333</latitude>
    <longitude>5.783333</longitude>
  </city>
  <city name="Azy">
    <latitude>49.716667</latitude>
    <longitude>5.266667</longitude>
  </city>
  <city name="Baaigem">
    <latitude>50.933333</latitude>
    <longitude>3.716667</longitude>
  </city>
  <city name="Baal">
    <latitude>51.0</latitude>
    <longitude>4.75</longitude>
  </city>
  <city name="Baalberg">
    <latitude>51.083333</latitude>
    <longitude>5.066667</longitude>
  </city>
  <city name="Baalheide">
    <latitude>51.0</latitude>
    <longitude>4.733333</longitude>
  </city>
  <city name="Baandries">
    <latitude>50.85</latitude>
    <longitude>3.983333</longitude>
  </city>
  <city name="Baandriesch">
    <latitude>50.85</latitude>
    <longitude>3.983333</longitude>
  </city>
  <city name="Baardegem">
    <latitude>50.95</latitude>
    <longitude>4.15</longitude>
  </city>
  <city name="Baarle">
    <latitude>51.033333</latitude>
    <longitude>3.616667</longitude>
  </city>
  <city name="Baarle Heide">
    <latitude>51.383333</latitude>
    <longitude>4.933333</longitude>
  </city>
  <city name="Baarle-Hertog">
    <latitude>51.45</latitude>
    <longitude>4.933333</longitude>
  </city>
  <city name="Baarleveld">
    <latitude>51.05</latitude>
    <longitude>3.6</longitude>
  </city>
  <city name="Baarlevelde">
    <latitude>51.05</latitude>
    <longitude>3.6</longitude>
  </city>
  <city name="Baarstraat">
    <latitude>51.2</latitude>
    <longitude>4.133333</longitude>
  </city>
  <city name="Baas">
    <latitude>51.15</latitude>
    <longitude>4.033333</longitude>
  </city>
  <city name="Baasrode">
    <latitude>51.033333</latitude>
    <longitude>4.166667</longitude>
  </city>
  <city name="Baassels">
    <latitude>51.116667</latitude>
    <longitude>3.4</longitude>
  </city>
  <city name="Babbelaar">
    <latitude>50.966667</latitude>
    <longitude>4.033333</longitude>
  </city>
  <city name="Babelom">
    <latitude>50.8</latitude>
    <longitude>4.833333</longitude>
  </city>
  <city name="Bacara">
    <latitude>50.55</latitude>
    <longitude>4.233333</longitude>
  </city>
  <city name="Bac du Prince">
    <latitude>50.166667</latitude>
    <longitude>4.816667</longitude>
  </city>
  <city name="Bach">
    <latitude>50.716667</latitude>
    <longitude>5.916667</longitude>
  </city>
  <city name="Bachte">
    <latitude>51.0</latitude>
    <longitude>3.55</longitude>
  </city>
  <city name="Bachte-Maria-Leerne">
    <latitude>51.016667</latitude>
    <longitude>3.583333</longitude>
  </city>
  <city name="Baclain">
    <latitude>50.2</latitude>
    <longitude>5.866667</longitude>
  </city>
  <city name="Baconfoy">
    <latitude>50.083333</latitude>
    <longitude>5.533333</longitude>
  </city>
  <city name="Baconveau">
    <latitude>49.566667</latitude>
    <longitude>5.6</longitude>
  </city>
  <city name="Baddebroek">
    <latitude>51.116667</latitude>
    <longitude>4.416667</longitude>
  </city>
  <city name="Badon">
    <latitude>50.2</latitude>
    <longitude>4.366667</longitude>
  </city>
  <city name="Baegnée">
    <latitude>50.633333</latitude>
    <longitude>5.133333</longitude>
  </city>
  <city name="Baekenbosch">
    <latitude>50.75</latitude>
    <longitude>4.5</longitude>
  </city>
  <city name="Bael">
    <latitude>51.0</latitude>
    <longitude>4.75</longitude>
  </city>
  <city name="Baelberg">
    <latitude>51.083333</latitude>
    <longitude>5.066667</longitude>
  </city>
  <city name="Baelegem">
    <latitude>50.933333</latitude>
    <longitude>3.783333</longitude>
  </city>
  <city name="Baelen">
    <latitude>51.166667</latitude>
    <longitude>5.15</longitude>
  </city>
  <city name="Bael Heide">
    <latitude>51.0</latitude>
    <longitude>4.733333</longitude>
  </city>
  <city name="Baelheide">
    <latitude>51.066667</latitude>
    <longitude>5.05</longitude>
  </city>
  <city name="Baerdegem">
    <latitude>50.95</latitude>
    <longitude>4.15</longitude>
  </city>
  <city name="Baerdeghem">
    <latitude>50.95</latitude>
    <longitude>4.15</longitude>
  </city>
  <city name="Baerle-Duc">
    <latitude>51.45</latitude>
    <longitude>4.933333</longitude>
  </city>
  <city name="Baerle Heide">
    <latitude>51.383333</latitude>
    <longitude>4.933333</longitude>
  </city>
  <city name="Baerlevelde">
    <latitude>51.05</latitude>
    <longitude>3.6</longitude>
  </city>
  <city name="Baesrode">
    <latitude>51.033333</latitude>
    <longitude>4.166667</longitude>
  </city>
  <city name="Baessels">
    <latitude>51.116667</latitude>
    <longitude>3.4</longitude>
  </city>
  <city name="Baevegem">
    <latitude>50.95</latitude>
    <longitude>3.866667</longitude>
  </city>
  <city name="Baeygem">
    <latitude>50.933333</latitude>
    <longitude>3.716667</longitude>
  </city>
  <city name="Bafenrieux">
    <latitude>50.55</latitude>
    <longitude>4.0</longitude>
  </city>
  <city name="Bagenrieux">
    <latitude>50.55</latitude>
    <longitude>4.0</longitude>
  </city>
  <city name="Bagimont">
    <latitude>49.816667</latitude>
    <longitude>4.866667</longitude>
  </city>
  <city name="Baileu">
    <latitude>50.216667</latitude>
    <longitude>4.416667</longitude>
  </city>
  <city name="Baileux">
    <latitude>50.033333</latitude>
    <longitude>4.383333</longitude>
  </city>
  <city name="Bailièvre">
    <latitude>50.066667</latitude>
    <longitude>4.233333</longitude>
  </city>
  <city name="Baillamont">
    <latitude>49.9</latitude>
    <longitude>5.033333</longitude>
  </city>
  <city name="Bailles">
    <latitude>50.566667</latitude>
    <longitude>3.85</longitude>
  </city>
  <city name="Bailleul">
    <latitude>50.666667</latitude>
    <longitude>3.3</longitude>
  </city>
  <city name="Bailli">
    <latitude>50.716667</latitude>
    <longitude>3.6</longitude>
  </city>
  <city name="Baillonville">
    <latitude>50.283333</latitude>
    <longitude>5.333333</longitude>
  </city>
  <city name="Baimont">
    <latitude>50.333333</latitude>
    <longitude>5.266667</longitude>
  </city>
  <city name="Baisieux">
    <latitude>50.383333</latitude>
    <longitude>3.683333</longitude>
  </city>
  <city name="Baisy-Thy">
    <latitude>50.6</latitude>
    <longitude>4.466667</longitude>
  </city>
  <city name="Baive">
    <latitude>50.566667</latitude>
    <longitude>4.8</longitude>
  </city>
  <city name="Bakel">
    <latitude>51.0</latitude>
    <longitude>5.116667</longitude>
  </city>
  <city name="Bakenbos">
    <latitude>50.75</latitude>
    <longitude>4.5</longitude>
  </city>
  <city name="Bakergem">
    <latitude>50.866667</latitude>
    <longitude>4.066667</longitude>
  </city>
  <city name="Balâtre">
    <latitude>50.5</latitude>
    <longitude>4.633333</longitude>
  </city>
  <city name="Balderij">
    <latitude>51.266667</latitude>
    <longitude>4.933333</longitude>
  </city>
  <city name="Balegem">
    <latitude>50.933333</latitude>
    <longitude>3.783333</longitude>
  </city>
  <city name="Balei">
    <latitude>50.916667</latitude>
    <longitude>3.883333</longitude>
  </city>
  <city name="Balen">
    <latitude>51.166667</latitude>
    <longitude>5.15</longitude>
  </city>
  <city name="Balen-sur-Nethe">
    <latitude>51.166667</latitude>
    <longitude>5.15</longitude>
  </city>
  <city name="Balgerhoek">
    <latitude>51.2</latitude>
    <longitude>3.516667</longitude>
  </city>
  <city name="Balgerhoeke">
    <latitude>51.2</latitude>
    <longitude>3.516667</longitude>
  </city>
  <city name="Balkenbrug">
    <latitude>51.183333</latitude>
    <longitude>3.85</longitude>
  </city>
  <city name="Balkerstraat">
    <latitude>50.933333</latitude>
    <longitude>4.6</longitude>
  </city>
  <city name="Balkestraat">
    <latitude>50.933333</latitude>
    <longitude>4.6</longitude>
  </city>
  <city name="Ballaar">
    <latitude>50.966667</latitude>
    <longitude>4.983333</longitude>
  </city>
  <city name="Ballaer">
    <latitude>50.966667</latitude>
    <longitude>4.983333</longitude>
  </city>
  <city name="Balleweier">
    <latitude>50.983333</latitude>
    <longitude>5.4</longitude>
  </city>
  <city name="Ballons">
    <latitude>50.716667</latitude>
    <longitude>3.2</longitude>
  </city>
  <city name="Baltenshoek">
    <latitude>50.883333</latitude>
    <longitude>3.566667</longitude>
  </city>
  <city name="Baltert">
    <latitude>49.75</latitude>
    <longitude>5.8</longitude>
  </city>
  <city name="Bambois">
    <latitude>50.383333</latitude>
    <longitude>4.7</longitude>
  </city>
  <city name="Bambrick">
    <latitude>50.95</latitude>
    <longitude>5.3</longitude>
  </city>
  <city name="Bambrik">
    <latitude>50.95</latitude>
    <longitude>5.3</longitude>
  </city>
  <city name="Bambrugge">
    <latitude>50.916667</latitude>
    <longitude>3.933333</longitude>
  </city>
  <city name="Banbuche">
    <latitude>50.35</latitude>
    <longitude>6.016667</longitude>
  </city>
  <city name="Ban d'Alle">
    <latitude>49.8</latitude>
    <longitude>4.966667</longitude>
  </city>
  <city name="Bande">
    <latitude>50.166667</latitude>
    <longitude>5.416667</longitude>
  </city>
  <city name="Ban de Laviot">
    <latitude>49.833333</latitude>
    <longitude>5.0</longitude>
  </city>
  <city name="Banès-Sârts">
    <latitude>50.016667</latitude>
    <longitude>5.116667</longitude>
  </city>
  <city name="Banet Sarts">
    <latitude>50.016667</latitude>
    <longitude>5.116667</longitude>
  </city>
  <city name="Baneu">
    <latitude>50.066667</latitude>
    <longitude>5.833333</longitude>
  </city>
  <city name="Banneux">
    <latitude>50.533333</latitude>
    <longitude>5.733333</longitude>
  </city>
  <city name="Banoyard">
    <latitude>50.466667</latitude>
    <longitude>5.8</longitude>
  </city>
  <city name="Bansbroek">
    <latitude>50.916667</latitude>
    <longitude>4.983333</longitude>
  </city>
  <city name="Bansions">
    <latitude>50.533333</latitude>
    <longitude>5.883333</longitude>
  </city>
  <city name="Banterlez">
    <latitude>50.583333</latitude>
    <longitude>4.45</longitude>
  </city>
  <city name="Barakken">
    <latitude>50.783333</latitude>
    <longitude>3.116667</longitude>
  </city>
  <city name="Baranzy">
    <latitude>49.566667</latitude>
    <longitude>5.683333</longitude>
  </city>
  <city name="Baraque">
    <latitude>50.583333</latitude>
    <longitude>3.7</longitude>
  </city>
  <city name="Baraque de Fraiture">
    <latitude>50.25</latitude>
    <longitude>5.733333</longitude>
  </city>
  <city name="Baraque Dumont">
    <latitude>50.166667</latitude>
    <longitude>5.95</longitude>
  </city>
  <city name="Baraque Dupont">
    <latitude>50.15</latitude>
    <longitude>5.933333</longitude>
  </city>
  <city name="Baraque Grember">
    <latitude>50.15</latitude>
    <longitude>5.95</longitude>
  </city>
  <city name="Barbençon">
    <latitude>50.216667</latitude>
    <longitude>4.266667</longitude>
  </city>
  <city name="Barberie">
    <latitude>50.65</latitude>
    <longitude>3.55</longitude>
  </city>
  <city name="Barbinfosse">
    <latitude>50.683333</latitude>
    <longitude>3.666667</longitude>
  </city>
  <city name="Barbotte">
    <latitude>50.566667</latitude>
    <longitude>5.283333</longitude>
  </city>
  <city name="Barcène">
    <latitude>50.283333</latitude>
    <longitude>5.1</longitude>
  </city>
  <city name="Barchon">
    <latitude>50.666667</latitude>
    <longitude>5.7</longitude>
  </city>
  <city name="Barenberg">
    <latitude>51.0</latitude>
    <longitude>5.083333</longitude>
  </city>
  <city name="Barenzy">
    <latitude>49.566667</latitude>
    <longitude>5.683333</longitude>
  </city>
  <city name="Barges">
    <latitude>50.583333</latitude>
    <longitude>3.383333</longitude>
  </city>
  <city name="Barisoeul">
    <latitude>50.583333</latitude>
    <longitude>3.566667</longitude>
  </city>
  <city name="Barnich">
    <latitude>49.65</latitude>
    <longitude>5.866667</longitude>
  </city>
  <city name="Baronheid">
    <latitude>50.483333</latitude>
    <longitude>5.966667</longitude>
  </city>
  <city name="Baronheld">
    <latitude>50.483333</latitude>
    <longitude>5.966667</longitude>
  </city>
  <city name="Baronsheide">
    <latitude>50.933333</latitude>
    <longitude>4.833333</longitude>
  </city>
  <city name="Baronville">
    <latitude>50.133333</latitude>
    <longitude>4.95</longitude>
  </city>
  <city name="Barouche">
    <latitude>50.566667</latitude>
    <longitude>4.216667</longitude>
  </city>
  <city name="Barriere d'Ecaussines">
    <latitude>50.583333</latitude>
    <longitude>4.133333</longitude>
  </city>
  <city name="Barriere d'Ecaussinnes">
    <latitude>50.583333</latitude>
    <longitude>4.133333</longitude>
  </city>
  <city name="Barrière de Champlon">
    <latitude>50.383333</latitude>
    <longitude>5.083333</longitude>
  </city>
  <city name="Barriere d'Haubreux">
    <latitude>50.333333</latitude>
    <longitude>4.066667</longitude>
  </city>
  <city name="Barry">
    <latitude>50.583333</latitude>
    <longitude>3.533333</longitude>
  </city>
  <city name="Barsdamhoek">
    <latitude>51.016667</latitude>
    <longitude>2.983333</longitude>
  </city>
  <city name="Barse">
    <latitude>50.483333</latitude>
    <longitude>5.266667</longitude>
  </city>
  <city name="Barsenalle">
    <latitude>50.266667</latitude>
    <longitude>5.1</longitude>
  </city>
  <city name="Barsy">
    <latitude>50.383333</latitude>
    <longitude>5.133333</longitude>
  </city>
  <city name="Barvaux">
    <latitude>50.35</latitude>
    <longitude>5.483333</longitude>
  </city>
  <city name="Barvaux-Condroz">
    <latitude>50.333333</latitude>
    <longitude>5.266667</longitude>
  </city>
  <city name="Barvoetschenhoek">
    <latitude>50.983333</latitude>
    <longitude>3.983333</longitude>
  </city>
  <city name="Barvoetsenhoek">
    <latitude>50.983333</latitude>
    <longitude>3.983333</longitude>
  </city>
  <city name="Barzin">
    <latitude>50.066667</latitude>
    <longitude>5.083333</longitude>
  </city>
  <city name="Basbeek">
    <latitude>51.066667</latitude>
    <longitude>3.65</longitude>
  </city>
  <city name="Bas Bois">
    <latitude>50.616667</latitude>
    <longitude>5.75</longitude>
  </city>
  <city name="Bas Bonlez">
    <latitude>50.716667</latitude>
    <longitude>4.7</longitude>
  </city>
  <city name="Bas Coron">
    <latitude>50.533333</latitude>
    <longitude>3.633333</longitude>
  </city>
  <city name="Bas Corot">
    <latitude>50.083333</latitude>
    <longitude>5.3</longitude>
  </city>
  <city name="Bascoup">
    <latitude>50.466667</latitude>
    <longitude>4.266667</longitude>
  </city>
  <city name="Bas du Village">
    <latitude>50.033333</latitude>
    <longitude>4.333333</longitude>
  </city>
  <city name="Basècles">
    <latitude>50.516667</latitude>
    <longitude>3.633333</longitude>
  </city>
  <city name="Basel">
    <latitude>51.15</latitude>
    <longitude>4.3</longitude>
  </city>
  <city name="Bas Forest">
    <latitude>50.666667</latitude>
    <longitude>3.55</longitude>
  </city>
  <city name="Basheers">
    <latitude>50.733333</latitude>
    <longitude>5.266667</longitude>
  </city>
  <city name="Bas Laveu">
    <latitude>50.616667</latitude>
    <longitude>5.483333</longitude>
  </city>
  <city name="Bas Masville">
    <latitude>50.6</latitude>
    <longitude>4.266667</longitude>
  </city>
  <city name="Bas-Oha">
    <latitude>50.516667</latitude>
    <longitude>5.183333</longitude>
  </city>
  <city name="Bas Préau">
    <latitude>50.516667</latitude>
    <longitude>3.3</longitude>
  </city>
  <city name="Bas Ransbeek">
    <latitude>50.7</latitude>
    <longitude>4.45</longitude>
  </city>
  <city name="Bas Rejet">
    <latitude>50.716667</latitude>
    <longitude>3.483333</longitude>
  </city>
  <city name="Bassange">
    <latitude>50.766667</latitude>
    <longitude>5.6</longitude>
  </city>
  <city name="Bas-Sart">
    <latitude>50.366667</latitude>
    <longitude>4.583333</longitude>
  </city>
  <city name="Basse Arche">
    <latitude>50.433333</latitude>
    <longitude>5.083333</longitude>
  </city>
  <city name="Basse Awirs">
    <latitude>50.583333</latitude>
    <longitude>5.416667</longitude>
  </city>
  <city name="Basse-Bodeux">
    <latitude>50.35</latitude>
    <longitude>5.833333</longitude>
  </city>
  <city name="Basse-Bonlez">
    <latitude>50.716667</latitude>
    <longitude>4.7</longitude>
  </city>
  <city name="Basse Bruyère">
    <latitude>50.633333</latitude>
    <longitude>4.2</longitude>
  </city>
  <city name="Basse Chenêtre">
    <latitude>50.7</latitude>
    <longitude>5.733333</longitude>
  </city>
  <city name="Basse-Chenette">
    <latitude>50.7</latitude>
    <longitude>5.733333</longitude>
  </city>
  <city name="Bassée">
    <latitude>50.433333</latitude>
    <longitude>4.4</longitude>
  </city>
  <city name="Basse Fauquez">
    <latitude>50.616667</latitude>
    <longitude>4.25</longitude>
  </city>
  <city name="Basse Flandre">
    <latitude>50.783333</latitude>
    <longitude>3.083333</longitude>
  </city>
  <city name="Basse Gage">
    <latitude>50.55</latitude>
    <longitude>4.016667</longitude>
  </city>
  <city name="Basse Hermalle">
    <latitude>50.733333</latitude>
    <longitude>5.683333</longitude>
  </city>
  <city name="Basse Heuval">
    <latitude>50.583333</latitude>
    <longitude>4.55</longitude>
  </city>
  <city name="Basse Houssière">
    <latitude>50.616667</latitude>
    <longitude>4.166667</longitude>
  </city>
  <city name="Basseije">
    <latitude>50.8</latitude>
    <longitude>2.833333</longitude>
  </city>
  <city name="Basseilles">
    <latitude>50.083333</latitude>
    <longitude>5.466667</longitude>
  </city>
  <city name="Basse Lasne">
    <latitude>50.683333</latitude>
    <longitude>4.466667</longitude>
  </city>
  <city name="Bassenge">
    <latitude>50.766667</latitude>
    <longitude>5.6</longitude>
  </city>
  <city name="Basse Noucelle">
    <latitude>50.683333</latitude>
    <longitude>4.316667</longitude>
  </city>
  <city name="Basse-Noucelles">
    <latitude>50.683333</latitude>
    <longitude>4.316667</longitude>
  </city>
  <city name="Basse-Plaine">
    <latitude>50.716667</latitude>
    <longitude>3.433333</longitude>
  </city>
  <city name="Basse-Ransbêche">
    <latitude>50.7</latitude>
    <longitude>4.45</longitude>
  </city>
  <city name="Basse Ransy">
    <latitude>50.616667</latitude>
    <longitude>5.633333</longitude>
  </city>
  <city name="Basse-Roisseleux">
    <latitude>50.666667</latitude>
    <longitude>5.833333</longitude>
  </city>
  <city name="Basse Roux Miroir">
    <latitude>50.716667</latitude>
    <longitude>4.766667</longitude>
  </city>
  <city name="Basse Rue">
    <latitude>50.533333</latitude>
    <longitude>3.75</longitude>
  </city>
  <city name="Basse Tribomont">
    <latitude>50.6</latitude>
    <longitude>5.816667</longitude>
  </city>
  <city name="Bassevelde">
    <latitude>51.233333</latitude>
    <longitude>3.683333</longitude>
  </city>
  <city name="Basse Ville">
    <latitude>50.733333</latitude>
    <longitude>2.916667</longitude>
  </city>
  <city name="Basse Wanchie">
    <latitude>49.8</latitude>
    <longitude>5.333333</longitude>
  </city>
  <city name="Basse Wavre">
    <latitude>50.716667</latitude>
    <longitude>4.633333</longitude>
  </city>
  <city name="Basseye">
    <latitude>50.8</latitude>
    <longitude>2.833333</longitude>
  </city>
  <city name="Bassije">
    <latitude>50.8</latitude>
    <longitude>2.833333</longitude>
  </city>
  <city name="Bassilly">
    <latitude>50.666667</latitude>
    <longitude>3.933333</longitude>
  </city>
  <city name="Bassines">
    <latitude>50.366667</latitude>
    <longitude>5.35</longitude>
  </city>
  <city name="Bas Slins">
    <latitude>50.75</latitude>
    <longitude>5.566667</longitude>
  </city>
  <city name="Bastelaar">
    <latitude>51.1</latitude>
    <longitude>3.883333</longitude>
  </city>
  <city name="Bastenaken">
    <latitude>50.0</latitude>
    <longitude>5.716667</longitude>
  </city>
  <city name="Bastogne">
    <latitude>50.0</latitude>
    <longitude>5.716667</longitude>
  </city>
  <city name="Bas Vinave">
    <latitude>50.6</latitude>
    <longitude>5.233333</longitude>
  </city>
  <city name="Bas-Warneton">
    <latitude>50.75</latitude>
    <longitude>2.95</longitude>
  </city>
  <city name="Bath">
    <latitude>50.716667</latitude>
    <longitude>3.6</longitude>
  </city>
  <city name="Batria">
    <latitude>50.616667</latitude>
    <longitude>4.366667</longitude>
  </city>
  <city name="Batsheers">
    <latitude>50.733333</latitude>
    <longitude>5.266667</longitude>
  </city>
  <city name="Battefer">
    <latitude>50.233333</latitude>
    <longitude>4.416667</longitude>
  </city>
  <city name="Battel">
    <latitude>51.05</latitude>
    <longitude>4.45</longitude>
  </city>
  <city name="Battenbroeck">
    <latitude>51.066667</latitude>
    <longitude>4.433333</longitude>
  </city>
  <city name="Battenbroek">
    <latitude>51.066667</latitude>
    <longitude>4.433333</longitude>
  </city>
  <city name="Battice">
    <latitude>50.65</latitude>
    <longitude>5.816667</longitude>
  </city>
  <city name="Battincourt">
    <latitude>49.583333</latitude>
    <longitude>5.766667</longitude>
  </city>
  <city name="Bauche">
    <latitude>50.366667</latitude>
    <longitude>4.366667</longitude>
  </city>
  <city name="Baudecet">
    <latitude>50.6</latitude>
    <longitude>4.716667</longitude>
  </city>
  <city name="Baudelo">
    <latitude>51.0</latitude>
    <longitude>3.433333</longitude>
  </city>
  <city name="Baudeloo">
    <latitude>51.0</latitude>
    <longitude>3.433333</longitude>
  </city>
  <city name="Baudemont">
    <latitude>50.633333</latitude>
    <longitude>4.283333</longitude>
  </city>
  <city name="Baudenghien">
    <latitude>50.75</latitude>
    <longitude>3.7</longitude>
  </city>
  <city name="Baudeset">
    <latitude>50.6</latitude>
    <longitude>4.716667</longitude>
  </city>
  <city name="Baudour">
    <latitude>50.483333</latitude>
    <longitude>3.816667</longitude>
  </city>
  <city name="Baudoux">
    <latitude>50.5</latitude>
    <longitude>4.383333</longitude>
  </city>
  <city name="Baudrihaye">
    <latitude>50.6</latitude>
    <longitude>5.733333</longitude>
  </city>
  <city name="Bauffe">
    <latitude>50.566667</latitude>
    <longitude>3.85</longitude>
  </city>
  <city name="Baugnez">
    <latitude>50.4</latitude>
    <longitude>6.066667</longitude>
  </city>
  <city name="Baugnies">
    <latitude>50.55</latitude>
    <longitude>3.55</longitude>
  </city>
  <city name="Baulers">
    <latitude>50.616667</latitude>
    <longitude>4.35</longitude>
  </city>
  <city name="Baume">
    <latitude>50.483333</latitude>
    <longitude>4.2</longitude>
  </city>
  <city name="Baureux">
    <latitude>50.7</latitude>
    <longitude>3.516667</longitude>
  </city>
  <city name="Baurieux">
    <latitude>50.633333</latitude>
    <longitude>4.583333</longitude>
  </city>
  <city name="Bautenshoek">
    <latitude>51.2</latitude>
    <longitude>4.2</longitude>
  </city>
  <city name="Bautersem">
    <latitude>50.85</latitude>
    <longitude>4.833333</longitude>
  </city>
  <city name="Bautershoven">
    <latitude>50.816667</latitude>
    <longitude>5.233333</longitude>
  </city>
  <city name="Bautschoot Keerken">
    <latitude>51.133333</latitude>
    <longitude>3.966667</longitude>
  </city>
  <city name="Bauwens Kauter">
    <latitude>50.85</latitude>
    <longitude>3.866667</longitude>
  </city>
  <city name="Bauwenskouter">
    <latitude>50.85</latitude>
    <longitude>3.866667</longitude>
  </city>
  <city name="Bavegem">
    <latitude>50.95</latitude>
    <longitude>3.866667</longitude>
  </city>
  <city name="Bavegemberg">
    <latitude>50.95</latitude>
    <longitude>3.883333</longitude>
  </city>
  <city name="Bavegemknok">
    <latitude>50.75</latitude>
    <longitude>3.383333</longitude>
  </city>
  <city name="Baverijck">
    <latitude>51.116667</latitude>
    <longitude>4.05</longitude>
  </city>
  <city name="Baverijk">
    <latitude>51.116667</latitude>
    <longitude>4.05</longitude>
  </city>
  <city name="Bavichove">
    <latitude>50.866667</latitude>
    <longitude>3.3</longitude>
  </city>
  <city name="Bavikhove">
    <latitude>50.866667</latitude>
    <longitude>3.3</longitude>
  </city>
  <city name="Baya">
    <latitude>50.466667</latitude>
    <longitude>5.2</longitude>
  </city>
  <city name="Bazel">
    <latitude>51.15</latitude>
    <longitude>4.3</longitude>
  </city>
  <city name="Beau Chêne">
    <latitude>50.683333</latitude>
    <longitude>4.45</longitude>
  </city>
  <city name="Beaufaulx">
    <latitude>50.7</latitude>
    <longitude>4.383333</longitude>
  </city>
  <city name="Beaufaux">
    <latitude>50.75</latitude>
    <longitude>3.666667</longitude>
  </city>
  <city name="Beaufays">
    <latitude>50.566667</latitude>
    <longitude>5.633333</longitude>
  </city>
  <city name="Beaulette">
    <latitude>50.566667</latitude>
    <longitude>5.116667</longitude>
  </city>
  <city name="Beaulieu">
    <latitude>50.116667</latitude>
    <longitude>5.566667</longitude>
  </city>
  <city name="Beauloup">
    <latitude>50.383333</latitude>
    <longitude>5.816667</longitude>
  </city>
  <city name="Beaumont">
    <latitude>50.666667</latitude>
    <longitude>4.483333</longitude>
  </city>
  <city name="Beau Plateau">
    <latitude>50.0</latitude>
    <longitude>5.533333</longitude>
  </city>
  <city name="Beauraing">
    <latitude>50.116667</latitude>
    <longitude>4.966667</longitude>
  </city>
  <city name="Beauregard">
    <latitude>50.35</latitude>
    <longitude>4.1</longitude>
  </city>
  <city name="Beau Repaire">
    <latitude>50.616667</latitude>
    <longitude>4.05</longitude>
  </city>
  <city name="Beaurieu">
    <latitude>50.05</latitude>
    <longitude>4.266667</longitude>
  </city>
  <city name="Beaurieux">
    <latitude>50.633333</latitude>
    <longitude>4.583333</longitude>
  </city>
  <city name="Beausaint">
    <latitude>50.166667</latitude>
    <longitude>5.55</longitude>
  </city>
  <city name="Beausaint lez La Roche">
    <latitude>50.183333</latitude>
    <longitude>5.566667</longitude>
  </city>
  <city name="Beausoir">
    <latitude>50.683333</latitude>
    <longitude>3.683333</longitude>
  </city>
  <city name="Beauvechain">
    <latitude>50.783333</latitude>
    <longitude>4.766667</longitude>
  </city>
  <city name="Beau Voisinage">
    <latitude>50.716667</latitude>
    <longitude>3.216667</longitude>
  </city>
  <city name="Beauwelz">
    <latitude>50.016667</latitude>
    <longitude>4.15</longitude>
  </city>
  <city name="Bebange">
    <latitude>49.616667</latitude>
    <longitude>5.783333</longitude>
  </city>
  <city name="Becco">
    <latitude>50.5</latitude>
    <longitude>5.783333</longitude>
  </city>
  <city name="Becelaere">
    <latitude>50.85</latitude>
    <longitude>3.016667</longitude>
  </city>
  <city name="Bech">
    <latitude>50.263889</latitude>
    <longitude>5.919167</longitude>
  </city>
  <city name="Bèche">
    <latitude>50.263889</latitude>
    <longitude>5.919167</longitude>
  </city>
  <city name="Bechem">
    <latitude>50.916667</latitude>
    <longitude>3.8</longitude>
  </city>
  <city name="Beckeneinde">
    <latitude>51.116667</latitude>
    <longitude>4.75</longitude>
  </city>
  <city name="Beckerzeel">
    <latitude>50.883333</latitude>
    <longitude>4.233333</longitude>
  </city>
  <city name="Beckstraat">
    <latitude>50.8</latitude>
    <longitude>3.283333</longitude>
  </city>
  <city name="Beclers">
    <latitude>50.616667</latitude>
    <longitude>3.5</longitude>
  </city>
  <city name="Becquereau">
    <latitude>50.733333</latitude>
    <longitude>3.45</longitude>
  </city>
  <city name="Becquevoort">
    <latitude>50.95</latitude>
    <longitude>4.966667</longitude>
  </city>
  <city name="Beekant">
    <latitude>50.783333</latitude>
    <longitude>3.533333</longitude>
  </city>
  <city name="Beek">
    <latitude>51.233333</latitude>
    <longitude>4.833333</longitude>
  </city>
  <city name="Beekhoek">
    <latitude>51.133333</latitude>
    <longitude>4.483333</longitude>
  </city>
  <city name="Beekhoven">
    <latitude>51.35</latitude>
    <longitude>4.616667</longitude>
  </city>
  <city name="Beekkant">
    <latitude>50.85</latitude>
    <longitude>4.316667</longitude>
  </city>
  <city name="Beekmeers">
    <latitude>50.883333</latitude>
    <longitude>3.7</longitude>
  </city>
  <city name="Beekmeersch">
    <latitude>50.883333</latitude>
    <longitude>3.7</longitude>
  </city>
  <city name="Beekmolen">
    <latitude>51.2</latitude>
    <longitude>4.3</longitude>
  </city>
  <city name="Beekstraat">
    <latitude>51.016667</latitude>
    <longitude>4.266667</longitude>
  </city>
  <city name="Beel">
    <latitude>51.166667</latitude>
    <longitude>5.066667</longitude>
  </city>
  <city name="Beeltjens">
    <latitude>51.083333</latitude>
    <longitude>4.9</longitude>
  </city>
  <city name="Beemdekens">
    <latitude>51.133333</latitude>
    <longitude>5.0</longitude>
  </city>
  <city name="Beemdkant">
    <latitude>51.216667</latitude>
    <longitude>4.516667</longitude>
  </city>
  <city name="Beemdtkant">
    <latitude>51.216667</latitude>
    <longitude>4.516667</longitude>
  </city>
  <city name="Beemkant">
    <latitude>51.216667</latitude>
    <longitude>4.516667</longitude>
  </city>
  <city name="Béemont">
    <latitude>50.45</latitude>
    <longitude>5.4</longitude>
  </city>
  <city name="Beer">
    <latitude>50.983333</latitude>
    <longitude>3.683333</longitude>
  </city>
  <city name="Beerdonck">
    <latitude>51.083333</latitude>
    <longitude>4.183333</longitude>
  </city>
  <city name="Beerdonk">
    <latitude>51.083333</latitude>
    <longitude>4.183333</longitude>
  </city>
  <city name="Beerendonk">
    <latitude>51.3</latitude>
    <longitude>5.1</longitude>
  </city>
  <city name="Beerendries">
    <latitude>50.833333</latitude>
    <longitude>3.766667</longitude>
  </city>
  <city name="Beerhof">
    <latitude>50.95</latitude>
    <longitude>3.616667</longitude>
  </city>
  <city name="Beeringen">
    <latitude>51.05</latitude>
    <longitude>5.216667</longitude>
  </city>
  <city name="Beerlegem">
    <latitude>50.9</latitude>
    <longitude>3.716667</longitude>
  </city>
  <city name="Beernem">
    <latitude>51.15</latitude>
    <longitude>3.333333</longitude>
  </city>
  <city name="Beerse">
    <latitude>51.316667</latitude>
    <longitude>4.866667</longitude>
  </city>
  <city name="Beersel">
    <latitude>51.066667</latitude>
    <longitude>4.666667</longitude>
  </city>
  <city name="Beersse">
    <latitude>51.316667</latitude>
    <longitude>4.866667</longitude>
  </city>
  <city name="Beerst">
    <latitude>51.066667</latitude>
    <longitude>2.883333</longitude>
  </city>
  <city name="Beerst Bloot">
    <latitude>51.05</latitude>
    <longitude>2.833333</longitude>
  </city>
  <city name="Beerst-Bloote">
    <latitude>51.05</latitude>
    <longitude>2.833333</longitude>
  </city>
  <city name="Beerstenhoek">
    <latitude>51.15</latitude>
    <longitude>4.25</longitude>
  </city>
  <city name="Beert">
    <latitude>50.733333</latitude>
    <longitude>4.183333</longitude>
  </city>
  <city name="Beervelde">
    <latitude>51.083333</latitude>
    <longitude>3.883333</longitude>
  </city>
  <city name="Beerzel">
    <latitude>51.066667</latitude>
    <longitude>4.666667</longitude>
  </city>
  <city name="Beez">
    <latitude>50.466667</latitude>
    <longitude>4.916667</longitude>
  </city>
  <city name="Beffe">
    <latitude>50.25</latitude>
    <longitude>5.516667</longitude>
  </city>
  <city name="Befve">
    <latitude>50.666667</latitude>
    <longitude>5.85</longitude>
  </city>
  <city name="Begaarden Berg">
    <latitude>50.95</latitude>
    <longitude>4.833333</longitude>
  </city>
  <city name="Begaerden-Berg">
    <latitude>50.95</latitude>
    <longitude>4.833333</longitude>
  </city>
  <city name="Begeveld">
    <latitude>50.9</latitude>
    <longitude>5.45</longitude>
  </city>
  <city name="Beggijnhof">
    <latitude>50.85</latitude>
    <longitude>3.233333</longitude>
  </city>
  <city name="Beggynendyck">
    <latitude>51.016667</latitude>
    <longitude>4.766667</longitude>
  </city>
  <city name="Begijneheide">
    <latitude>51.033333</latitude>
    <longitude>5.4</longitude>
  </city>
  <city name="Begijnenborre">
    <latitude>50.85</latitude>
    <longitude>4.233333</longitude>
  </city>
  <city name="Begijnendijk">
    <latitude>51.016667</latitude>
    <longitude>4.766667</longitude>
  </city>
  <city name="Begijnestraat">
    <latitude>50.983333</latitude>
    <longitude>3.85</longitude>
  </city>
  <city name="Begijne Weide">
    <latitude>50.95</latitude>
    <longitude>4.85</longitude>
  </city>
  <city name="Begijnhof">
    <latitude>50.85</latitude>
    <longitude>3.233333</longitude>
  </city>
  <city name="Begijnhof 's Wijk">
    <latitude>51.05</latitude>
    <longitude>3.75</longitude>
  </city>
  <city name="Begijnnenborre">
    <latitude>50.85</latitude>
    <longitude>4.233333</longitude>
  </city>
  <city name="Béguinage">
    <latitude>50.666667</latitude>
    <longitude>3.95</longitude>
  </city>
  <city name="Begynhof">
    <latitude>50.85</latitude>
    <longitude>3.233333</longitude>
  </city>
  <city name="Behême">
    <latitude>49.783333</latitude>
    <longitude>5.6</longitude>
  </city>
  <city name="Beho">
    <latitude>50.220556</latitude>
    <longitude>5.998056</longitude>
  </city>
  <city name="Beigem">
    <latitude>50.95</latitude>
    <longitude>4.366667</longitude>
  </city>
  <city name="Beignée">
    <latitude>50.333333</latitude>
    <longitude>4.383333</longitude>
  </city>
  <city name="Beindekens">
    <latitude>51.133333</latitude>
    <longitude>5.0</longitude>
  </city>
  <city name="Beirendonck">
    <latitude>51.3</latitude>
    <longitude>5.1</longitude>
  </city>
  <city name="Beirendries">
    <latitude>51.033333</latitude>
    <longitude>3.816667</longitude>
  </city>
  <city name="Beirlegem">
    <latitude>50.9</latitude>
    <longitude>3.716667</longitude>
  </city>
  <city name="Beirvelde">
    <latitude>51.083333</latitude>
    <longitude>3.883333</longitude>
  </city>
  <city name="Beisberg">
    <latitude>50.783333</latitude>
    <longitude>4.216667</longitude>
  </city>
  <city name="Beiselhoven">
    <latitude>50.866667</latitude>
    <longitude>3.8</longitude>
  </city>
  <city name="Beisem">
    <latitude>50.9</latitude>
    <longitude>4.616667</longitude>
  </city>
  <city name="Beisloven">
    <latitude>50.866667</latitude>
    <longitude>3.8</longitude>
  </city>
  <city name="Beitem">
    <latitude>50.883333</latitude>
    <longitude>3.1</longitude>
  </city>
  <city name="Beke">
    <latitude>50.9</latitude>
    <longitude>3.633333</longitude>
  </city>
  <city name="Bekegem">
    <latitude>51.166667</latitude>
    <longitude>3.033333</longitude>
  </city>
  <city name="Bekeghem">
    <latitude>51.166667</latitude>
    <longitude>3.033333</longitude>
  </city>
  <city name="Bekeneinde">
    <latitude>51.116667</latitude>
    <longitude>4.75</longitude>
  </city>
  <city name="Bekenhol">
    <latitude>50.833333</latitude>
    <longitude>3.85</longitude>
  </city>
  <city name="Bekkeneinde">
    <latitude>51.116667</latitude>
    <longitude>4.75</longitude>
  </city>
  <city name="Bekkerzeel">
    <latitude>50.883333</latitude>
    <longitude>4.233333</longitude>
  </city>
  <city name="Bekkevoort">
    <latitude>50.95</latitude>
    <longitude>4.966667</longitude>
  </city>
  <city name="Bekmeers">
    <latitude>50.883333</latitude>
    <longitude>3.7</longitude>
  </city>
  <city name="Belair">
    <latitude>50.433333</latitude>
    <longitude>6.15</longitude>
  </city>
  <city name="Bel Air">
    <latitude>50.233333</latitude>
    <longitude>5.016667</longitude>
  </city>
  <city name="Bel">
    <latitude>51.166667</latitude>
    <longitude>5.066667</longitude>
  </city>
  <city name="Belcele">
    <latitude>51.15</latitude>
    <longitude>4.083333</longitude>
  </city>
  <city name="Belcelehoek">
    <latitude>51.15</latitude>
    <longitude>4.116667</longitude>
  </city>
  <city name="Beleschecken">
    <latitude>49.583333</latitude>
    <longitude>5.866667</longitude>
  </city>
  <city name="Belgiek">
    <latitude>50.833333</latitude>
    <longitude>3.383333</longitude>
  </city>
  <city name="Belgrade">
    <latitude>50.466667</latitude>
    <longitude>4.833333</longitude>
  </city>
  <city name="Belhez">
    <latitude>50.216667</latitude>
    <longitude>5.716667</longitude>
  </city>
  <city name="Belhutte">
    <latitude>51.066667</latitude>
    <longitude>2.983333</longitude>
  </city>
  <city name="Bellain">
    <latitude>50.166667</latitude>
    <longitude>5.966667</longitude>
  </city>
  <city name="Bellaire">
    <latitude>50.65</latitude>
    <longitude>5.666667</longitude>
  </city>
  <city name="Bell">
    <latitude>51.166667</latitude>
    <longitude>5.066667</longitude>
  </city>
  <city name="Belle">
    <latitude>50.533333</latitude>
    <longitude>4.266667</longitude>
  </city>
  <city name="Bellecourt">
    <latitude>50.483333</latitude>
    <longitude>4.25</longitude>
  </city>
  <city name="Belle Croix">
    <latitude>50.633333</latitude>
    <longitude>4.016667</longitude>
  </city>
  <city name="Belle Eau">
    <latitude>49.95</latitude>
    <longitude>5.616667</longitude>
  </city>
  <city name="Belle Fontaine">
    <latitude>50.416667</latitude>
    <longitude>4.3</longitude>
  </city>
  <city name="Bellefontaine">
    <latitude>49.666667</latitude>
    <longitude>5.5</longitude>
  </city>
  <city name="Bellegem">
    <latitude>50.783333</latitude>
    <longitude>3.266667</longitude>
  </city>
  <city name="Belleghem">
    <latitude>50.783333</latitude>
    <longitude>3.266667</longitude>
  </city>
  <city name="Bellegrade">
    <latitude>50.483333</latitude>
    <longitude>5.233333</longitude>
  </city>
  <city name="Belle Haie">
    <latitude>50.266667</latitude>
    <longitude>5.7</longitude>
  </city>
  <city name="Belle-Maison">
    <latitude>50.483333</latitude>
    <longitude>5.233333</longitude>
  </city>
  <city name="Bellem">
    <latitude>51.083333</latitude>
    <longitude>3.5</longitude>
  </city>
  <city name="Belles Plumes">
    <latitude>50.066667</latitude>
    <longitude>5.15</longitude>
  </city>
  <city name="Belle Tête">
    <latitude>50.566667</latitude>
    <longitude>4.15</longitude>
  </city>
  <city name="Belleva">
    <latitude>50.2</latitude>
    <longitude>5.65</longitude>
  </city>
  <city name="Bellevaux">
    <latitude>50.4</latitude>
    <longitude>6.0</longitude>
  </city>
  <city name="Bellevaux-Ligneuville">
    <latitude>50.4</latitude>
    <longitude>6.0</longitude>
  </city>
  <city name="Belle Vue">
    <latitude>50.716667</latitude>
    <longitude>4.416667</longitude>
  </city>
  <city name="Bellevue">
    <latitude>49.716667</latitude>
    <longitude>5.8</longitude>
  </city>
  <city name="Belliek">
    <latitude>50.716667</latitude>
    <longitude>5.333333</longitude>
  </city>
  <city name="Bellingen">
    <latitude>50.75</latitude>
    <longitude>4.15</longitude>
  </city>
  <city name="Bellinghen">
    <latitude>50.75</latitude>
    <longitude>4.15</longitude>
  </city>
  <city name="Belloi">
    <latitude>49.866667</latitude>
    <longitude>5.533333</longitude>
  </city>
  <city name="Belloy">
    <latitude>50.516667</latitude>
    <longitude>3.433333</longitude>
  </city>
  <city name="Belmont">
    <latitude>49.583333</latitude>
    <longitude>5.566667</longitude>
  </city>
  <city name="Beloeil">
    <latitude>50.55</latitude>
    <longitude>3.716667</longitude>
  </city>
  <city name="Beloy">
    <latitude>49.866667</latitude>
    <longitude>5.533333</longitude>
  </city>
  <city name="Belsele">
    <latitude>51.15</latitude>
    <longitude>4.083333</longitude>
  </city>
  <city name="Belselehoek">
    <latitude>51.15</latitude>
    <longitude>4.116667</longitude>
  </city>
  <city name="Belva">
    <latitude>50.683333</latitude>
    <longitude>3.283333</longitude>
  </city>
  <city name="Belval">
    <latitude>50.716667</latitude>
    <longitude>3.7</longitude>
  </city>
  <city name="Belvaux">
    <latitude>50.1</latitude>
    <longitude>5.2</longitude>
  </city>
  <city name="Belvédère">
    <latitude>50.366667</latitude>
    <longitude>5.183333</longitude>
  </city>
  <city name="Belven">
    <latitude>50.666667</latitude>
    <longitude>6.083333</longitude>
  </city>
  <city name="Belvenn">
    <latitude>50.666667</latitude>
    <longitude>6.083333</longitude>
  </city>
  <city name="Belzeele">
    <latitude>51.1</latitude>
    <longitude>3.666667</longitude>
  </city>
  <city name="Belzele">
    <latitude>51.1</latitude>
    <longitude>3.666667</longitude>
  </city>
  <city name="Bemdkant">
    <latitude>51.216667</latitude>
    <longitude>4.516667</longitude>
  </city>
  <city name="Bemel">
    <latitude>50.833333</latitude>
    <longitude>4.416667</longitude>
  </city>
  <city name="Bemelsveld">
    <latitude>50.833333</latitude>
    <longitude>4.416667</longitude>
  </city>
  <city name="Ben-Ahin">
    <latitude>50.516667</latitude>
    <longitude>5.183333</longitude>
  </city>
  <city name="Bénauvanne">
    <latitude>49.8</latitude>
    <longitude>5.183333</longitude>
  </city>
  <city name="Bende">
    <latitude>50.55</latitude>
    <longitude>5.283333</longitude>
  </city>
  <city name="Beneck">
    <latitude>49.633333</latitude>
    <longitude>5.75</longitude>
  </city>
  <city name="Benedenheide">
    <latitude>50.833333</latitude>
    <longitude>4.8</longitude>
  </city>
  <city name="Beneden Kessel">
    <latitude>50.9</latitude>
    <longitude>4.733333</longitude>
  </city>
  <city name="Benonchamp">
    <latitude>50.0</latitude>
    <longitude>5.816667</longitude>
  </city>
  <city name="Benonchamps">
    <latitude>50.0</latitude>
    <longitude>5.816667</longitude>
  </city>
  <city name="Bensberg">
    <latitude>50.916667</latitude>
    <longitude>4.85</longitude>
  </city>
  <city name="Bentille">
    <latitude>51.25</latitude>
    <longitude>3.6</longitude>
  </city>
  <city name="Béole">
    <latitude>50.4</latitude>
    <longitude>5.15</longitude>
  </city>
  <city name="Béolette">
    <latitude>50.316667</latitude>
    <longitude>5.25</longitude>
  </city>
  <city name="Béoli">
    <latitude>50.05</latitude>
    <longitude>5.366667</longitude>
  </city>
  <city name="Berbroek">
    <latitude>50.95</latitude>
    <longitude>5.2</longitude>
  </city>
  <city name="Berceau">
    <latitude>50.65</latitude>
    <longitude>3.616667</longitude>
  </city>
  <city name="Berchem">
    <latitude>50.783333</latitude>
    <longitude>3.5</longitude>
  </city>
  <city name="Berchem-Sainte-Agathe">
    <latitude>50.866667</latitude>
    <longitude>4.283333</longitude>
  </city>
  <city name="Berchem-Saint-Laurent">
    <latitude>50.783333</latitude>
    <longitude>4.2</longitude>
  </city>
  <city name="Bercheux">
    <latitude>49.9</latitude>
    <longitude>5.533333</longitude>
  </city>
  <city name="Berenbroek">
    <latitude>50.95</latitude>
    <longitude>5.416667</longitude>
  </city>
  <city name="Berendrecht">
    <latitude>51.333333</latitude>
    <longitude>4.316667</longitude>
  </city>
  <city name="Berendries">
    <latitude>50.716667</latitude>
    <longitude>4.233333</longitude>
  </city>
  <city name="Berenheide">
    <latitude>51.116667</latitude>
    <longitude>5.5</longitude>
  </city>
  <city name="Berentrode">
    <latitude>51.033333</latitude>
    <longitude>4.55</longitude>
  </city>
  <city name="Berg">
    <latitude>51.283333</latitude>
    <longitude>5.066667</longitude>
  </city>
  <city name="Berg-Bos">
    <latitude>50.866667</latitude>
    <longitude>5.25</longitude>
  </city>
  <city name="Berg-Bosch">
    <latitude>50.866667</latitude>
    <longitude>5.25</longitude>
  </city>
  <city name="Bergbroek">
    <latitude>50.933333</latitude>
    <longitude>4.766667</longitude>
  </city>
  <city name="Bergeinde">
    <latitude>51.066667</latitude>
    <longitude>5.633333</longitude>
  </city>
  <city name="Bergem">
    <latitude>50.766667</latitude>
    <longitude>4.083333</longitude>
  </city>
  <city name="Bergen">
    <latitude>51.15</latitude>
    <longitude>4.783333</longitude>
  </city>
  <city name="Bergenbroeck">
    <latitude>50.8</latitude>
    <longitude>4.1</longitude>
  </city>
  <city name="Bergenbroek">
    <latitude>50.8</latitude>
    <longitude>4.1</longitude>
  </city>
  <city name="Bergendries">
    <latitude>51.15</latitude>
    <longitude>3.983333</longitude>
  </city>
  <city name="Bergen-Einde">
    <latitude>50.9</latitude>
    <longitude>5.183333</longitude>
  </city>
  <city name="Bergen Einde">
    <latitude>50.916667</latitude>
    <longitude>5.183333</longitude>
  </city>
  <city name="Bergère">
    <latitude>50.633333</latitude>
    <longitude>3.916667</longitude>
  </city>
  <city name="Bergerhout">
    <latitude>51.116667</latitude>
    <longitude>5.083333</longitude>
  </city>
  <city name="Bergerven">
    <latitude>51.066667</latitude>
    <longitude>5.7</longitude>
  </city>
  <city name="Bergeval">
    <latitude>50.35</latitude>
    <longitude>5.866667</longitude>
  </city>
  <city name="Bergheide">
    <latitude>50.966667</latitude>
    <longitude>4.533333</longitude>
  </city>
  <city name="Berghem">
    <latitude>50.766667</latitude>
    <longitude>4.083333</longitude>
  </city>
  <city name="Berghoek">
    <latitude>50.983333</latitude>
    <longitude>3.3</longitude>
  </city>
  <city name="Bergilers">
    <latitude>50.716667</latitude>
    <longitude>5.333333</longitude>
  </city>
  <city name="Berg-Lever">
    <latitude>50.883333</latitude>
    <longitude>5.233333</longitude>
  </city>
  <city name="Bergmolens">
    <latitude>50.916667</latitude>
    <longitude>3.116667</longitude>
  </city>
  <city name="Bergom">
    <latitude>51.066667</latitude>
    <longitude>4.916667</longitude>
  </city>
  <city name="Berg op Zoom">
    <latitude>50.816667</latitude>
    <longitude>5.15</longitude>
  </city>
  <city name="Bergschehoeven">
    <latitude>51.183333</latitude>
    <longitude>4.616667</longitude>
  </city>
  <city name="Bergscheid">
    <latitude>50.583333</latitude>
    <longitude>6.05</longitude>
  </city>
  <city name="Bergscheid Inférieur">
    <latitude>50.583333</latitude>
    <longitude>6.05</longitude>
  </city>
  <city name="Bergse Hoeven">
    <latitude>51.183333</latitude>
    <longitude>4.616667</longitude>
  </city>
  <city name="Bergstraat">
    <latitude>50.85</latitude>
    <longitude>3.9</longitude>
  </city>
  <city name="Bergstraet">
    <latitude>50.833333</latitude>
