<?xml version="1.0" encoding="UTF-8"?>
<country code="bf" name="Burkina Faso">
  <city name="Abanga">
    <latitude>13.3333333</latitude>
    <longitude>0.3166667</longitude>
  </city>
  <city name="Abérékui">
    <latitude>12.5</latitude>
    <longitude>-3.4166667</longitude>
  </city>
  <city name="Abra">
    <latitude>13.7666667</latitude>
    <longitude>-1.4833333</longitude>
  </city>
  <city name="Absendo">
    <latitude>12.1166667</latitude>
    <longitude>-1.7833333</longitude>
  </city>
  <city name="Absouma">
    <latitude>12.4258333</latitude>
    <longitude>-1.4358333</longitude>
  </city>
  <city name="Absouya">
    <latitude>12.64</latitude>
    <longitude>-1.0555556</longitude>
  </city>
  <city name="Adjan">
    <latitude>11.7833333</latitude>
    <longitude>-2.3833333</longitude>
  </city>
  <city name="Adoudji">
    <latitude>13.8333333</latitude>
    <longitude>-0.3666667</longitude>
  </city>
  <city name="Afini">
    <latitude>12.35</latitude>
    <longitude>1.8833333</longitude>
  </city>
  <city name="Ahkoudèwe">
    <latitude>12.4833333</latitude>
    <longitude>1.8166667</longitude>
  </city>
  <city name="Akoundèl">
    <latitude>13.95</latitude>
    <longitude>0.3666667</longitude>
  </city>
  <city name="Aladiou">
    <latitude>14.05</latitude>
    <longitude>-0.9333333</longitude>
  </city>
  <city name="Alaga">
    <latitude>13.0166667</latitude>
    <longitude>-0.95</longitude>
  </city>
  <city name="Alalé">
    <latitude>13.7666667</latitude>
    <longitude>-0.05</longitude>
  </city>
  <city name="Alamini">
    <latitude>13.8666667</latitude>
    <longitude>-1.5666667</longitude>
  </city>
  <city name="Alamou">
    <latitude>13.45</latitude>
    <longitude>-1.1166667</longitude>
  </city>
  <city name="Alana">
    <latitude>10.6333333</latitude>
    <longitude>-5.1</longitude>
  </city>
  <city name="Alapéra">
    <latitude>9.7833333</latitude>
    <longitude>-3.05</longitude>
  </city>
  <city name="Alfiré">
    <latitude>13.2166667</latitude>
    <longitude>-0.6166667</longitude>
  </city>
  <city name="Aligaga">
    <latitude>13.7666667</latitude>
    <longitude>0.4</longitude>
  </city>
  <city name="Alkoma">
    <latitude>14.2666667</latitude>
    <longitude>0.0666667</longitude>
  </city>
  <city name="Alkousiri">
    <latitude>13.0333333</latitude>
    <longitude>0.0</longitude>
  </city>
  <city name="Almandé">
    <latitude>13.0166667</latitude>
    <longitude>0.2333333</longitude>
  </city>
  <city name="Alobiga">
    <latitude>11.0</latitude>
    <longitude>-0.9166667</longitude>
  </city>
  <city name="Alondi">
    <latitude>12.6333333</latitude>
    <longitude>1.4666667</longitude>
  </city>
  <city name="Alondigwéna">
    <latitude>12.0333333</latitude>
    <longitude>0.9333333</longitude>
  </city>
  <city name="Alora">
    <latitude>14.0666667</latitude>
    <longitude>-0.85</longitude>
  </city>
  <city name="Alouba">
    <latitude>12.05</latitude>
    <longitude>0.9666667</longitude>
  </city>
  <city name="Amdalay">
    <latitude>14.2333333</latitude>
    <longitude>-1.95</longitude>
  </city>
  <city name="Améné">
    <latitude>13.9833333</latitude>
    <longitude>-2.55</longitude>
  </city>
  <city name="Aménékui">
    <latitude>12.4833333</latitude>
    <longitude>-3.9833333</longitude>
  </city>
  <city name="Aminbiri">
    <latitude>9.9333333</latitude>
    <longitude>-3.1</longitude>
  </city>
  <city name="Amvo">
    <latitude>14.1333333</latitude>
    <longitude>-0.8666667</longitude>
  </city>
  <city name="Anaga">
    <latitude>12.4333333</latitude>
    <longitude>2.2333333</longitude>
  </city>
  <city name="Anbarkoura">
    <latitude>10.0666667</latitude>
    <longitude>-3.1833333</longitude>
  </city>
  <city name="Andékanda">
    <latitude>13.9666667</latitude>
    <longitude>-2.25</longitude>
  </city>
  <city name="Andemtenga">
    <latitude>12.3241667</latitude>
    <longitude>-0.3091667</longitude>
  </city>
  <city name="Andem Yarsé">
    <latitude>12.75</latitude>
    <longitude>-1.2166667</longitude>
  </city>
  <city name="Andeulay">
    <latitude>13.0833333</latitude>
    <longitude>0.65</longitude>
  </city>
  <city name="Anékui">
    <latitude>11.8166667</latitude>
    <longitude>-3.6833333</longitude>
  </city>
  <city name="Ankouma">
    <latitude>13.7333333</latitude>
    <longitude>-0.75</longitude>
  </city>
  <city name="Ankouna">
    <latitude>13.7333333</latitude>
    <longitude>-0.75</longitude>
  </city>
  <city name="Ankuna">
    <latitude>13.7333333</latitude>
    <longitude>-0.75</longitude>
  </city>
  <city name="Ansolma">
    <latitude>13.6833333</latitude>
    <longitude>-2.1833333</longitude>
  </city>
  <city name="Ansouara">
    <latitude>12.9333333</latitude>
    <longitude>-0.65</longitude>
  </city>
  <city name="Ansouri">
    <latitude>13.3166667</latitude>
    <longitude>-1.7666667</longitude>
  </city>
  <city name="Antia">
    <latitude>13.45</latitude>
    <longitude>-0.0666667</longitude>
  </city>
  <city name="Antoa">
    <latitude>12.9166667</latitude>
    <longitude>-0.9666667</longitude>
  </city>
  <city name="Antoua">
    <latitude>12.9166667</latitude>
    <longitude>-0.9666667</longitude>
  </city>
  <city name="Aoréama">
    <latitude>13.6666667</latitude>
    <longitude>-2.3333333</longitude>
  </city>
  <city name="Aoura">
    <latitude>13.15</latitude>
    <longitude>0.9333333</longitude>
  </city>
  <city name="Aourèma">
    <latitude>13.3333333</latitude>
    <longitude>-3.9166667</longitude>
  </city>
  <city name="Ara">
    <latitude>14.3166667</latitude>
    <longitude>-0.9333333</longitude>
  </city>
  <city name="Arakora">
    <latitude>10.2</latitude>
    <longitude>-3.3333333</longitude>
  </city>
  <city name="Aranboura">
    <latitude>10.0333333</latitude>
    <longitude>-3.1</longitude>
  </city>
  <city name="Arbèté">
    <latitude>13.8333333</latitude>
    <longitude>-2.5833333</longitude>
  </city>
  <city name="Arbollé">
    <latitude>12.85</latitude>
    <longitude>-2.05</longitude>
  </city>
  <city name="Aribinda">
    <latitude>14.2325</latitude>
    <longitude>-0.8663889</longitude>
  </city>
  <city name="Ariblana">
    <latitude>10.9166667</latitude>
    <longitude>-5.0666667</longitude>
  </city>
  <city name="Arly">
    <latitude>11.5833333</latitude>
    <longitude>1.4666667</longitude>
  </city>
  <city name="Arofo">
    <latitude>13.1333333</latitude>
    <longitude>-1.3833333</longitude>
  </city>
  <city name="Arouesma">
    <latitude>13.1</latitude>
    <longitude>-1.2666667</longitude>
  </city>
  <city name="Assio">
    <latitude>11.6666667</latitude>
    <longitude>-3.1333333</longitude>
  </city>
  <city name="Attoum">
    <latitude>10.6333333</latitude>
    <longitude>-2.9833333</longitude>
  </city>
  <city name="Atyéri">
    <latitude>12.8833333</latitude>
    <longitude>0.25</longitude>
  </city>
  <city name="Atyoungbana">
    <latitude>12.05</latitude>
    <longitude>0.9333333</longitude>
  </city>
  <city name="Avogonia">
    <latitude>11.0</latitude>
    <longitude>-1.1333333</longitude>
  </city>
  <city name="Ayaraba">
    <latitude>12.8</latitude>
    <longitude>-1.0666667</longitude>
  </city>
  <city name="Ayoubakolon">
    <latitude>12.6333333</latitude>
    <longitude>-4.0833333</longitude>
  </city>
  <city name="Aziga">
    <latitude>11.8666667</latitude>
    <longitude>-2.3666667</longitude>
  </city>
  <city name="Bâa">
    <latitude>12.0833333</latitude>
    <longitude>-3.2333333</longitude>
  </city>
  <city name="Bâ">
    <latitude>11.2833333</latitude>
    <longitude>-3.9833333</longitude>
  </city>
  <city name="Ba">
    <latitude>13.35</latitude>
    <longitude>-4.0166667</longitude>
  </city>
  <city name="Babanloua">
    <latitude>12.0333333</latitude>
    <longitude>0.5166667</longitude>
  </city>
  <city name="Babé">
    <latitude>12.7166667</latitude>
    <longitude>-1.5</longitude>
  </city>
  <city name="Babéden">
    <latitude>12.9166667</latitude>
    <longitude>-0.4666667</longitude>
  </city>
  <city name="Babédo">
    <latitude>11.9833333</latitude>
    <longitude>-1.5833333</longitude>
  </city>
  <city name="Babéré">
    <latitude>12.95</latitude>
    <longitude>0.0666667</longitude>
  </city>
  <city name="Babéréké">
    <latitude>13.15</latitude>
    <longitude>-1.0333333</longitude>
  </city>
  <city name="Babié">
    <latitude>10.6833333</latitude>
    <longitude>-3.0166667</longitude>
  </city>
  <city name="Babiétéoun">
    <latitude>9.8166667</latitude>
    <longitude>-2.75</longitude>
  </city>
  <city name="Babirka">
    <latitude>13.8</latitude>
    <longitude>-0.15</longitude>
  </city>
  <city name="Babo">
    <latitude>13.85</latitude>
    <longitude>-1.9</longitude>
  </city>
  <city name="Babonga">
    <latitude>13.1166667</latitude>
    <longitude>0.6</longitude>
  </city>
  <city name="Babouadi">
    <latitude>12.9833333</latitude>
    <longitude>0.4333333</longitude>
  </city>
  <city name="Babou">
    <latitude>12.8833333</latitude>
    <longitude>-1.5833333</longitude>
  </city>
  <city name="Baboura">
    <latitude>10.0666667</latitude>
    <longitude>-3.85</longitude>
  </city>
  <city name="Bacibédo">
    <latitude>11.7333333</latitude>
    <longitude>-0.1666667</longitude>
  </city>
  <city name="Bada">
    <latitude>13.15</latitude>
    <longitude>0.3833333</longitude>
  </city>
  <city name="Badabiessan">
    <latitude>11.05</latitude>
    <longitude>-0.9333333</longitude>
  </city>
  <city name="Badala">
    <latitude>11.3833333</latitude>
    <longitude>-4.3666667</longitude>
  </city>
  <city name="Badalougou">
    <latitude>12.8</latitude>
    <longitude>-0.2166667</longitude>
  </city>
  <city name="Badara">
    <latitude>10.7833333</latitude>
    <longitude>-3.8166667</longitude>
  </city>
  <city name="Badèdsi">
    <latitude>12.5</latitude>
    <longitude>1.6</longitude>
  </city>
  <city name="Badéma">
    <latitude>11.1833333</latitude>
    <longitude>-0.3166667</longitude>
  </city>
  <city name="Badema">
    <latitude>11.65</latitude>
    <longitude>-4.25</longitude>
  </city>
  <city name="Badéna">
    <latitude>11.65</latitude>
    <longitude>-4.25</longitude>
  </city>
  <city name="Badet">
    <latitude>10.45</latitude>
    <longitude>-4.1</longitude>
  </city>
  <city name="Badiéré">
    <latitude>11.2</latitude>
    <longitude>-3.1666667</longitude>
  </city>
  <city name="Badigna">
    <latitude>12.3666667</latitude>
    <longitude>-4.2</longitude>
  </city>
  <city name="Badinga">
    <latitude>12.0833333</latitude>
    <longitude>0.6833333</longitude>
  </city>
  <city name="Badinogo">
    <latitude>13.3333333</latitude>
    <longitude>-1.6</longitude>
  </city>
  <city name="Badinogou">
    <latitude>14.0666667</latitude>
    <longitude>-1.6166667</longitude>
  </city>
  <city name="Badnogo">
    <latitude>11.8833333</latitude>
    <longitude>-1.4166667</longitude>
  </city>
  <city name="Badnogo I">
    <latitude>12.4666667</latitude>
    <longitude>-1.3</longitude>
  </city>
  <city name="Badnogo II">
    <latitude>12.2705556</latitude>
    <longitude>-1.3661111</longitude>
  </city>
  <city name="Bado">
    <latitude>11.6333333</latitude>
    <longitude>-0.45</longitude>
  </city>
  <city name="Badongo">
    <latitude>11.1833333</latitude>
    <longitude>-0.9666667</longitude>
  </city>
  <city name="Badora">
    <latitude>10.3</latitude>
    <longitude>-3.0333333</longitude>
  </city>
  <city name="Badoré">
    <latitude>12.9833333</latitude>
    <longitude>-0.1333333</longitude>
  </city>
  <city name="Badorio">
    <latitude>13.7666667</latitude>
    <longitude>-2.1166667</longitude>
  </city>
  <city name="Badougou">
    <latitude>11.1166667</latitude>
    <longitude>-0.6166667</longitude>
  </city>
  <city name="Bafèlè">
    <latitude>14.0666667</latitude>
    <longitude>0.0333333</longitude>
  </city>
  <city name="Bafina">
    <latitude>13.6833333</latitude>
    <longitude>-0.9833333</longitude>
  </city>
  <city name="Baforo">
    <latitude>11.0333333</latitude>
    <longitude>-3.1</longitude>
  </city>
  <city name="Bagaben">
    <latitude>12.1072222</latitude>
    <longitude>-1.5097222</longitude>
  </city>
  <city name="Bagadé">
    <latitude>13.0333333</latitude>
    <longitude>-0.5333333</longitude>
  </city>
  <city name="Bagadogo">
    <latitude>11.9</latitude>
    <longitude>-1.3666667</longitude>
  </city>
  <city name="Bagadowoégen">
    <latitude>12.3</latitude>
    <longitude>-1.8</longitude>
  </city>
  <city name="Bagahanba">
    <latitude>12.15</latitude>
    <longitude>1.8166667</longitude>
  </city>
  <city name="Bagala">
    <latitude>12.6</latitude>
    <longitude>-3.8333333</longitude>
  </city>
  <city name="Bagammssi">
    <latitude>11.7833333</latitude>
    <longitude>-1.1</longitude>
  </city>
  <city name="Bagamnini">
    <latitude>12.0141667</latitude>
    <longitude>-1.55</longitude>
  </city>
  <city name="Bagandé">
    <latitude>12.85</latitude>
    <longitude>-0.35</longitude>
  </city>
  <city name="Bagané">
    <latitude>12.0333333</latitude>
    <longitude>-2.3166667</longitude>
  </city>
  <city name="Bagane">
    <latitude>11.2</latitude>
    <longitude>-3.1833333</longitude>
  </city>
  <city name="Bagarao">
    <latitude>12.2563889</latitude>
    <longitude>-1.6886111</longitude>
  </city>
  <city name="Bagaré">
    <latitude>13.45</latitude>
    <longitude>-1.4833333</longitude>
  </city>
  <city name="Bagari">
    <latitude>12.1333333</latitude>
    <longitude>1.85</longitude>
  </city>
  <city name="Bagassi">
    <latitude>11.75</latitude>
    <longitude>-3.3</longitude>
  </city>
  <city name="Bagata">
    <latitude>11.7669444</latitude>
    <longitude>-1.8497222</longitude>
  </city>
  <city name="Bagayiri">
    <latitude>12.4772222</latitude>
    <longitude>-1.2716667</longitude>
  </city>
  <city name="Bagbanano">
    <latitude>10.6833333</latitude>
    <longitude>-3.15</longitude>
  </city>
  <city name="Bagbanao">
    <latitude>10.6833333</latitude>
    <longitude>-3.15</longitude>
  </city>
  <city name="Bagbili">
    <latitude>12.2</latitude>
    <longitude>-0.6166667</longitude>
  </city>
  <city name="Bagéou">
    <latitude>12.2</latitude>
    <longitude>-2.9</longitude>
  </city>
  <city name="Bagéré">
    <latitude>12.5333333</latitude>
    <longitude>-1.3666667</longitude>
  </city>
  <city name="Baghélogo">
    <latitude>13.5833333</latitude>
    <longitude>-2.3333333</longitude>
  </city>
  <city name="Bagou">
    <latitude>12.3166667</latitude>
    <longitude>0.3666667</longitude>
  </city>
  <city name="Bagoudé">
    <latitude>12.85</latitude>
    <longitude>-0.35</longitude>
  </city>
  <city name="Bagouédara">
    <latitude>10.0833333</latitude>
    <longitude>-3.9166667</longitude>
  </city>
  <city name="Bagouoko">
    <latitude>13.4333333</latitude>
    <longitude>-2.2166667</longitude>
  </city>
  <city name="Bagouzia">
    <latitude>11.2833333</latitude>
    <longitude>-2.1833333</longitude>
  </city>
  <city name="Bagozougou">
    <latitude>12.4166667</latitude>
    <longitude>-2.1666667</longitude>
  </city>
  <city name="Bagpélogo">
    <latitude>11.8833333</latitude>
    <longitude>-1.6333333</longitude>
  </city>
  <city name="Bagré">
    <latitude>12.5333333</latitude>
    <longitude>-1.3666667</longitude>
  </city>
  <city name="Bagsalogo">
    <latitude>13.4138889</latitude>
    <longitude>-1.0558333</longitude>
  </city>
  <city name="Bagtogodo">
    <latitude>12.2152778</latitude>
    <longitude>-1.5683333</longitude>
  </city>
  <city name="Baguemnini">
    <latitude>12.0141667</latitude>
    <longitude>-1.55</longitude>
  </city>
  <city name="Baguéra">
    <latitude>10.5333333</latitude>
    <longitude>-5.4166667</longitude>
  </city>
  <city name="Baguéré">
    <latitude>12.5333333</latitude>
    <longitude>-1.3666667</longitude>
  </city>
  <city name="Baguiomo">
    <latitude>12.0666667</latitude>
    <longitude>-2.55</longitude>
  </city>
  <city name="Bahamaka">
    <latitude>13.5166667</latitude>
    <longitude>-1.6833333</longitude>
  </city>
  <city name="Baham">
    <latitude>13.65</latitude>
    <longitude>0.7</longitude>
  </city>
  <city name="Bahanéré">
    <latitude>12.4</latitude>
    <longitude>-0.25</longitude>
  </city>
  <city name="Bahara">
    <latitude>12.7333333</latitude>
    <longitude>-0.9</longitude>
  </city>
  <city name="Bahiti">
    <latitude>11.85</latitude>
    <longitude>-3.1666667</longitude>
  </city>
  <city name="Bahniaga">
    <latitude>13.1166667</latitude>
    <longitude>-0.1166667</longitude>
  </city>
  <city name="Bahon">
    <latitude>11.4833333</latitude>
    <longitude>-3.7666667</longitude>
  </city>
  <city name="Bahoun">
    <latitude>11.4833333</latitude>
    <longitude>-3.7666667</longitude>
  </city>
  <city name="Baimbaiga">
    <latitude>11.1666667</latitude>
    <longitude>-0.4166667</longitude>
  </city>
  <city name="Baka">
    <latitude>12.25</latitude>
    <longitude>-0.4166667</longitude>
  </city>
  <city name="Bakara">
    <latitude>11.2</latitude>
    <longitude>-3.0166667</longitude>
  </city>
  <city name="Bakaribotégou">
    <latitude>11.05</latitude>
    <longitude>-5.1166667</longitude>
  </city>
  <city name="Bakaribougou">
    <latitude>11.05</latitude>
    <longitude>-5.1166667</longitude>
  </city>
  <city name="Bakaridougou">
    <latitude>11.05</latitude>
    <longitude>-5.1166667</longitude>
  </city>
  <city name="Bakata">
    <latitude>11.7669444</latitude>
    <longitude>-1.8497222</longitude>
  </city>
  <city name="Bakel">
    <latitude>10.5833333</latitude>
    <longitude>-3.2333333</longitude>
  </city>
  <city name="Bakiensom">
    <latitude>12.2991667</latitude>
    <longitude>-1.6125</longitude>
  </city>
  <city name="Bakina">
    <latitude>10.6166667</latitude>
    <longitude>-3.4166667</longitude>
  </city>
  <city name="Baklouté">
    <latitude>13.1666667</latitude>
    <longitude>-0.4</longitude>
  </city>
  <city name="Bako">
    <latitude>12.2833333</latitude>
    <longitude>-0.7166667</longitude>
  </city>
  <city name="Bakogo">
    <latitude>11.6</latitude>
    <longitude>-1.15</longitude>
  </city>
  <city name="Bakono">
    <latitude>10.35</latitude>
    <longitude>-3.1666667</longitude>
  </city>
  <city name="Bakonorisso">
    <latitude>11.8833333</latitude>
    <longitude>-4.2166667</longitude>
  </city>
  <city name="Bakori">
    <latitude>10.3</latitude>
    <longitude>-2.8333333</longitude>
  </city>
  <city name="Bakotinga">
    <latitude>11.0666667</latitude>
    <longitude>-2.7166667</longitude>
  </city>
  <city name="Bakotou">
    <latitude>13.2666667</latitude>
    <longitude>0.5166667</longitude>
  </city>
  <city name="Bakotourou">
    <latitude>11.0833333</latitude>
    <longitude>-2.6333333</longitude>
  </city>
  <city name="Bakouani">
    <latitude>11.1333333</latitude>
    <longitude>-5.2</longitude>
  </city>
  <city name="Bakou">
    <latitude>13.3833333</latitude>
    <longitude>-2.0</longitude>
  </city>
  <city name="Bakoui">
    <latitude>13.0166667</latitude>
    <longitude>-1.6333333</longitude>
  </city>
  <city name="Bakouléna">
    <latitude>10.3333333</latitude>
    <longitude>-3.1</longitude>
  </city>
  <city name="Bakoumba">
    <latitude>12.25</latitude>
    <longitude>-0.65</longitude>
  </city>
  <city name="Bakoun">
    <latitude>9.9666667</latitude>
    <longitude>-2.9</longitude>
  </city>
  <city name="Bakounbila">
    <latitude>12.65</latitude>
    <longitude>-1.25</longitude>
  </city>
  <city name="Bakouté">
    <latitude>10.4166667</latitude>
    <longitude>-4.0166667</longitude>
  </city>
  <city name="Bakouyo">
    <latitude>11.3666667</latitude>
    <longitude>-2.5833333</longitude>
  </city>
  <city name="Bakpara">
    <latitude>10.5666667</latitude>
    <longitude>-3.1666667</longitude>
  </city>
  <city name="Bala">
    <latitude>11.5</latitude>
    <longitude>-4.0833333</longitude>
  </city>
  <city name="Balabéssanko">
    <latitude>12.0833333</latitude>
    <longitude>-0.2833333</longitude>
  </city>
  <city name="Balam">
    <latitude>11.85</latitude>
    <longitude>-2.95</longitude>
  </city>
  <city name="Balambalo">
    <latitude>12.0947222</latitude>
    <longitude>-1.5916667</longitude>
  </city>
  <city name="Balandagou">
    <latitude>13.9333333</latitude>
    <longitude>0.1833333</longitude>
  </city>
  <city name="Balangadi">
    <latitude>10.9666667</latitude>
    <longitude>0.55</longitude>
  </city>
  <city name="Balanti">
    <latitude>10.3666667</latitude>
    <longitude>-3.3333333</longitude>
  </city>
  <city name="Balao">
    <latitude>11.85</latitude>
    <longitude>-2.95</longitude>
  </city>
  <city name="Balavé">
    <latitude>12.3833333</latitude>
    <longitude>-4.15</longitude>
  </city>
  <city name="Balayé">
    <latitude>12.3833333</latitude>
    <longitude>-4.15</longitude>
  </city>
  <city name="Balbara">
    <latitude>10.5666667</latitude>
    <longitude>-2.95</longitude>
  </city>
  <city name="Balbou">
    <latitude>13.3333333</latitude>
    <longitude>-1.2666667</longitude>
  </city>
  <city name="Balé">
    <latitude>13.3333333</latitude>
    <longitude>0.1</longitude>
  </city>
  <city name="Balégogo">
    <latitude>10.1833333</latitude>
    <longitude>-4.0333333</longitude>
  </city>
  <city name="Balèl">
    <latitude>13.7333333</latitude>
    <longitude>-0.2666667</longitude>
  </city>
  <city name="Balel">
    <latitude>10.5833333</latitude>
    <longitude>-3.2333333</longitude>
  </city>
  <city name="Balèmba">
    <latitude>13.0666667</latitude>
    <longitude>0.0</longitude>
  </city>
  <city name="Balèmyouré">
    <latitude>12.1</latitude>
    <longitude>-0.5833333</longitude>
  </city>
  <city name="Balga">
    <latitude>12.2166667</latitude>
    <longitude>0.2</longitude>
  </city>
  <city name="Balingara">
    <latitude>10.2166667</latitude>
    <longitude>-3.15</longitude>
  </city>
  <city name="Baliniar">
    <latitude>10.8</latitude>
    <longitude>-3.2166667</longitude>
  </city>
  <city name="Balinséra">
    <latitude>9.85</latitude>
    <longitude>-3.0166667</longitude>
  </city>
  <city name="Balkoui">
    <latitude>12.2997222</latitude>
    <longitude>-1.4508333</longitude>
  </city>
  <city name="Balkouin">
    <latitude>12.2997222</latitude>
    <longitude>-1.4508333</longitude>
  </city>
  <city name="Balmen">
    <latitude>12.1666667</latitude>
    <longitude>-0.4166667</longitude>
  </city>
  <city name="Balo">
    <latitude>12.5152778</latitude>
    <longitude>-1.9327778</longitude>
  </city>
  <city name="Balogo">
    <latitude>11.4166667</latitude>
    <longitude>-1.5333333</longitude>
  </city>
  <city name="Baloko">
    <latitude>11.15</latitude>
    <longitude>-0.0166667</longitude>
  </city>
  <city name="Balolé">
    <latitude>12.2961111</latitude>
    <longitude>-1.7461111</longitude>
  </city>
  <city name="Balongé">
    <latitude>12.0394444</latitude>
    <longitude>-1.6730556</longitude>
  </city>
  <city name="Balongen">
    <latitude>12.05</latitude>
    <longitude>-1.4972222</longitude>
  </city>
  <city name="Balongodouo">
    <latitude>10.2333333</latitude>
    <longitude>-3.2333333</longitude>
  </city>
  <city name="Balonguen">
    <latitude>12.05</latitude>
    <longitude>-0.2</longitude>
  </city>
  <city name="Balonza">
    <latitude>13.5333333</latitude>
    <longitude>-2.5833333</longitude>
  </city>
  <city name="Baloum">
    <latitude>11.0333333</latitude>
    <longitude>-3.1</longitude>
  </city>
  <city name="Bama">
    <latitude>13.3666667</latitude>
    <longitude>-1.5166667</longitude>
  </city>
  <city name="Bamako">
    <latitude>10.9333333</latitude>
    <longitude>-3.3333333</longitude>
  </city>
  <city name="Bambako">
    <latitude>10.9333333</latitude>
    <longitude>-3.3333333</longitude>
  </city>
  <city name="Bam">
    <latitude>13.3666667</latitude>
    <longitude>-1.5166667</longitude>
  </city>
  <city name="Bambara">
    <latitude>13.3666667</latitude>
    <longitude>-2.7833333</longitude>
  </city>
  <city name="Bambé">
    <latitude>12.0333333</latitude>
    <longitude>-4.6166667</longitude>
  </city>
  <city name="Bambéni">
    <latitude>13.3333333</latitude>
    <longitude>0.4</longitude>
  </city>
  <city name="Bamblé">
    <latitude>13.6666667</latitude>
    <longitude>-0.35</longitude>
  </city>
  <city name="Bambori">
    <latitude>13.45</latitude>
    <longitude>0.5</longitude>
  </city>
  <city name="Bamdékiri">
    <latitude>13.05</latitude>
    <longitude>-0.0666667</longitude>
  </city>
  <city name="Bamena">
    <latitude>9.8166667</latitude>
    <longitude>-2.95</longitude>
  </city>
  <city name="Baména">
    <latitude>10.4666667</latitude>
    <longitude>-3.3166667</longitude>
  </city>
  <city name="Bamga">
    <latitude>13.8833333</latitude>
    <longitude>-0.0833333</longitude>
  </city>
  <city name="Bamgué">
    <latitude>13.6833333</latitude>
    <longitude>-0.2</longitude>
  </city>
  <city name="Bamguèl">
    <latitude>14.2666667</latitude>
    <longitude>-0.8</longitude>
  </city>
  <city name="Bamgueul Ndao">
    <latitude>14.2</latitude>
    <longitude>0.35</longitude>
  </city>
  <city name="Bamguil">
    <latitude>12.45</latitude>
    <longitude>1.7833333</longitude>
  </city>
  <city name="Bamilaré">
    <latitude>13.2166667</latitude>
    <longitude>0.1833333</longitude>
  </city>
  <city name="Bamilari">
    <latitude>13.2166667</latitude>
    <longitude>0.1833333</longitude>
  </city>
  <city name="Bammilari">
    <latitude>13.2166667</latitude>
    <longitude>0.1833333</longitude>
  </city>
  <city name="Bamparou">
    <latitude>13.4833333</latitude>
    <longitude>0.6</longitude>
  </city>
  <city name="Bana">
    <latitude>13.2333333</latitude>
    <longitude>0.75</longitude>
  </city>
  <city name="Banahari">
    <latitude>12.5166667</latitude>
    <longitude>-0.0666667</longitude>
  </city>
  <city name="Banana">
    <latitude>13.3333333</latitude>
    <longitude>-4.05</longitude>
  </city>
  <city name="Bananba">
    <latitude>9.8166667</latitude>
    <longitude>-2.8833333</longitude>
  </city>
  <city name="Banankélédara">
    <latitude>11.3166667</latitude>
    <longitude>-4.3333333</longitude>
  </city>
  <city name="Banankoro">
    <latitude>11.1833333</latitude>
    <longitude>-5.1166667</longitude>
  </city>
  <city name="Banaorodougou">
    <latitude>11.3333333</latitude>
    <longitude>-4.35</longitude>
  </city>
  <city name="Banaouradougou">
    <latitude>11.3333333</latitude>
    <longitude>-4.35</longitude>
  </city>
  <city name="Bana Sokoura">
    <latitude>11.9333333</latitude>
    <longitude>-3.4</longitude>
  </city>
  <city name="Ban">
    <latitude>14.0833333</latitude>
    <longitude>-2.45</longitude>
  </city>
  <city name="Banbéou">
    <latitude>10.6</latitude>
    <longitude>-3.15</longitude>
  </city>
  <city name="Banbigouabri">
    <latitude>13.4</latitude>
    <longitude>-0.15</longitude>
  </city>
  <city name="Banboulo">
    <latitude>10.65</latitude>
    <longitude>-3.1166667</longitude>
  </city>
  <city name="Bandaguéra">
    <latitude>10.1333333</latitude>
    <longitude>-3.5</longitude>
  </city>
  <city name="Bandakélesso">
    <latitude>9.8333333</latitude>
    <longitude>-4.3833333</longitude>
  </city>
  <city name="Bandakoro">
    <latitude>10.4333333</latitude>
    <longitude>-4.2833333</longitude>
  </city>
  <city name="Bandalon">
    <latitude>12.1166667</latitude>
    <longitude>-2.6166667</longitude>
  </city>
  <city name="Banda Napoli">
    <latitude>12.05</latitude>
    <longitude>-2.5166667</longitude>
  </city>
  <city name="Bandania">
    <latitude>13.9333333</latitude>
    <longitude>-0.2333333</longitude>
  </city>
  <city name="Bandatenga">
    <latitude>12.4613889</latitude>
    <longitude>-1.635</longitude>
  </city>
  <city name="Bandatenga Koui">
    <latitude>12.4613889</latitude>
    <longitude>-1.635</longitude>
  </city>
  <city name="Bandé">
    <latitude>11.4833333</latitude>
    <longitude>-3.5333333</longitude>
  </city>
  <city name="Bandéga">
    <latitude>13.2833333</latitude>
    <longitude>-1.1833333</longitude>
  </city>
  <city name="Bandékiri">
    <latitude>13.05</latitude>
    <longitude>-0.0666667</longitude>
  </city>
  <city name="Bandéo-Naponé">
    <latitude>12.05</latitude>
    <longitude>-2.5166667</longitude>
  </city>
  <city name="Bandeo Naporé">
    <latitude>12.05</latitude>
    <longitude>-2.5166667</longitude>
  </city>
  <city name="Bandiédaga">
    <latitude>13.8833333</latitude>
    <longitude>0.25</longitude>
  </city>
  <city name="Bandikirini">
    <latitude>12.7666667</latitude>
    <longitude>0.4</longitude>
  </city>
  <city name="Bandio">
    <latitude>11.6833333</latitude>
    <longitude>-3.2666667</longitude>
  </city>
  <city name="Bandiosi">
    <latitude>13.3166667</latitude>
    <longitude>0.7166667</longitude>
  </city>
  <city name="Bandoué">
    <latitude>12.0333333</latitude>
    <longitude>-3.05</longitude>
  </city>
  <city name="Bandougou">
    <latitude>10.9666667</latitude>
    <longitude>-4.8666667</longitude>
  </city>
  <city name="Bané">
    <latitude>11.15</latitude>
    <longitude>-0.5</longitude>
  </city>
  <city name="Banébira">
    <latitude>10.4666667</latitude>
    <longitude>-3.5333333</longitude>
  </city>
  <city name="Banéga">
    <latitude>11.7</latitude>
    <longitude>-2.6</longitude>
  </city>
  <city name="Banemba">
    <latitude>9.8166667</latitude>
    <longitude>-2.8833333</longitude>
  </city>
  <city name="Banfaré">
    <latitude>10.95</latitude>
    <longitude>-2.9833333</longitude>
  </city>
  <city name="Banfora">
    <latitude>10.6333333</latitude>
    <longitude>-4.7666667</longitude>
  </city>
  <city name="Banfoulagué">
    <latitude>11.15</latitude>
    <longitude>-4.7333333</longitude>
  </city>
  <city name="Banfoutagué">
    <latitude>11.15</latitude>
    <longitude>-4.7333333</longitude>
  </city>
  <city name="Bangaba">
    <latitude>13.3666667</latitude>
    <longitude>0.3166667</longitude>
  </city>
  <city name="Bangabakha">
    <latitude>13.9833333</latitude>
    <longitude>-0.4</longitude>
  </city>
  <city name="Banga">
    <latitude>13.2</latitude>
    <longitude>0.8333333</longitude>
  </city>
  <city name="Bangala">
    <latitude>13.9333333</latitude>
    <longitude>-2.2666667</longitude>
  </city>
  <city name="Bangaré">
    <latitude>12.85</latitude>
    <longitude>-0.35</longitude>
  </city>
  <city name="Bangasoko">
    <latitude>13.3166667</latitude>
    <longitude>-2.9</longitude>
  </city>
  <city name="Bangassago">
    <latitude>13.3166667</latitude>
    <longitude>-2.9</longitude>
  </city>
  <city name="Bangassé">
    <latitude>13.2</latitude>
    <longitude>-1.0833333</longitude>
  </city>
  <city name="Bangassi">
    <latitude>12.7666667</latitude>
    <longitude>-4.1833333</longitude>
  </city>
  <city name="Bangassoko">
    <latitude>13.3166667</latitude>
    <longitude>-2.9</longitude>
  </city>
  <city name="Bangataka">
    <latitude>13.9833333</latitude>
    <longitude>-0.4</longitude>
  </city>
  <city name="Bangay">
    <latitude>13.0166667</latitude>
    <longitude>-0.3</longitude>
  </city>
  <city name="Bangèl">
    <latitude>13.2666667</latitude>
    <longitude>0.4166667</longitude>
  </city>
  <city name="Bangnésomé">
    <latitude>12.05</latitude>
    <longitude>-1.95</longitude>
  </city>
  <city name="Bango">
    <latitude>13.3166667</latitude>
    <longitude>-1.5333333</longitude>
  </city>
  <city name="Bango Mossi">
    <latitude>13.65</latitude>
    <longitude>-2.5333333</longitude>
  </city>
  <city name="Bangozougou">
    <latitude>12.1666667</latitude>
    <longitude>-2.4333333</longitude>
  </city>
  <city name="Bangré">
    <latitude>12.1538889</latitude>
    <longitude>-1.3283333</longitude>
  </city>
  <city name="Bangrézanga">
    <latitude>12.25</latitude>
    <longitude>-0.8166667</longitude>
  </city>
  <city name="Banguéma">
    <latitude>12.1605556</latitude>
    <longitude>-1.6222222</longitude>
  </city>
  <city name="Banguèmsom">
    <latitude>12.45</latitude>
    <longitude>-1.8166667</longitude>
  </city>
  <city name="Banguessommba">
    <latitude>13.1333333</latitude>
    <longitude>-2.2</longitude>
  </city>
  <city name="Banguiou">
    <latitude>11.6833333</latitude>
    <longitude>-3.1666667</longitude>
  </city>
  <city name="Banguissamé">
    <latitude>11.7666667</latitude>
    <longitude>-1.1666667</longitude>
  </city>
  <city name="Banhassi">
    <latitude>13.1666667</latitude>
    <longitude>-3.2833333</longitude>
  </city>
  <city name="Banh">
    <latitude>14.0833333</latitude>
    <longitude>-2.45</longitude>
  </city>
  <city name="Banhié">
    <latitude>10.2666667</latitude>
    <longitude>-2.8833333</longitude>
  </city>
  <city name="Banhounou">
    <latitude>10.2666667</latitude>
    <longitude>-3.9333333</longitude>
  </city>
  <city name="Baniaba">
    <latitude>13.3666667</latitude>
    <longitude>0.7</longitude>
  </city>
  <city name="Baniara">
    <latitude>10.2</latitude>
    <longitude>-3.15</longitude>
  </city>
  <city name="Bani">
    <latitude>13.65</latitude>
    <longitude>-1.5</longitude>
  </city>
  <city name="Banidjoari">
    <latitude>13.4</latitude>
    <longitude>-0.15</longitude>
  </city>
  <city name="Banika">
    <latitude>13.5166667</latitude>
    <longitude>0.4</longitude>
  </city>
  <city name="Baniotenga">
    <latitude>12.8666667</latitude>
    <longitude>-2.7166667</longitude>
  </city>
  <city name="Baniou">
    <latitude>13.0</latitude>
    <longitude>-2.15</longitude>
  </city>
  <city name="Banipoulé">
    <latitude>10.5833333</latitude>
    <longitude>-2.9666667</longitude>
  </city>
  <city name="Baniri">
    <latitude>11.2166667</latitude>
    <longitude>-3.3666667</longitude>
  </city>
  <city name="Banizoumbou">
    <latitude>13.3419444</latitude>
    <longitude>1.1380556</longitude>
  </city>
  <city name="Bankandi">
    <latitude>11.25</latitude>
    <longitude>-3.0666667</longitude>
  </city>
  <city name="Bankatatougou">
    <latitude>12.2833333</latitude>
    <longitude>1.0666667</longitude>
  </city>
  <city name="Bankoni">
    <latitude>11.6333333</latitude>
    <longitude>-3.7</longitude>
  </city>
  <city name="Bankoré">
    <latitude>12.1083333</latitude>
    <longitude>-1.475</longitude>
  </city>
  <city name="Bankorosso Gamadou">
    <latitude>12.3166667</latitude>
    <longitude>-3.1</longitude>
  </city>
  <city name="Bankouma">
    <latitude>11.8833333</latitude>
    <longitude>-4.2666667</longitude>
  </city>
  <city name="Bankouman">
    <latitude>11.9166667</latitude>
    <longitude>-3.5666667</longitude>
  </city>
  <city name="Bankoumani">
    <latitude>12.6166667</latitude>
    <longitude>-3.9166667</longitude>
  </city>
  <city name="Bankoura">
    <latitude>10.1666667</latitude>
    <longitude>-3.15</longitude>
  </city>
  <city name="Bankui">
    <latitude>12.6166667</latitude>
    <longitude>-3.5666667</longitude>
  </city>
  <city name="Banlioura">
    <latitude>11.1833333</latitude>
    <longitude>-2.1666667</longitude>
  </city>
  <city name="Banlo">
    <latitude>10.5833333</latitude>
    <longitude>-3.2333333</longitude>
  </city>
  <city name="Banmbé">
    <latitude>12.0333333</latitude>
    <longitude>-4.6166667</longitude>
  </city>
  <city name="Banmbili">
    <latitude>12.9666667</latitude>
    <longitude>0.3</longitude>
  </city>
  <city name="Banmwanou">
    <latitude>12.3</latitude>
    <longitude>0.7333333</longitude>
  </city>
  <city name="Bannho">
    <latitude>13.0666667</latitude>
    <longitude>0.0333333</longitude>
  </city>
  <city name="Bannogo">
    <latitude>10.6</latitude>
    <longitude>-4.15</longitude>
  </city>
  <city name="Bannsyaga">
    <latitude>13.0166667</latitude>
    <longitude>0.5</longitude>
  </city>
  <city name="Banogo">
    <latitude>12.3038889</latitude>
    <longitude>-1.5083333</longitude>
  </city>
  <city name="Banon">
    <latitude>11.1833333</latitude>
    <longitude>-1.1</longitude>
  </city>
  <city name="Banoualé">
    <latitude>11.7666667</latitude>
    <longitude>-4.2</longitude>
  </city>
  <city name="Banouban">
    <latitude>12.3166667</latitude>
    <longitude>-3.0333333</longitude>
  </city>
  <city name="Banou">
    <latitude>11.75</latitude>
    <longitude>-3.25</longitude>
  </city>
  <city name="Banouila">
    <latitude>12.9166667</latitude>
    <longitude>-0.9</longitude>
  </city>
  <city name="Banoumba">
    <latitude>12.3166667</latitude>
    <longitude>-3.0333333</longitude>
  </city>
  <city name="Banounou">
    <latitude>12.8166667</latitude>
    <longitude>-2.0333333</longitude>
  </city>
  <city name="Banpolé">
    <latitude>13.35</latitude>
    <longitude>-0.5666667</longitude>
  </city>
  <city name="Banpon">
    <latitude>10.5333333</latitude>
    <longitude>-2.9666667</longitude>
  </city>
  <city name="Banpourounga">
    <latitude>13.4666667</latitude>
    <longitude>-0.15</longitude>
  </city>
  <city name="Bansigui">
    <latitude>13.25</latitude>
    <longitude>-0.6833333</longitude>
  </city>
  <city name="Banta">
    <latitude>9.9833333</latitude>
    <longitude>-3.5333333</longitude>
  </city>
  <city name="Bantogodo">
    <latitude>12.4333333</latitude>
    <longitude>-1.95</longitude>
  </city>
  <city name="Bantolé">
    <latitude>12.4833333</latitude>
    <longitude>-2.4166667</longitude>
  </city>
  <city name="Bantouani">
    <latitude>12.5333333</latitude>
    <longitude>1.5333333</longitude>
  </city>
  <city name="Bantougdo">
    <latitude>12.4333333</latitude>
    <longitude>-1.95</longitude>
  </city>
  <city name="Banvar">
    <latitude>10.95</latitude>
    <longitude>-2.9833333</longitude>
  </city>
  <city name="Banzani">
    <latitude>11.4</latitude>
    <longitude>-5.2333333</longitude>
  </city>
  <city name="Banzo">
    <latitude>11.3166667</latitude>
    <longitude>-4.8</longitude>
  </city>
  <city name="Bao">
    <latitude>13.0</latitude>
    <longitude>-3.2166667</longitude>
  </city>
  <city name="Baodogo">
    <latitude>13.6166667</latitude>
    <longitude>-2.5</longitude>
  </city>
  <city name="Baoguen">
    <latitude>12.2383333</latitude>
    <longitude>-1.6933333</longitude>
  </city>
  <city name="Baola">
    <latitude>13.7333333</latitude>
    <longitude>-0.7</longitude>
  </city>
  <city name="Baongué">
    <latitude>13.7666667</latitude>
    <longitude>-1.7166667</longitude>
  </city>
  <city name="Baonoré">
    <latitude>12.3116667</latitude>
    <longitude>-1.6111111</longitude>
  </city>
  <city name="Baoudoumboin">
    <latitude>13.05</latitude>
    <longitude>-2.6333333</longitude>
  </city>
  <city name="Baouèné">
    <latitude>14.0333333</latitude>
    <longitude>-2.4166667</longitude>
  </city>
  <city name="Baougen">
    <latitude>12.3166667</latitude>
    <longitude>-2.1666667</longitude>
  </city>
  <city name="Baougou Poré">
    <latitude>13.9666667</latitude>
    <longitude>-0.45</longitude>
  </city>
  <city name="Baouiga">
    <latitude>11.6166667</latitude>
    <longitude>-1.65</longitude>
  </city>
  <city name="Bapla">
    <latitude>10.8666667</latitude>
    <longitude>-3.2666667</longitude>
  </city>
  <city name="Bara">
    <latitude>13.2333333</latitude>
    <longitude>0.75</longitude>
  </city>
  <city name="Baraboulé">
    <latitude>14.2080556</latitude>
    <longitude>-1.8580556</longitude>
  </city>
  <city name="Barabule">
    <latitude>14.2080556</latitude>
    <longitude>-1.8580556</longitude>
  </city>
  <city name="Baradogo">
    <latitude>12.3</latitude>
    <longitude>-1.8</longitude>
  </city>
  <city name="Barakpéré">
    <latitude>10.4333333</latitude>
    <longitude>-3.1833333</longitude>
  </city>
  <city name="Barakui">
    <latitude>12.55</latitude>
    <longitude>-3.6166667</longitude>
  </city>
  <city name="Barakyemdé Bangari">
    <latitude>13.6666667</latitude>
    <longitude>-0.8</longitude>
  </city>
  <city name="Barakyengo">
    <latitude>13.4333333</latitude>
    <longitude>0.9</longitude>
  </city>
  <city name="Baralé">
    <latitude>12.8833333</latitude>
    <longitude>-1.05</longitude>
  </city>
  <city name="Baraléongo">
    <latitude>11.9833333</latitude>
    <longitude>-1.4833333</longitude>
  </city>
  <city name="Baraliyiri">
    <latitude>12.0166667</latitude>
    <longitude>-1.8333333</longitude>
  </city>
  <city name="Baramini">
    <latitude>12.0141667</latitude>
    <longitude>-1.55</longitude>
  </city>
  <city name="Baramiougou">
    <latitude>13.55</latitude>
    <longitude>-1.0666667</longitude>
  </city>
  <city name="Barana">
    <latitude>12.0536111</latitude>
    <longitude>-1.64</longitude>
  </city>
  <city name="Barané">
    <latitude>12.1538889</latitude>
    <longitude>-1.3283333</longitude>
  </city>
  <city name="Barani">
    <latitude>13.1666667</latitude>
    <longitude>-3.8833333</longitude>
  </city>
  <city name="Barao">
    <latitude>13.9</latitude>
    <longitude>-0.6666667</longitude>
  </city>
  <city name="Baraptenga">
    <latitude>12.8</latitude>
    <longitude>-0.6666667</longitude>
  </city>
  <city name="Barbé">
    <latitude>12.55</latitude>
    <longitude>-1.4666667</longitude>
  </city>
  <city name="Baré">
    <latitude>11.0833333</latitude>
    <longitude>-4.1</longitude>
  </city>
  <city name="Baren">
    <latitude>12.6</latitude>
    <longitude>-0.3833333</longitude>
  </city>
  <city name="Barga">
    <latitude>13.6166667</latitude>
    <longitude>-0.7333333</longitude>
  </city>
  <city name="Bargabouga">
    <latitude>13.65</latitude>
    <longitude>0.6666667</longitude>
  </city>
  <city name="Bargaré">
    <latitude>13.8833333</latitude>
    <longitude>-0.15</longitude>
  </city>
  <city name="Barglinsé">
    <latitude>11.1666667</latitude>
    <longitude>-0.5166667</longitude>
  </city>
  <city name="Bargo">
    <latitude>13.4166667</latitude>
    <longitude>-1.5</longitude>
  </city>
  <city name="Bariba">
    <latitude>12.4833333</latitude>
    <longitude>-2.05</longitude>
  </city>
  <city name="Bari">
    <latitude>12.2833333</latitude>
    <longitude>1.4666667</longitude>
  </city>
  <city name="Bariboi">
    <latitude>12.4833333</latitude>
    <longitude>-2.05</longitude>
  </city>
  <city name="Baribsi">
    <latitude>13.3333333</latitude>
    <longitude>-1.7166667</longitude>
  </city>
  <city name="Bariéra">
    <latitude>10.4833333</latitude>
    <longitude>-3.1</longitude>
  </city>
  <city name="Barihiri">
    <latitude>12.55</latitude>
    <longitude>-1.4666667</longitude>
  </city>
  <city name="Baringira">
    <latitude>10.4333333</latitude>
    <longitude>-3.0166667</longitude>
  </city>
  <city name="Baringuira">
    <latitude>10.4333333</latitude>
    <longitude>-3.0166667</longitude>
  </city>
  <city name="Barkana">
    <latitude>13.6333333</latitude>
    <longitude>-1.7</longitude>
  </city>
  <city name="Barkéa">
    <latitude>14.0333333</latitude>
    <longitude>-0.1666667</longitude>
  </city>
  <city name="Barkoui">
    <latitude>12.55</latitude>
    <longitude>-3.6166667</longitude>
  </city>
  <city name="Barkoundouba">
    <latitude>12.6683333</latitude>
    <longitude>-1.2338889</longitude>
  </city>
  <city name="Barkoura">
    <latitude>10.3833333</latitude>
    <longitude>-3.35</longitude>
  </city>
  <city name="Barkuy">
    <latitude>12.55</latitude>
    <longitude>-3.6166667</longitude>
  </city>
  <city name="Barkwitenga">
    <latitude>12.6330556</latitude>
    <longitude>-1.3166667</longitude>
  </city>
  <city name="Barla">
    <latitude>12.6833333</latitude>
    <longitude>-2.5166667</longitude>
  </city>
  <city name="Barlara">
    <latitude>13.3</latitude>
    <longitude>-0.85</longitude>
  </city>
  <city name="Barlé">
    <latitude>13.3</latitude>
    <longitude>-1.7166667</longitude>
  </city>
  <city name="Barma">
    <latitude>12.4941667</latitude>
    <longitude>-1.7388889</longitude>
  </city>
  <city name="Barnoro">
    <latitude>12.25</latitude>
    <longitude>-0.1166667</longitude>
  </city>
  <city name="Baro">
    <latitude>10.5166667</latitude>
    <longitude>-3.2333333</longitude>
  </city>
  <city name="Barogo">
    <latitude>12.4172222</latitude>
    <longitude>-1.4044444</longitude>
  </city>
  <city name="Barolé">
    <latitude>12.6144444</latitude>
    <longitude>-1.3491667</longitude>
  </city>
  <city name="Barsa">
    <latitude>13.1</latitude>
    <longitude>-1.6333333</longitude>
  </city>
  <city name="Barsabologo">
    <latitude>13.1</latitude>
    <longitude>-1.8833333</longitude>
  </city>
  <city name="Barsalgo">
    <latitude>13.4138889</latitude>
    <longitude>-1.0558333</longitude>
  </city>
  <city name="Barsalogho">
    <latitude>13.4138889</latitude>
    <longitude>-1.0558333</longitude>
  </city>
  <city name="Barsalogo">
    <latitude>13.4138889</latitude>
    <longitude>-1.0558333</longitude>
  </city>
  <city name="Barssé">
    <latitude>11.6166667</latitude>
    <longitude>-1.2666667</longitude>
  </city>
  <city name="Bartenga">
    <latitude>12.7833333</latitude>
    <longitude>-1.3833333</longitude>
  </city>
  <city name="Bartera">
    <latitude>10.2833333</latitude>
    <longitude>-3.4333333</longitude>
  </city>
  <city name="Bartibogou">
    <latitude>12.8833333</latitude>
    <longitude>0.8</longitude>
  </city>
  <city name="Bartibogu">
    <latitude>12.8833333</latitude>
    <longitude>0.8</longitude>
  </city>
  <city name="Bartibougou">
    <latitude>12.8666667</latitude>
    <longitude>0.8</longitude>
  </city>
  <city name="Bartorogo">
    <latitude>11.8666667</latitude>
    <longitude>-1.5166667</longitude>
  </city>
  <city name="Bartyaga">
    <latitude>12.4166667</latitude>
    <longitude>1.75</longitude>
  </city>
  <city name="Baryou">
    <latitude>12.2333333</latitude>
    <longitude>-0.4333333</longitude>
  </city>
  <city name="Basabéga">
    <latitude>12.2166667</latitude>
    <longitude>0.1333333</longitude>
  </city>
  <city name="Basambougou">
    <latitude>12.2666667</latitude>
    <longitude>0.1</longitude>
  </city>
  <city name="Basanam">
    <latitude>12.85</latitude>
    <longitude>-2.8</longitude>
  </city>
  <city name="Basantenga">
    <latitude>12.85</latitude>
    <longitude>-2.55</longitude>
  </city>
  <city name="Basbèdo">
    <latitude>12.7666667</latitude>
    <longitude>-2.3333333</longitude>
  </city>
  <city name="Basbédo">
    <latitude>11.55</latitude>
    <longitude>-1.0166667</longitude>
  </city>
  <city name="Basbyédo">
    <latitude>12.6166667</latitude>
    <longitude>-1.15</longitude>
  </city>
  <city name="Basci">
    <latitude>13.3333333</latitude>
    <longitude>-2.2333333</longitude>
  </city>
  <city name="Basémyan">
    <latitude>12.2077778</latitude>
    <longitude>-1.5391667</longitude>
  </city>
  <city name="Basémy">
    <latitude>12.2077778</latitude>
    <longitude>-1.5391667</longitude>
  </city>
  <city name="Basèotenga">
    <latitude>12.8833333</latitude>
    <longitude>-2.75</longitude>
  </city>
  <city name="Basgana">
    <latitude>11.6166667</latitude>
    <longitude>-1.1</longitude>
  </city>
  <city name="Basibedo">
    <latitude>11.7333333</latitude>
    <longitude>-0.1666667</longitude>
  </city>
  <city name="Basiéi">
    <latitude>12.8666667</latitude>
    <longitude>0.35</longitude>
  </city>
  <city name="Basinènè">
    <latitude>12.8166667</latitude>
    <longitude>-2.7833333</longitude>
  </city>
  <city name="Basinga">
    <latitude>12.6</latitude>
    <longitude>-2.4166667</longitude>
  </city>
  <city name="Baskondo">
    <latitude>13.4333333</latitude>
    <longitude>-1.3166667</longitude>
  </city>
  <city name="Baskorma">
    <latitude>13.1666667</latitude>
    <longitude>-2.2166667</longitude>
  </city>
  <city name="Baskouda">
    <latitude>13.3166667</latitude>
    <longitude>-1.9333333</longitude>
  </city>
  <city name="Baskoudré">
    <latitude>12.2519444</latitude>
    <longitude>-1.5325</longitude>
  </city>
  <city name="Baskounda">
    <latitude>13.1333333</latitude>
    <longitude>-1.35</longitude>
  </city>
  <city name="Baskouré">
    <latitude>12.2166667</latitude>
    <longitude>-0.3166667</longitude>
  </city>
  <city name="Basma">
    <latitude>12.8833333</latitude>
    <longitude>-1.55</longitude>
  </city>
  <city name="Basnéré">
    <latitude>13.1333333</latitude>
    <longitude>-1.4166667</longitude>
  </city>
  <city name="Basora">
    <latitude>11.7166667</latitude>
    <longitude>-4.0833333</longitude>
  </city>
  <city name="Bassana">
    <latitude>11.9166667</latitude>
    <longitude>-3.3333333</longitude>
  </city>
  <city name="Bassan">
    <latitude>11.3</latitude>
    <longitude>-1.4</longitude>
  </city>
  <city name="Bassanga">
    <latitude>13.55</latitude>
    <longitude>-2.1</longitude>
  </city>
  <city name="Bassangoro">
    <latitude>10.4</latitude>
    <longitude>-5.3333333</longitude>
  </city>
  <city name="Bassawarga">
    <latitude>11.7166667</latitude>
    <longitude>-1.7</longitude>
  </city>
  <city name="Bassawassa">
    <latitude>13.6333333</latitude>
    <longitude>-2.5</longitude>
  </city>
  <city name="Bassé">
    <latitude>13.7166667</latitude>
    <longitude>-1.65</longitude>
  </city>
  <city name="Bassébétanga">
    <latitude>13.0333333</latitude>
    <longitude>-2.7166667</longitude>
  </city>
  <city name="Basséko">
    <latitude>12.3863889</latitude>
    <longitude>-1.6330556</longitude>
  </city>
  <city name="Basséloko">
    <latitude>11.5166667</latitude>
    <longitude>-0.95</longitude>
  </city>
  <city name="Bassema">
    <latitude>13.25</latitude>
    <longitude>-1.0833333</longitude>
  </city>
  <city name="Bassénéré">
    <latitude>13.65</latitude>
    <longitude>-2.3166667</longitude>
  </city>
  <city name="Basséra">
    <latitude>10.7666667</latitude>
    <longitude>-3.4166667</longitude>
  </city>
  <city name="Bassia">
    <latitude>13.6</latitude>
    <longitude>-0.8166667</longitude>
  </city>
  <city name="Bassiam">
    <latitude>12.2077778</latitude>
    <longitude>-1.5391667</longitude>
  </city>
  <city name="Bassi">
    <latitude>13.3333333</latitude>
    <longitude>-2.2333333</longitude>
  </city>
  <city name="Bassibédo">
    <latitude>11.7333333</latitude>
    <longitude>-0.1666667</longitude>
  </city>
  <city name="Bassinan">
    <latitude>13.1833333</latitude>
    <longitude>-2.3833333</longitude>
  </city>
  <city name="Bassinsa">
    <latitude>11.1833333</latitude>
    <longitude>-2.2833333</longitude>
  </city>
  <city name="Bassiri">
    <latitude>12.8666667</latitude>
    <longitude>0.35</longitude>
  </city>
  <city name="Bassiyam">
    <latitude>12.2077778</latitude>
    <longitude>-1.5391667</longitude>
  </city>
  <city name="Bassomen">
    <latitude>12.485</latitude>
    <longitude>-1.2961111</longitude>
  </city>
  <city name="Bassomkoukouri">
    <latitude>12.6333333</latitude>
    <longitude>-0.6333333</longitude>
  </city>
  <city name="Basson">
    <latitude>11.8833333</latitude>
    <longitude>-3.3333333</longitude>
  </city>
  <city name="Basszéïdo">
    <latitude>13.3</latitude>
    <longitude>-2.3833333</longitude>
  </city>
  <city name="Bastioua">
    <latitude>12.7333333</latitude>
    <longitude>-2.5166667</longitude>
  </city>
  <city name="Basziri">
    <latitude>12.1997222</latitude>
    <longitude>-1.8636111</longitude>
  </city>
  <city name="Batabogou">
    <latitude>13.6333333</latitude>
    <longitude>0.2833333</longitude>
  </city>
  <city name="Batagné">
    <latitude>12.5166667</latitude>
    <longitude>1.7333333</longitude>
  </city>
  <city name="Batakolo">
    <latitude>12.15</latitude>
    <longitude>-2.5666667</longitude>
  </city>
  <city name="Batanga">
    <latitude>13.4666667</latitude>
    <longitude>-1.5166667</longitude>
  </city>
  <city name="Batenga">
    <latitude>12.6666667</latitude>
    <longitude>-1.0666667</longitude>
  </city>
  <city name="Batiara">
    <latitude>11.2</latitude>
    <longitude>-2.9666667</longitude>
  </city>
  <city name="Batibogou">
    <latitude>13.0333333</latitude>
    <longitude>0.8333333</longitude>
  </city>
  <city name="Batié">
    <latitude>9.8833333</latitude>
    <longitude>-2.9166667</longitude>
  </city>
  <city name="Batié Blé">
    <latitude>10.3333333</latitude>
    <longitude>-2.95</longitude>
  </city>
  <city name="Batiélé">
    <latitude>11.1166667</latitude>
    <longitude>-3.1666667</longitude>
  </city>
  <city name="Batiéni">
    <latitude>11.3666667</latitude>
    <longitude>-3.25</longitude>
  </city>
  <city name="Batié Nord">
    <latitude>10.4</latitude>
    <longitude>-2.8833333</longitude>
  </city>
  <city name="Bâtinga">
    <latitude>11.9</latitude>
    <longitude>-1.45</longitude>
  </city>
  <city name="Batiti">
    <latitude>11.85</latitude>
    <longitude>-3.1666667</longitude>
  </city>
  <city name="Batiyiri">
    <latitude>12.05</latitude>
    <longitude>-2.1833333</longitude>
  </city>
  <city name="Bato">
    <latitude>11.7666667</latitude>
    <longitude>-2.2833333</longitude>
  </city>
  <city name="Batondo">
    <latitude>12.1166667</latitude>
    <longitude>-2.5833333</longitude>
  </city>
  <city name="Batono">
    <latitude>12.7333333</latitude>
    <longitude>-2.4166667</longitude>
  </city>
  <city name="Battili">
    <latitude>11.85</latitude>
    <longitude>-3.1666667</longitude>
  </city>
  <city name="Batyèmina">
    <latitude>13.1333333</latitude>
    <longitude>0.3333333</longitude>
  </city>
  <city name="Bauiga">
    <latitude>11.6166667</latitude>
    <longitude>-1.65</longitude>
  </city>
  <city name="Baviguékaha">
    <latitude>10.4333333</latitude>
    <longitude>-5.3</longitude>
  </city>
  <city name="Bavilè">
    <latitude>12.1</latitude>
    <longitude>-2.6833333</longitude>
  </city>
  <city name="Bawango">
    <latitude>12.9333333</latitude>
    <longitude>-0.65</longitude>
  </city>
  <city name="Bayalo">
    <latitude>12.3666667</latitude>
    <longitude>-2.5166667</longitude>
  </city>
  <city name="Bayalongo">
    <latitude>12.8</latitude>
    <longitude>-2.3666667</longitude>
  </city>
  <city name="Ba Yangasso">
    <latitude>12.0333333</latitude>
    <longitude>-3.2833333</longitude>
  </city>
  <city name="Bayé">
    <latitude>12.0666667</latitude>
    <longitude>-4.0833333</longitude>
  </city>
  <city name="Bayeldo">
    <latitude>9.7666667</latitude>
    <longitude>-3.0333333</longitude>
  </city>
  <city name="Bayendé Foulgo">
    <latitude>13.4166667</latitude>
    <longitude>-1.4833333</longitude>
  </city>
  <city name="Bayiri">
    <latitude>12.0166667</latitude>
    <longitude>-1.8833333</longitude>
  </city>
  <city name="Bazan">
    <latitude>12.2666667</latitude>
    <longitude>-2.0666667</longitude>
  </city>
  <city name="Bazanfaré">
    <latitude>11.4</latitude>
    <longitude>-1.95</longitude>
  </city>
  <city name="Bazanforé">
    <latitude>11.4</latitude>
    <longitude>-1.95</longitude>
  </city>
  <city name="Bazanwara">
    <latitude>11.4</latitude>
    <longitude>-1.95</longitude>
  </city>
  <city name="Bazilakoa">
    <latitude>11.8</latitude>
    <longitude>-2.1333333</longitude>
  </city>
  <city name="Bazoulé">
    <latitude>12.3166667</latitude>
    <longitude>-1.7077778</longitude>
  </city>
  <city name="Béanna">
    <latitude>11.8</latitude>
    <longitude>-0.0833333</longitude>
  </city>
  <city name="Bébatenga">
    <latitude>12.1380556</latitude>
    <longitude>-1.3197222</longitude>
  </city>
  <city name="Bebda">
    <latitude>9.9666667</latitude>
    <longitude>-3.05</longitude>
  </city>
  <city name="Bébéré">
    <latitude>13.4333333</latitude>
    <longitude>-1.1</longitude>
  </city>
  <city name="Béboula">
    <latitude>9.9333333</latitude>
    <longitude>-3.1</longitude>
  </city>
  <city name="Bèbtenga">
    <latitude>12.1380556</latitude>
    <longitude>-1.3197222</longitude>
  </city>
  <city name="Béchikopérou">
    <latitude>12.45</latitude>
    <longitude>-2.7166667</longitude>
  </city>
  <city name="Bédari">
    <latitude>11.3</latitude>
    <longitude>-1.2833333</longitude>
  </city>
  <city name="Bédougou">
    <latitude>10.4666667</latitude>
    <longitude>-5.45</longitude>
  </city>
  <city name="Bédyamé">
    <latitude>12.2166667</latitude>
    <longitude>-0.8666667</longitude>
  </city>
  <city name="Bèfasin">
    <latitude>13.7333333</latitude>
    <longitude>0.3166667</longitude>
  </city>
  <city name="Bèfassi">
    <latitude>13.0833333</latitude>
    <longitude>0.2666667</longitude>
  </city>
  <city name="Béfoara">
    <latitude>12.9166667</latitude>
    <longitude>-0.05</longitude>
  </city>
  <city name="Béga">
    <latitude>11.06</latitude>
    <longitude>-1.8213889</longitude>
  </city>
  <city name="Begeuntiga">
    <latitude>13.1166667</latitude>
    <longitude>-1.4166667</longitude>
  </city>
  <city name="Bégouabéna">
    <latitude>11.8</latitude>
    <longitude>-0.3833333</longitude>
  </city>
  <city name="Béguédo">
    <latitude>11.7808333</latitude>
    <longitude>-0.7338889</longitude>
  </city>
  <city name="Béguèmtigué">
    <latitude>14.0666667</latitude>
    <longitude>-2.2</longitude>
  </city>
  <city name="Béguentigué">
    <latitude>12.4666667</latitude>
    <longitude>-1.5497222</longitude>
  </city>
  <city name="Bégueumdré">
    <latitude>13.3166667</latitude>
    <longitude>-1.35</longitude>
  </city>
  <city name="Béguintigui">
    <latitude>14.0</latitude>
    <longitude>-0.0833333</longitude>
  </city>
  <city name="Bèiga">
    <latitude>14.5666667</latitude>
    <longitude>-0.15</longitude>
  </city>
  <city name="Béka">
    <latitude>11.1911111</latitude>
    <longitude>-0.5877778</longitude>
  </city>
  <city name="Béko">
    <latitude>12.7166667</latitude>
    <longitude>-0.4</longitude>
  </city>
  <city name="Békoura">
    <latitude>10.3166667</latitude>
    <longitude>-3.5166667</longitude>
  </city>
  <city name="Békui">
    <latitude>12.1333333</latitude>
    <longitude>-3.65</longitude>
  </city>
  <city name="Békuy">
    <latitude>11.6333333</latitude>
    <longitude>-3.8833333</longitude>
  </city>
  <city name="Béla">
    <latitude>12.5833333</latitude>
    <longitude>-2.0333333</longitude>
  </city>
  <city name="Bélagaré">
    <latitude>12.0361111</latitude>
    <longitude>-1.3736111</longitude>
  </city>
  <city name="Bélaherla">
    <latitude>11.1166667</latitude>
    <longitude>-0.3666667</longitude>
  </city>
  <city name="Bélarkaré">
    <latitude>10.7166667</latitude>
    <longitude>-2.9666667</longitude>
  </city>
  <city name="Bélé">
    <latitude>12.8333333</latitude>
    <longitude>-1.6333333</longitude>
  </city>
  <city name="Bélégré">
    <latitude>12.0361111</latitude>
    <longitude>-1.3736111</longitude>
  </city>
  <city name="Béléguenga">
    <latitude>13.85</latitude>
    <longitude>-1.1166667</longitude>
  </city>
  <city name="Béléhédé">
    <latitude>14.0833333</latitude>
    <longitude>-1.2833333</longitude>
  </city>
  <city name="Bélékédé">
    <latitude>14.0833333</latitude>
    <longitude>-1.2833333</longitude>
  </city>
  <city name="Bélèl">
    <latitude>14.3666667</latitude>
    <longitude>-0.3833333</longitude>
  </city>
  <city name="Bèlèl">
    <latitude>12.4166667</latitude>
    <longitude>1.5166667</longitude>
  </city>
  <city name="Bélembaoguen">
    <latitude>12.1333333</latitude>
    <longitude>-0.0666667</longitude>
  </city>
  <city name="Bélèmbouliguen">
    <latitude>12.15</latitude>
    <longitude>-0.0666667</longitude>
  </city>
  <city name="Belga">
    <latitude>12.8833333</latitude>
    <longitude>-0.4833333</longitude>
  </city>
  <city name="Bèlgo">
    <latitude>13.75</latitude>
    <longitude>-0.5666667</longitude>
  </city>
  <city name="Bélgou">
    <latitude>14.3</latitude>
    <longitude>0.1333333</longitude>
  </city>
  <city name="Bélinga">
    <latitude>13.4166667</latitude>
    <longitude>-2.3666667</longitude>
  </city>
  <city name="Bélinkora">
    <latitude>10.4333333</latitude>
    <longitude>-3.25</longitude>
  </city>
  <city name="Béllapoum">
    <latitude>12.6666667</latitude>
    <longitude>-2.5166667</longitude>
  </city>
  <city name="Bellara">
    <latitude>12.8833333</latitude>
    <longitude>-0.4833333</longitude>
  </city>
  <city name="Bèllaré">
    <latitude>13.9666667</latitude>
    <longitude>0.0166667</longitude>
  </city>
  <city name="Bellaré Maga">
    <latitude>13.9666667</latitude>
    <longitude>-0.0166667</longitude>
  </city>
  <city name="Bellaré Malbo">
    <latitude>13.8833333</latitude>
    <longitude>-0.1833333</longitude>
  </city>
  <city name="Bélo">
    <latitude>12.5152778</latitude>
    <longitude>-1.9327778</longitude>
  </city>
  <city name="Bélogo">
    <latitude>13.75</latitude>
    <longitude>-0.5666667</longitude>
  </city>
  <city name="Bèlsa Kouy">
    <latitude>14.0833333</latitude>
    <longitude>-1.2666667</longitude>
  </city>
  <city name="Béma">
    <latitude>13.1166667</latitude>
    <longitude>-2.0333333</longitude>
  </city>
  <city name="Bème">
    <latitude>13.5666667</latitude>
    <longitude>-2.5166667</longitude>
  </city>
  <city name="Bemkoudougou">
    <latitude>13.0666667</latitude>
    <longitude>-2.0333333</longitude>
  </city>
  <city name="Béna">
    <latitude>12.0666667</latitude>
    <longitude>-4.1833333</longitude>
  </city>
  <city name="Bénanso">
    <latitude>12.35</latitude>
    <longitude>-2.4666667</longitude>
  </city>
  <city name="Bénatenga">
    <latitude>11.8166667</latitude>
    <longitude>-0.3833333</longitude>
  </city>
  <city name="Bénavéro">
    <latitude>11.0666667</latitude>
    <longitude>-2.1666667</longitude>
  </city>
  <city name="Ben">
    <latitude>12.7</latitude>
    <longitude>-4.35</longitude>
  </city>
  <city name="Bèndogo">
    <latitude>13.0833333</latitude>
    <longitude>-1.5333333</longitude>
  </city>
  <city name="Bendogo">
    <latitude>12.3927778</latitude>
    <longitude>-1.4544444</longitude>
  </city>
  <city name="Bendorko">
    <latitude>12.05</latitude>
    <longitude>-2.0166667</longitude>
  </city>
  <city name="Bendougou">
    <latitude>12.4666667</latitude>
    <longitude>-3.6</longitude>
  </city>
  <city name="Bèné">
    <latitude>13.7166667</latitude>
    <longitude>-2.3166667</longitude>
  </city>
  <city name="Bénéga">
    <latitude>11.7</latitude>
    <longitude>-2.6</longitude>
  </city>
  <city name="Bénéré">
    <latitude>14.1333333</latitude>
    <longitude>-0.9666667</longitude>
  </city>
  <city name="Bengré">
    <latitude>12.1333333</latitude>
    <longitude>-0.65</longitude>
  </city>
  <city name="Benguéden">
    <latitude>12.5166667</latitude>
    <longitude>-0.3833333</longitude>
  </city>
  <city name="Bènh">
    <latitude>13.8</latitude>
    <longitude>-2.7166667</longitude>
  </city>
  <city name="Béni">
    <latitude>11.1666667</latitude>
    <longitude>-2.9333333</longitude>
  </city>
  <city name="Beniéné">
    <latitude>11.9166667</latitude>
    <longitude>-1.95</longitude>
  </city>
  <city name="Bénié Tanga">
    <latitude>13.75</latitude>
    <longitude>-2.6833333</longitude>
  </city>
  <city name="Béninséra">
    <latitude>9.8166667</latitude>
    <longitude>-3.05</longitude>
  </city>
  <city name="Béniou">
    <latitude>11.3166667</latitude>
    <longitude>-1.95</longitude>
  </city>
  <city name="Bennsé">
    <latitude>13.1</latitude>
    <longitude>-1.9666667</longitude>
  </city>
  <city name="Bénogo">
    <latitude>12.5166667</latitude>
    <longitude>-1.45</longitude>
  </city>
  <city name="Benourougou">
    <latitude>12.3833333</latitude>
    <longitude>0.4833333</longitude>
  </city>
  <city name="Benté">
    <latitude>10.75</latitude>
    <longitude>-3.6</longitude>
  </city>
  <city name="Benurugu">
    <latitude>12.3833333</latitude>
    <longitude>0.4833333</longitude>
  </city>
  <city name="Béongourgou">
    <latitude>12.3833333</latitude>
    <longitude>0.4833333</longitude>
  </city>
  <city name="Bèotenga">
    <latitude>13.05</latitude>
    <longitude>-1.0833333</longitude>
  </city>
  <city name="Béquélé">
    <latitude>10.6</latitude>
    <longitude>-3.7333333</longitude>
  </city>
  <city name="Béra">
    <latitude>12.0666667</latitude>
    <longitude>-4.1833333</longitude>
  </city>
  <city name="Béranga">
    <latitude>13.1166667</latitude>
    <longitude>-2.1333333</longitude>
  </city>
  <city name="Béréba">
    <latitude>11.6333333</latitude>
    <longitude>-3.6833333</longitude>
  </city>
  <city name="Béré">
    <latitude>11.8333333</latitude>
    <longitude>-1.15</longitude>
  </city>
  <city name="Bérégadougou">
    <latitude>10.7666667</latitude>
    <longitude>-4.75</longitude>
  </city>
  <city name="Bèrèkwè">
    <latitude>13.1666667</latitude>
    <longitude>-4.15</longitude>
  </city>
  <city name="Bérénkui">
    <latitude>12.4666667</latitude>
    <longitude>-3.8333333</longitude>
  </city>
  <city name="Beringa">
    <latitude>13.1166667</latitude>
    <longitude>-2.1333333</longitude>
  </city>
  <city name="Berma">
    <latitude>13.3333333</latitude>
    <longitude>-3.8333333</longitude>
  </city>
  <city name="Berni">
    <latitude>13.3333333</latitude>
    <longitude>-3.8333333</longitude>
  </city>
  <city name="Bérsaga">
    <latitude>12.0166667</latitude>
    <longitude>0.55</longitude>
  </city>
  <city name="Bésetenga">
    <latitude>12.7333333</latitude>
    <longitude>-2.7333333</longitude>
  </city>
  <city name="Bèstigré">
    <latitude>12.2</latitude>
    <longitude>-0.5333333</longitude>
  </city>
  <city name="Béta">
    <latitude>12.6533333</latitude>
    <longitude>-1.1072222</longitude>
  </city>
  <city name="Bétaré">
    <latitude>11.4333333</latitude>
    <longitude>-1.3666667</longitude>
  </city>
  <city name="Bétiessan">
    <latitude>11.0666667</latitude>
    <longitude>-1.9166667</longitude>
  </city>
  <city name="Béto">
    <latitude>11.7666667</latitude>
    <longitude>-2.2833333</longitude>
  </city>
  <city name="Beun">
    <latitude>11.2666667</latitude>
    <longitude>-2.2666667</longitude>
  </city>
  <city name="Beune">
    <latitude>11.2666667</latitude>
    <longitude>-2.2666667</longitude>
  </city>
  <city name="Bèybèy">
    <latitude>13.9666667</latitude>
    <longitude>-0.05</longitude>
  </city>
  <city name="Béyoura">
    <latitude>11.6833333</latitude>
    <longitude>-1.85</longitude>
  </city>
  <city name="Bezena">
    <latitude>11.3333333</latitude>
    <longitude>-2.6666667</longitude>
  </city>
  <city name="Bial">
    <latitude>12.0333333</latitude>
    <longitude>-4.3666667</longitude>
  </city>
  <city name="Biassaga">
    <latitude>12.0</latitude>
    <longitude>-4.3</longitude>
  </city>
  <city name="Biba">
    <latitude>12.8166667</latitude>
    <longitude>-2.9666667</longitude>
  </city>
  <city name="Bibgou">
    <latitude>12.6</latitude>
    <longitude>0.35</longitude>
  </city>
  <city name="Bibiou">
    <latitude>12.9</latitude>
    <longitude>-2.5333333</longitude>
  </city>
  <city name="Biboum">
    <latitude>11.7</latitude>
    <longitude>-3.5833333</longitude>
  </city>
  <city name="Bida">
    <latitude>13.1666667</latitude>
    <longitude>-4.0833333</longitude>
  </city>
  <city name="Biddi">
    <latitude>14.2</latitude>
    <longitude>-0.3333333</longitude>
  </city>
  <city name="Bidibawoye">
    <latitude>13.9333333</latitude>
    <longitude>-2.5</longitude>
  </city>
  <city name="Bidi">
    <latitude>14.2</latitude>
    <longitude>-0.3333333</longitude>
  </city>
  <city name="Bidiga">
    <latitude>11.8</latitude>
    <longitude>-0.5166667</longitude>
  </city>
  <city name="Bidougou">
    <latitude>12.5333333</latitude>
    <longitude>-1.6666667</longitude>
  </city>
  <city name="Biédogo">
    <latitude>11.8833333</latitude>
    <longitude>-1.4666667</longitude>
  </city>
  <city name="Biéha">
    <latitude>11.06</latitude>
    <longitude>-1.8213889</longitude>
  </city>
  <city name="Bielfadouo">
    <latitude>10.0333333</latitude>
    <longitude>-3.2</longitude>
  </city>
  <city name="Bielméra">
    <latitude>9.9833333</latitude>
    <longitude>-3.1166667</longitude>
  </city>
  <city name="Biéna">
    <latitude>12.85</latitude>
    <longitude>-2.9666667</longitude>
  </city>
  <city name="Biengane">
    <latitude>11.05</latitude>
    <longitude>-2.8666667</longitude>
  </city>
  <city name="Biforo">
    <latitude>11.9166667</latitude>
    <longitude>-3.1333333</longitude>
  </city>
  <city name="Bigué">
    <latitude>13.8166667</latitude>
    <longitude>-0.9166667</longitude>
  </city>
  <city name="Biguissi">
    <latitude>12.95</latitude>
    <longitude>-1.1333333</longitude>
  </city>
  <city name="Bihoun">
    <latitude>11.7</latitude>
    <longitude>-3.5833333</longitude>
  </city>
  <city name="Bika">
    <latitude>12.3208333</latitude>
    <longitude>-1.5836111</longitude>
  </city>
  <city name="Bikatawa">
    <latitude>13.45</latitude>
    <longitude>-1.3166667</longitude>
  </city>
  <city name="Bilakoka">
    <latitude>13.8666667</latitude>
    <longitude>-0.4166667</longitude>
  </city>
  <city name="Bilakongo">
    <latitude>12.1666667</latitude>
    <longitude>-3.15</longitude>
  </city>
  <city name="Bilambyoubilé">
    <latitude>12.2</latitude>
    <longitude>-0.0666667</longitude>
  </city>
  <city name="Bilanbar">
    <latitude>11.0833333</latitude>
    <longitude>-2.9833333</longitude>
  </city>
  <city name="Bilanga">
    <latitude>12.5477778</latitude>
    <longitude>-0.0361111</longitude>
  </city>
  <city name="Bilanga Yanga">
    <latitude>12.45</latitude>
    <longitude>-0.1</longitude>
  </city>
  <city name="Bilanguen">
    <latitude>12.1333333</latitude>
    <longitude>-0.0333333</longitude>
  </city>
  <city name="Bilatio">
    <latitude>11.3833333</latitude>
    <longitude>-2.65</longitude>
  </city>
  <city name="Bilbalé">
    <latitude>10.95</latitude>
    <longitude>-3.0666667</longitude>
  </city>
  <city name="Bilbalgo">
    <latitude>12.1627778</latitude>
    <longitude>-1.3777778</longitude>
  </city>
  <city name="Bilbalogo">
    <latitude>11.9166667</latitude>
    <longitude>-1.3333333</longitude>
  </city>
  <city name="Bilembare">
    <latitude>11.0833333</latitude>
    <longitude>-2.9833333</longitude>
  </city>
  <city name="Bilgou">
    <latitude>13.1833333</latitude>
    <longitude>0.2333333</longitude>
  </city>
  <city name="Bilgoutenga">
    <latitude>12.4863889</latitude>
    <longitude>-1.2658333</longitude>
  </city>
  <city name="Bilgutenga">
    <latitude>12.4863889</latitude>
    <longitude>-1.2658333</longitude>
  </city>
  <city name="Bilhembaré">
    <latitude>11.0833333</latitude>
    <longitude>-2.9833333</longitude>
  </city>
  <city name="Bilibalogo">
    <latitude>13.5666667</latitude>
    <longitude>-0.9833333</longitude>
  </city>
  <city name="Biliga">
    <latitude>13.35</latitude>
    <longitude>-1.3666667</longitude>
  </city>
  <city name="Bilina">
    <latitude>12.45</latitude>
    <longitude>0.0666667</longitude>
  </city>
  <city name="Bilogo">
    <latitude>12.5352778</latitude>
    <longitude>-1.6830556</longitude>
  </city>
  <city name="Bilogotenga">
    <latitude>12.5166667</latitude>
    <longitude>-0.9166667</longitude>
  </city>
  <city name="Bilougou">
    <latitude>13.1166667</latitude>
    <longitude>0.2</longitude>
  </city>
  <city name="Bimabidéni">
    <latitude>12.6666667</latitude>
    <longitude>2.1333333</longitude>
  </city>
  <city name="Bimbéla">
    <latitude>13.55</latitude>
    <longitude>-2.4833333</longitude>
  </city>
  <city name="Bimé">
    <latitude>11.65</latitude>
    <longitude>-0.3333333</longitude>
  </city>
  <city name="Bina">
    <latitude>12.7833333</latitude>
    <longitude>0.7</longitude>
  </city>
  <city name="Binadèni">
    <latitude>12.0166667</latitude>
    <longitude>0.2666667</longitude>
  </city>
  <city name="Binbéla">
    <latitude>13.55</latitude>
    <longitude>-2.4833333</longitude>
  </city>
  <city name="Binbélinko">
    <latitude>9.4833333</latitude>
    <longitude>-2.75</longitude>
  </city>
  <city name="Bin">
    <latitude>12.0333333</latitude>
    <longitude>-4.1333333</longitude>
  </city>
  <city name="Binda">
    <latitude>11.0</latitude>
    <longitude>-0.5333333</longitude>
  </city>
  <city name="Bindé">
    <latitude>11.7541667</latitude>
    <longitude>-1.0944444</longitude>
  </city>
  <city name="Bindéré">
    <latitude>13.6</latitude>
    <longitude>-0.1833333</longitude>
  </city>
  <city name="Bindo">
    <latitude>11.0</latitude>
    <longitude>-0.5333333</longitude>
  </city>
  <city name="Bindogo">
    <latitude>12.05</latitude>
    <longitude>-2.0166667</longitude>
  </city>
  <city name="Bindoro">
    <latitude>12.8</latitude>
    <longitude>-0.8333333</longitude>
  </city>
  <city name="Bindougou">
    <latitude>12.4666667</latitude>
    <longitude>-3.6</longitude>
  </city>
  <city name="Bindowé">
    <latitude>11.1666667</latitude>
    <longitude>-4.1</longitude>
  </city>
  <city name="Binga">
    <latitude>13.0333333</latitude>
    <longitude>0.5833333</longitude>
  </city>
  <city name="Bingali">
    <latitude>10.3166667</latitude>
    <longitude>-3.6166667</longitude>
  </city>
  <city name="Bingbéma">
    <latitude>11.55</latitude>
    <longitude>-4.5833333</longitude>
  </city>
  <city name="Bingo">
    <latitude>11.0</latitude>
    <longitude>-0.5333333</longitude>
  </city>
  <city name="Binguèl">
    <latitude>13.5333333</latitude>
    <longitude>0.7666667</longitude>
  </city>
  <city name="Binguèl Dafédji">
    <latitude>14.55</latitude>
    <longitude>-0.9166667</longitude>
  </city>
  <city name="Bini">
    <latitude>13.7666667</latitude>
    <longitude>-1.2</longitude>
  </city>
  <city name="Binjo">
    <latitude>10.4666667</latitude>
    <longitude>-3.0333333</longitude>
  </city>
  <city name="Binkili">
    <latitude>11.3</latitude>
    <longitude>-2.9333333</longitude>
  </city>
  <city name="Binndé">
    <latitude>11.7541667</latitude>
    <longitude>-1.0944444</longitude>
  </city>
  <city name="Binnguédougou">
    <latitude>10.4</latitude>
    <longitude>-5.1166667</longitude>
  </city>
  <city name="Binogo">
    <latitude>12.3666667</latitude>
    <longitude>-0.65</longitude>
  </city>
  <city name="Binola">
    <latitude>9.9333333</latitude>
    <longitude>-3.1</longitude>
  </city>
  <city name="Binsboumbou">
    <latitude>11.8666667</latitude>
    <longitude>-1.2333333</longitude>
  </city>
  <city name="Binségué">
    <latitude>12.8</latitude>
    <longitude>-0.9166667</longitude>
  </city>
  <city name="Binsigué">
    <latitude>12.9666667</latitude>
    <longitude>-0.7333333</longitude>
  </city>
  <city name="Binstéguéré">
    <latitude>11.7833333</latitude>
    <longitude>-1.3666667</longitude>
  </city>
  <city name="Binté">
    <latitude>10.75</latitude>
    <longitude>-3.6</longitude>
  </city>
  <city name="Binvar">
    <latitude>10.95</latitude>
    <longitude>-2.9833333</longitude>
  </city>
  <city name="Bion">
    <latitude>11.65</latitude>
    <longitude>-1.2333333</longitude>
  </city>
  <city name="Biongo">
    <latitude>12.7666667</latitude>
    <longitude>-2.0666667</longitude>
  </city>
  <city name="Biou">
    <latitude>11.65</latitude>
    <longitude>-1.2333333</longitude>
  </city>
  <city name="Bira">
    <latitude>13.2166667</latitude>
    <longitude>0.8666667</longitude>
  </city>
  <city name="Birabodo">
    <latitude>12.5</latitude>
    <longitude>-1.95</longitude>
  </city>
  <city name="Bira Gondogo">
    <latitude>13.6333333</latitude>
    <longitude>-2.8666667</longitude>
  </city>
  <city name="Birgou">
    <latitude>12.2</latitude>
    <longitude>0.4333333</longitude>
  </city>
  <city name="Birgui">
    <latitude>13.6</latitude>
    <longitude>-0.55</longitude>
  </city>
  <city name="Biribéna">
    <latitude>13.5666667</latitude>
    <longitude>0.5166667</longitude>
  </city>
  <city name="Biri">
    <latitude>13.2166667</latitude>
    <longitude>-1.2666667</longitude>
  </city>
  <city name="Biriguima">
    <latitude>11.95</latitude>
    <longitude>-1.7</longitude>
  </city>
  <city name="Birigui Tèyga">
    <latitude>14.1166667</latitude>
    <longitude>-0.9333333</longitude>
  </city>
  <city name="Birkinao">
    <latitude>10.65</latitude>
    <longitude>-3.3</longitude>
  </city>
  <city name="Birmanga">
    <latitude>12.4666667</latitude>
    <longitude>1.55</longitude>
  </city>
  <city name="Birniolpori">
    <latitude>12.6333333</latitude>
    <longitude>1.9166667</longitude>
  </city>
  <city name="Biron Bobo">
    <latitude>12.5666667</latitude>
    <longitude>-3.6333333</longitude>
  </city>
  <city name="Biron Marka">
    <latitude>12.5833333</latitude>
    <longitude>-3.6333333</longitude>
  </city>
  <city name="Birou">
    <latitude>13.3</latitude>
    <longitude>-1.65</longitude>
  </city>
  <city name="Birouro">
    <latitude>14.3</latitude>
    <longitude>-1.05</longitude>
  </city>
  <city name="Bisiga">
    <latitude>12.15</latitude>
    <longitude>-2.0666667</longitude>
  </city>
  <city name="Bisigen">
    <latitude>12.45</latitude>
    <longitude>-2.3</longitude>
  </city>
  <city name="Bisigui Yolgo">
    <latitude>12.9833333</latitude>
    <longitude>-1.15</longitude>
  </city>
  <city name="Biska">
    <latitude>12.15</latitude>
    <longitude>-0.1833333</longitude>
  </city>
  <city name="Bisma">
    <latitude>12.95</latitude>
    <longitude>-2.6166667</longitude>
  </city>
  <city name="Bisnaba">
    <latitude>12.55</latitude>
    <longitude>-0.6666667</longitude>
  </city>
  <city name="Bisnogo">
    <latitude>13.0</latitude>
    <longitude>-1.0666667</longitude>
  </city>
  <city name="Bissa">
    <latitude>13.1833333</latitude>
    <longitude>-1.5</longitude>
  </city>
  <city name="Bissan">
    <latitude>12.85</latitude>
    <longitude>-3.4166667</longitude>
  </city>
  <city name="Bissandéré">
    <latitude>12.2166667</latitude>
    <longitude>-2.9166667</longitude>
  </city>
  <city name="Bissandéro">
    <latitude>12.2166667</latitude>
    <longitude>-2.9166667</longitude>
  </city>
  <city name="Bissandérou">
    <latitude>12.2166667</latitude>
    <longitude>-2.9166667</longitude>
  </city>
  <city name="Bisserké">
    <latitude>11.2666667</latitude>
    <longitude>-3.25</longitude>
  </city>
  <city name="Bissga">
    <latitude>12.6972222</latitude>
    <longitude>-1.2030556</longitude>
  </city>
  <city name="Bissia">
    <latitude>13.1833333</latitude>
    <longitude>-1.5</longitude>
  </city>
  <city name="Bissiga">
    <latitude>12.0363889</latitude>
    <longitude>-1.4705556</longitude>
  </city>
  <city name="Bissigen">
    <latitude>12.3744444</latitude>
    <longitude>-1.4047222</longitude>
  </city>
  <city name="Bissiguen">
    <latitude>13.2</latitude>
    <longitude>-1.5166667</longitude>
  </city>
  <city name="Bissigui">
    <latitude>12.2405556</latitude>
    <longitude>-1.6716667</longitude>
  </city>
  <city name="Bissiguila">
    <latitude>12.3</latitude>
    <longitude>-1.95</longitude>
  </city>
  <city name="Bissiguin">
    <latitude>13.5833333</latitude>
    <longitude>-2.4833333</longitude>
  </city>
  <city name="Bissimila">
    <latitude>12.4</latitude>
    <longitude>0.3166667</longitude>
  </city>
  <city name="Bissinga">
    <latitude>13.4666667</latitude>
    <longitude>-0.55</longitude>
  </city>
  <city name="Bissingen">
    <latitude>12.3744444</latitude>
    <longitude>-1.4047222</longitude>
  </city>
  <city name="Bissiri">
    <latitude>12.0997222</latitude>
    <longitude>-1.2469444</longitude>
  </city>
  <city name="Bisso">
    <latitude>12.7166667</latitude>
    <longitude>-3.7666667</longitude>
  </city>
  <city name="Bitébaka">
    <latitude>12.8222222</latitude>
    <longitude>-1.7719444</longitude>
  </city>
  <city name="Bitia">
    <latitude>11.8166667</latitude>
    <longitude>-3.0166667</longitude>
  </city>
  <city name="Bitiako">
    <latitude>11.8166667</latitude>
    <longitude>-3.0166667</longitude>
  </city>
  <city name="Bitou">
    <latitude>11.2580556</latitude>
    <longitude>-0.3061111</longitude>
  </city>
  <city name="Bitté">
    <latitude>11.5</latitude>
    <longitude>-0.0166667</longitude>
  </city>
  <city name="Bittou">
    <latitude>11.2580556</latitude>
    <longitude>-0.3061111</longitude>
  </city>
  <city name="Bittu">
    <latitude>11.2580556</latitude>
    <longitude>-0.3061111</longitude>
  </city>
  <city name="Biyou">
    <latitude>13.4333333</latitude>
    <longitude>-1.1833333</longitude>
  </city>
  <city name="Bladi">
    <latitude>13.4166667</latitude>
    <longitude>-3.3</longitude>
  </city>
  <city name="Blari">
    <latitude>11.2833333</latitude>
    <longitude>-5.1166667</longitude>
  </city>
  <city name="Blé">
    <latitude>12.0166667</latitude>
    <longitude>-3.3666667</longitude>
  </city>
  <city name="Blédougou">
    <latitude>10.5833333</latitude>
    <longitude>-5.2666667</longitude>
  </city>
  <city name="Bleni">
    <latitude>11.5666667</latitude>
    <longitude>-5.05</longitude>
  </city>
  <city name="Boa">
    <latitude>12.8333333</latitude>
    <longitude>-3.0166667</longitude>
  </city>
  <city name="Boaboadyoari">
    <latitude>12.25</latitude>
    <longitude>0.7666667</longitude>
  </city>
  <city name="Boadèni">
    <latitude>12.0833333</latitude>
    <longitude>1.1333333</longitude>
  </city>
  <city name="Boaken">
    <latitude>12.3</latitude>
    <longitude>-0.4666667</longitude>
  </city>
  <city name="Boala">
    <latitude>12.7166667</latitude>
    <longitude>-1.2666667</longitude>
  </city>
  <city name="Boalé">
    <latitude>11.4</latitude>
    <longitude>-1.3666667</longitude>
  </city>
  <city name="Boalen">
    <latitude>12.6166667</latitude>
    <longitude>-1.2333333</longitude>
  </city>
  <city name="Boalga">
    <latitude>13.2833333</latitude>
    <longitude>-1.5</longitude>
  </city>
  <city name="Boallé">
    <latitude>13.3</latitude>
    <longitude>-1.5833333</longitude>
  </city>
  <city name="Boara">
    <latitude>11.0333333</latitude>
    <longitude>-2.6</longitude>
  </city>
  <city name="Boaré">
    <latitude>13.0833333</latitude>
    <longitude>-2.9333333</longitude>
  </city>
  <city name="Boargou">
    <latitude>12.4666667</latitude>
    <longitude>1.05</longitude>
  </city>
  <city name="Boasa">
    <latitude>12.2913889</latitude>
    <longitude>-1.6141667</longitude>
  </city>
  <city name="Boassa">
    <latitude>12.2913889</latitude>
    <longitude>-1.6141667</longitude>
  </city>
  <city name="Boau">
    <latitude>11.15</latitude>
    <longitude>-0.6</longitude>
  </city>
  <city name="Bobéra">
    <latitude>9.9</latitude>
    <longitude>-3.15</longitude>
  </city>
  <city name="Bobéta">
    <latitude>10.3666667</latitude>
    <longitude>-3.5666667</longitude>
  </city>
  <city name="Bo">
    <latitude>13.0</latitude>
    <longitude>-3.2166667</longitude>
  </city>
  <city name="Bô">
    <latitude>13.4</latitude>
    <longitude>-2.5333333</longitude>
  </city>
  <city name="Boboanga">
    <latitude>12.8833333</latitude>
    <longitude>0.3</longitude>
  </city>
  <city name="Bobo Dioulasso">
    <latitude>11.2</latitude>
    <longitude>-4.3</longitude>
  </city>
  <city name="Bobo-Diulasso">
    <latitude>11.2</latitude>
    <longitude>-4.3</longitude>
  </city>
  <city name="Bobonon">
    <latitude>11.55</latitude>
    <longitude>-1.65</longitude>
  </city>
  <city name="Bobora">
    <latitude>11.0833333</latitude>
    <longitude>-2.9333333</longitude>
  </city>
  <city name="Boboragogo">
    <latitude>10.8333333</latitude>
    <longitude>-3.0333333</longitude>
  </city>
  <city name="Bodana">
    <latitude>9.9333333</latitude>
    <longitude>-3.4333333</longitude>
  </city>
  <city name="Bodéol">
    <latitude>14.0833333</latitude>
    <longitude>-0.9166667</longitude>
  </city>
  <city name="Bodgi">
    <latitude>12.0686111</latitude>
    <longitude>-1.2672222</longitude>
  </city>
  <city name="Bodialindara">
    <latitude>11.2</latitude>
    <longitude>-3.9666667</longitude>
  </city>
  <city name="Bodou">
    <latitude>12.4177778</latitude>
    <longitude>0.1536111</longitude>
  </city>
  <city name="Bodu">
    <latitude>12.4177778</latitude>
    <longitude>0.1536111</longitude>
  </city>
  <city name="Bodya">
    <latitude>13.0666667</latitude>
    <longitude>0.4166667</longitude>
  </city>
  <city name="Bodyargou">
    <latitude>12.7166667</latitude>
    <longitude>0.55</longitude>
  </city>
  <city name="Boénessen-Petit">
    <latitude>12.0666667</latitude>
    <longitude>-0.3666667</longitude>
  </city>
  <city name="Bogadèlbi">
    <latitude>13.65</latitude>
    <longitude>0.2</longitude>
  </city>
  <city name="Bogadouga">
    <latitude>12.4833333</latitude>
    <longitude>1.8333333</longitude>
  </city>
  <city name="Bogaloumo">
    <latitude>13.5333333</latitude>
    <longitude>0.4333333</longitude>
  </city>
  <city name="Bogaloura">
    <latitude>14.15</latitude>
    <longitude>-0.9</longitude>
  </city>
  <city name="Bogandé">
    <latitude>12.9713889</latitude>
    <longitude>-0.1436111</longitude>
  </city>
  <city name="Bogden">
    <latitude>12.0686111</latitude>
    <longitude>-1.2672222</longitude>
  </city>
  <city name="Bogèl">
    <latitude>12.4666667</latitude>
    <longitude>2.0166667</longitude>
  </city>
  <city name="Bogo">
    <latitude>12.95</latitude>
    <longitude>-3.95</longitude>
  </city>
  <city name="Bogoden">
    <latitude>12.3338889</latitude>
    <longitude>-1.6511111</longitude>
  </city>
  <city name="Bogodogo">
    <latitude>12.0208333</latitude>
    <longitude>-1.5533333</longitude>
  </city>
  <city name="Bogro">
    <latitude>11.7666667</latitude>
    <longitude>-2.2833333</longitude>
  </city>
  <city name="Bogué">
    <latitude>11.6833333</latitude>
    <longitude>-0.0166667</longitude>
  </city>
  <city name="Boguéli">
    <latitude>12.2666667</latitude>
    <longitude>0.4333333</longitude>
  </city>
  <city name="Bogui">
    <latitude>12.0666667</latitude>
    <longitude>0.4333333</longitude>
  </city>
  <city name="Bohara">
    <latitude>10.6</latitude>
    <longitude>-4.0166667</longitude>
  </city>
  <city name="Bohira">
    <latitude>10.45</latitude>
    <longitude>-3.2833333</longitude>
  </city>
  <city name="Boho Béréba">
    <latitude>11.5666667</latitude>
    <longitude>-3.75</longitude>
  </city>
  <city name="Boho">
    <latitude>12.5666667</latitude>
    <longitude>-2.55</longitude>
  </city>
  <city name="Boho Kari">
    <latitude>11.4</latitude>
    <longitude>-3.85</longitude>
  </city>
  <city name="Bohongou">
    <latitude>12.4988889</latitude>
    <longitude>0.6997222</longitude>
  </city>
  <city name="Bohui">
    <latitude>13.0166667</latitude>
    <longitude>-3.95</longitude>
  </city>
  <city name="Boilguen">
    <latitude>12.5666667</latitude>
    <longitude>-0.8166667</longitude>
  </city>
  <city name="Boillé">
    <latitude>11.9833333</latitude>
    <longitude>-0.0666667</longitude>
  </city>
  <city name="Boin">
    <latitude>12.4833333</latitude>
    <longitude>-4.4</longitude>
  </city>
  <city name="Bointenga">
    <latitude>12.1558333</latitude>
    <longitude>-1.4738889</longitude>
  </city>
  <city name="Boka">
    <latitude>10.3166667</latitude>
    <longitude>-2.8666667</longitude>
  </city>
  <city name="Boké">
    <latitude>13.3166667</latitude>
    <longitude>-2.25</longitude>
  </city>
  <city name="Boken">
    <latitude>13.1166667</latitude>
    <longitude>-1.6</longitude>
  </city>
  <city name="Bokin">
    <latitude>13.0080556</latitude>
    <longitude>-1.7902778</longitude>
  </city>
  <city name="Bokiourou">
    <latitude>11.1833333</latitude>
    <longitude>-2.1666667</longitude>
  </city>
  <city name="Boko">
    <latitude>12.7166667</latitude>
    <longitude>-0.4</longitude>
  </city>
  <city name="Bokoro">
    <latitude>13.3333333</latitude>
    <longitude>-4.0833333</longitude>
  </city>
  <city name="Bokowen">
    <latitude>13.0</latitude>
    <longitude>0.2333333</longitude>
  </city>
  <city name="Bokui">
    <latitude>12.0166667</latitude>
    <longitude>-3.8</longitude>
  </city>
  <city name="Bokui-Ouest">
    <latitude>11.6</latitude>
    <longitude>-3.7333333</longitude>
  </city>
  <city name="Bokwen">
    <latitude>13.2833333</latitude>
    <longitude>-1.2833333</longitude>
  </city>
  <city name="Bola">
    <latitude>12.85</latitude>
    <longitude>0.35</longitude>
  </city>
  <city name="Bolala">
    <latitude>10.5</latitude>
    <longitude>-3.1333333</longitude>
  </city>
  <city name="Bolanbar">
    <latitude>11.05</latitude>
    <longitude>-3.0333333</longitude>
  </city>
  <city name="Bolaré">
    <latitude>13.7</latitude>
    <longitude>-0.2</longitude>
  </city>
  <city name="Bolay">
    <latitude>13.6</latitude>
    <longitude>0.0166667</longitude>
  </city>
  <city name="Bolé">
    <latitude>13.0</latitude>
    <longitude>-1.05</longitude>
  </city>
  <city name="Bolgo">
    <latitude>12.6208333</latitude>
    <longitude>-1.9408333</longitude>
  </city>
  <city name="Bollaé">
    <latitude>13.7166667</latitude>
    <longitude>-1.15</longitude>
  </city>
  <city name="Bollé">
    <latitude>12.3833333</latitude>
    <longitude>-0.7666667</longitude>
  </city>
  <city name="Bolo">
    <latitude>11.9</latitude>
    <longitude>-2.25</longitude>
  </city>
  <city name="Bologbé">
    <latitude>10.8166667</latitude>
    <longitude>-2.9833333</longitude>
  </city>
  <city name="Bologo">
    <latitude>12.0333333</latitude>
    <longitude>-0.2666667</longitude>
  </city>
  <city name="Bolomona">
    <latitude>13.25</latitude>
    <longitude>-0.2333333</longitude>
  </city>
  <city name="Bolongtonga">
    <latitude>13.2166667</latitude>
    <longitude>0.7</longitude>
  </city>
  <city name="Bolonguen">
    <latitude>12.0394444</latitude>
    <longitude>-1.6730556</longitude>
  </city>
  <city name="Bolontou">
    <latitude>12.1333333</latitude>
    <longitude>0.0333333</longitude>
  </city>
  <city name="Boloro">
    <latitude>12.1</latitude>
    <longitude>-0.0666667</longitude>
  </city>
  <city name="Bolougban">
    <latitude>10.2333333</latitude>
    <longitude>-3.2833333</longitude>
  </city>
  <city name="Boman">
    <latitude>10.3833333</latitude>
    <longitude>-3.2666667</longitude>
  </city>
  <city name="Bombanyenga">
    <latitude>13.2</latitude>
    <longitude>-0.2666667</longitude>
  </city>
  <city name="Bombara">
    <latitude>10.7833333</latitude>
    <longitude>-3.2833333</longitude>
  </city>
  <city name="Bomboué">
    <latitude>13.6833333</latitude>
    <longitude>-0.1</longitude>
  </city>
  <city name="Bombouéla">
    <latitude>12.1</latitude>
    <longitude>-3.3</longitude>
  </city>
  <city name="Bomoï">
    <latitude>10.5</latitude>
    <longitude>-3.0833333</longitude>
  </city>
  <city name="Bompé">
    <latitude>10.4666667</latitude>
    <longitude>-4.7833333</longitude>
  </city>
  <city name="Bomponi">
    <latitude>12.15</latitude>
    <longitude>-3.55</longitude>
  </city>
  <city name="Bona">
    <latitude>11.1666667</latitude>
    <longitude>-4.0</longitude>
  </city>
  <city name="Bonadougou">
    <latitude>11.1666667</latitude>
    <longitude>-4.1833333</longitude>
  </city>
  <city name="Bonamba">
    <latitude>9.8166667</latitude>
    <longitude>-2.8833333</longitude>
  </city>
  <city name="Bonam">
    <latitude>12.3213889</latitude>
    <longitude>-1.5766667</longitude>
  </city>
  <city name="Bonapio">
    <latitude>11.4166667</latitude>
    <longitude>-2.0666667</longitude>
  </city>
  <city name="Bonatenga">
    <latitude>12.0644444</latitude>
    <longitude>-1.5038889</longitude>
  </city>
  <city name="Bonba">
    <latitude>11.6833333</latitude>
    <longitude>-3.6166667</longitude>
  </city>
  <city name="Bonbambina">
    <latitude>12.55</latitude>
    <longitude>0.8333333</longitude>
  </city>
  <city name="Bonbara">
    <latitude>10.7833333</latitude>
    <longitude>-3.2666667</longitude>
  </city>
  <city name="Bonbofa">
    <latitude>14.0333333</latitude>
    <longitude>-0.3</longitude>
  </city>
  <city name="Bön">
    <latitude>11.2666667</latitude>
    <longitude>-2.2666667</longitude>
  </city>
  <city name="Bon">
    <latitude>11.1833333</latitude>
    <longitude>-2.75</longitude>
  </city>
  <city name="Bonbongou">
    <latitude>13.4</latitude>
    <longitude>0.6</longitude>
  </city>
  <city name="Bonbouéla">
    <latitude>12.1</latitude>
    <longitude>-3.3</longitude>
  </city>
  <city name="Bonboura">
    <latitude>10.7833333</latitude>
    <longitude>-3.2833333</longitude>
  </city>
  <city name="Bonda">
    <latitude>13.5</latitude>
    <longitude>-1.5166667</longitude>
  </city>
  <city name="Bondé">
    <latitude>13.6</latitude>
    <longitude>-1.4833333</longitude>
  </city>
  <city name="Bondigui">
    <latitude>10.9166667</latitude>
    <longitude>-3.4833333</longitude>
  </city>
  <city name="Bondimwana">
    <latitude>12.55</latitude>
    <longitude>0.8333333</longitude>
  </city>
  <city name="Bondo">
    <latitude>11.7666667</latitude>
    <longitude>-3.4333333</longitude>
  </city>
  <city name="Bondokui">
    <latitude>12.9166667</latitude>
    <longitude>-4.0666667</longitude>
  </city>
  <city name="Bondoména">
    <latitude>10.1833333</latitude>
    <longitude>-3.4666667</longitude>
  </city>
  <city name="Bondoni">
    <latitude>12.05</latitude>
    <longitude>-2.0166667</longitude>
  </city>
  <city name="Bondori">
    <latitude>12.05</latitude>
    <longitude>-2.0166667</longitude>
  </city>
  <city name="Bondorola">
    <latitude>10.6</latitude>
    <longitude>-4.5666667</longitude>
  </city>
  <city name="Bondoukoui">
    <latitude>11.85</latitude>
    <longitude>-3.7666667</longitude>
  </city>
  <city name="Bondoukuy">
    <latitude>11.85</latitude>
    <longitude>-3.7666667</longitude>
  </city>
  <city name="Bondouména">
    <latitude>10.2166667</latitude>
    <longitude>-3.35</longitude>
  </city>
  <city name="Bondoura">
    <latitude>10.2833333</latitude>
    <longitude>-3.55</longitude>
  </city>
  <city name="Bondukui">
    <latitude>11.85</latitude>
    <longitude>-3.7666667</longitude>
  </city>
  <city name="Bonéssen">
    <latitude>12.45</latitude>
    <longitude>-0.3333333</longitude>
  </city>
  <city name="Bonfan">
    <latitude>9.45</latitude>
    <longitude>-2.8166667</longitude>
  </city>
  <city name="Bonfeso">
    <latitude>10.8666667</latitude>
    <longitude>-3.6</longitude>
  </city>
  <city name="Bonfesso">
    <latitude>10.8666667</latitude>
    <longitude>-3.6</longitude>
  </city>
  <city name="Bonga">
    <latitude>12.2333333</latitude>
    <longitude>0.35</longitude>
  </city>
  <city name="Bongandé">
    <latitude>11.2</latitude>
    <longitude>-0.2</longitude>
  </city>
  <city name="Bongola">
    <latitude>13.9333333</latitude>
    <longitude>-2.2666667</longitude>
  </city>
  <city name="Bongori">
    <latitude>12.7333333</latitude>
    <longitude>1.0</longitude>
  </city>
  <city name="Bongou">
    <latitude>12.85</latitude>
    <longitude>0.2833333</longitude>
  </city>
  <city name="Boni">
    <latitude>11.5666667</latitude>
    <longitude>-3.4</longitude>
  </city>
  <city name="Bonissé">
    <latitude>13.7333333</latitude>
    <longitude>-0.9833333</longitude>
  </city>
  <city name="Bonko">
    <latitude>10.7666667</latitude>
    <longitude>-2.9666667</longitude>
  </city>
  <city name="Bonkoré">
    <latitude>12.1083333</latitude>
    <longitude>-1.475</longitude>
  </city>
  <city name="Bonkosséra">
    <latitude>10.0166667</latitude>
    <longitude>-3.1333333</longitude>
  </city>
  <city name="Bonkoulou">
    <latitude>9.7333333</latitude>
    <longitude>-2.9666667</longitude>
  </city>
  <city name="Bonna">
    <latitude>12.65</latitude>
    <longitude>-3.1333333</longitude>
  </city>
  <city name="Bonogo">
    <latitude>12.0669444</latitude>
    <longitude>-1.5838889</longitude>
  </city>
  <city name="Bonohoun">
    <latitude>11.4833333</latitude>
    <longitude>-3.7666667</longitude>
  </city>
  <city name="Bonpé">
    <latitude>10.4666667</latitude>
    <longitude>-4.7833333</longitude>
  </city>
  <city name="Bonpéla">
    <latitude>13.1666667</latitude>
    <longitude>-2.75</longitude>
  </city>
  <city name="Bonro">
    <latitude>13.05</latitude>
    <longitude>-3.2166667</longitude>
  </city>
  <city name="Bonsan">
    <latitude>11.4166667</latitude>
