<?xml version="1.0" encoding="UTF-8"?>
<country code="bo" name="Bolivie">
  <city name="25 de Julio">
    <latitude>-19.75</latitude>
    <longitude>-58.25</longitude>
  </city>
  <city name="6 de Abril">
    <latitude>-16.8666667</latitude>
    <longitude>-59.9833333</longitude>
  </city>
  <city name="6 de Agosto">
    <latitude>-10.9333333</latitude>
    <longitude>-67.15</longitude>
  </city>
  <city name="Abanay">
    <latitude>-21.5333333</latitude>
    <longitude>-63.55</longitude>
  </city>
  <city name="Abapó">
    <latitude>-18.8333333</latitude>
    <longitude>-63.4666667</longitude>
  </city>
  <city name="Abara">
    <latitude>-17.4833333</latitude>
    <longitude>-69.4333333</longitude>
  </city>
  <city name="Abaro">
    <latitude>-17.4833333</latitude>
    <longitude>-69.4333333</longitude>
  </city>
  <city name="Abeja">
    <latitude>-14.8833333</latitude>
    <longitude>-61.7166667</longitude>
  </city>
  <city name="Abejas">
    <latitude>-14.1333333</latitude>
    <longitude>-62.1833333</longitude>
  </city>
  <city name="Abel Kumo">
    <latitude>-18.8833333</latitude>
    <longitude>-66.6166667</longitude>
  </city>
  <city name="Abicaya">
    <latitude>-16.4833333</latitude>
    <longitude>-68.45</longitude>
  </city>
  <city name="Abichaca">
    <latitude>-16.05</latitude>
    <longitude>-68.65</longitude>
  </city>
  <city name="Abra">
    <latitude>-17.7666667</latitude>
    <longitude>-66.5</longitude>
  </city>
  <city name="Abra Bejucal">
    <latitude>-21.5333333</latitude>
    <longitude>-64.1166667</longitude>
  </city>
  <city name="Abra Blanca">
    <latitude>-21.4166667</latitude>
    <longitude>-65.65</longitude>
  </city>
  <city name="Abra Calacruz">
    <latitude>-21.05</latitude>
    <longitude>-65.95</longitude>
  </city>
  <city name="Abra Calcalaguay">
    <latitude>-19.8</latitude>
    <longitude>-68.45</longitude>
  </city>
  <city name="Abracasa">
    <latitude>-19.9</latitude>
    <longitude>-65.7166667</longitude>
  </city>
  <city name="Abra Ckasa">
    <latitude>-21.7666667</latitude>
    <longitude>-64.5833333</longitude>
  </city>
  <city name="Abra de Caisar">
    <latitude>-21.2</latitude>
    <longitude>-67.3833333</longitude>
  </city>
  <city name="Abra de Caisuro">
    <latitude>-21.2</latitude>
    <longitude>-67.3833333</longitude>
  </city>
  <city name="Abra de Napa">
    <latitude>-20.5333333</latitude>
    <longitude>-68.5833333</longitude>
  </city>
  <city name="Abra de Pulgui">
    <latitude>-19.2333333</latitude>
    <longitude>-65.2166667</longitude>
  </city>
  <city name="Abra de Pulqui">
    <latitude>-19.2333333</latitude>
    <longitude>-65.2166667</longitude>
  </city>
  <city name="Abra de Sivingamayo">
    <latitude>-20.3333333</latitude>
    <longitude>-65.15</longitude>
  </city>
  <city name="Abra de Tapacai">
    <latitude>-17.6</latitude>
    <longitude>-66.65</longitude>
  </city>
  <city name="Abra de Tapacarí">
    <latitude>-17.6</latitude>
    <longitude>-66.65</longitude>
  </city>
  <city name="Abra Divorti">
    <latitude>-17.5666667</latitude>
    <longitude>-64.0166667</longitude>
  </city>
  <city name="Abra Divortio">
    <latitude>-17.5666667</latitude>
    <longitude>-64.0166667</longitude>
  </city>
  <city name="Abra Grand">
    <latitude>-18.2166667</latitude>
    <longitude>-64.2333333</longitude>
  </city>
  <city name="Abra Grande">
    <latitude>-18.2166667</latitude>
    <longitude>-64.2333333</longitude>
  </city>
  <city name="Abra Kasa">
    <latitude>-21.7666667</latitude>
    <longitude>-64.5833333</longitude>
  </city>
  <city name="Abra Pampa">
    <latitude>-20.1</latitude>
    <longitude>-64.75</longitude>
  </city>
  <city name="Abra Potrerillo">
    <latitude>-21.2166667</latitude>
    <longitude>-64.15</longitude>
  </city>
  <city name="Abras de Ivio">
    <latitude>-20.45</latitude>
    <longitude>-64.0333333</longitude>
  </city>
  <city name="Abra Sivingani">
    <latitude>-17.8166667</latitude>
    <longitude>-65.5333333</longitude>
  </city>
  <city name="Abra Tambocasa">
    <latitude>-17.7666667</latitude>
    <longitude>-65.5333333</longitude>
  </city>
  <city name="Abra Tambockasa">
    <latitude>-17.7666667</latitude>
    <longitude>-65.5333333</longitude>
  </city>
  <city name="Abra Turuguapa">
    <latitude>-18.0833333</latitude>
    <longitude>-60.1166667</longitude>
  </city>
  <city name="Abritas">
    <latitude>-17.5333333</latitude>
    <longitude>-61.2</longitude>
  </city>
  <city name="Abuela">
    <latitude>-21.0666667</latitude>
    <longitude>-65.7166667</longitude>
  </city>
  <city name="Abuná Chico">
    <latitude>-10.4666667</latitude>
    <longitude>-67.1333333</longitude>
  </city>
  <city name="Acachila">
    <latitude>-19.2833333</latitude>
    <longitude>-65.2</longitude>
  </city>
  <city name="Acachilo">
    <latitude>-19.2833333</latitude>
    <longitude>-65.2</longitude>
  </city>
  <city name="Acacio">
    <latitude>-18.0</latitude>
    <longitude>-66.0833333</longitude>
  </city>
  <city name="Acahuani">
    <latitude>-18.2166667</latitude>
    <longitude>-65.65</longitude>
  </city>
  <city name="Acahuta">
    <latitude>-21.9666667</latitude>
    <longitude>-66.7666667</longitude>
  </city>
  <city name="Acaita">
    <latitude>-13.9</latitude>
    <longitude>-61.6333333</longitude>
  </city>
  <city name="Acalaca">
    <latitude>-14.7833333</latitude>
    <longitude>-68.4333333</longitude>
  </city>
  <city name="Acanea">
    <latitude>-18.1166667</latitude>
    <longitude>-68.65</longitude>
  </city>
  <city name="Acarapini">
    <latitude>-15.65</latitude>
    <longitude>-68.45</longitude>
  </city>
  <city name="Acasio">
    <latitude>-18.0</latitude>
    <longitude>-66.0833333</longitude>
  </city>
  <city name="Acchila">
    <latitude>-20.35</latitude>
    <longitude>-64.8166667</longitude>
  </city>
  <city name="Acchilla">
    <latitude>-20.35</latitude>
    <longitude>-64.8166667</longitude>
  </city>
  <city name="Aceite">
    <latitude>-13.9</latitude>
    <longitude>-61.6333333</longitude>
  </city>
  <city name="Acensión">
    <latitude>-10.8666667</latitude>
    <longitude>-66.65</longitude>
  </city>
  <city name="Acercani">
    <latitude>-17.4</latitude>
    <longitude>-69.3333333</longitude>
  </city>
  <city name="Acesilo">
    <latitude>-15.7666667</latitude>
    <longitude>-68.8166667</longitude>
  </city>
  <city name="Acevedo">
    <latitude>-18.5044444</latitude>
    <longitude>-64.975</longitude>
  </city>
  <city name="Achaca">
    <latitude>-16.6333333</latitude>
    <longitude>-68.7</longitude>
  </city>
  <city name="Achacachi">
    <latitude>-16.05</latitude>
    <longitude>-68.6833333</longitude>
  </city>
  <city name="Achacachi Chico">
    <latitude>-16.0166667</latitude>
    <longitude>-68.7666667</longitude>
  </city>
  <city name="Achacanaiyoc">
    <latitude>-21.7166667</latitude>
    <longitude>-66.1166667</longitude>
  </city>
  <city name="Achacanayoc">
    <latitude>-21.1333333</latitude>
    <longitude>-65.7166667</longitude>
  </city>
  <city name="Acha Icha">
    <latitude>-21.2166667</latitude>
    <longitude>-67.65</longitude>
  </city>
  <city name="Achairpa">
    <latitude>-16.8833333</latitude>
    <longitude>-68.3833333</longitude>
  </city>
  <city name="Achallcha">
    <latitude>-21.2166667</latitude>
    <longitude>-67.65</longitude>
  </city>
  <city name="Achapa">
    <latitude>-21.65</latitude>
    <longitude>-65.85</longitude>
  </city>
  <city name="Achapampa">
    <latitude>-15.4166667</latitude>
    <longitude>-68.5333333</longitude>
  </city>
  <city name="Achapata">
    <latitude>-19.2666667</latitude>
    <longitude>-67.0166667</longitude>
  </city>
  <city name="Achapatja">
    <latitude>-17.5333333</latitude>
    <longitude>-69.0166667</longitude>
  </city>
  <city name="Achavico">
    <latitude>-17.4</latitude>
    <longitude>-68.9166667</longitude>
  </city>
  <city name="Achica Abajo">
    <latitude>-16.7</latitude>
    <longitude>-68.2666667</longitude>
  </city>
  <city name="Achica Arriba">
    <latitude>-16.7166667</latitude>
    <longitude>-68.2166667</longitude>
  </city>
  <city name="Achicuiri">
    <latitude>-15.3666667</latitude>
    <longitude>-67.9333333</longitude>
  </city>
  <city name="Achila">
    <latitude>-15.8</latitude>
    <longitude>-68.0666667</longitude>
  </city>
  <city name="Achina">
    <latitude>-15.7333333</latitude>
    <longitude>-68.0666667</longitude>
  </city>
  <city name="Achipiri">
    <latitude>-15.1666667</latitude>
    <longitude>-68.2333333</longitude>
  </city>
  <city name="Achiquiri">
    <latitude>-15.1666667</latitude>
    <longitude>-68.2333333</longitude>
  </city>
  <city name="Achirales">
    <latitude>-22.1333333</latitude>
    <longitude>-64.4666667</longitude>
  </city>
  <city name="Achiralito">
    <latitude>-21.6333333</latitude>
    <longitude>-63.7833333</longitude>
  </city>
  <city name="Achiras">
    <latitude>-17.3333333</latitude>
    <longitude>-65.5333333</longitude>
  </city>
  <city name="Achiri">
    <latitude>-17.1666667</latitude>
    <longitude>-69.0166667</longitude>
  </city>
  <city name="Achitas">
    <latitude>-17.3333333</latitude>
    <longitude>-65.5333333</longitude>
  </city>
  <city name="Achoapata">
    <latitude>-19.2666667</latitude>
    <longitude>-67.0166667</longitude>
  </city>
  <city name="Achoata">
    <latitude>-19.2666667</latitude>
    <longitude>-67.0166667</longitude>
  </city>
  <city name="Achocalla">
    <latitude>-16.5833333</latitude>
    <longitude>-68.1666667</longitude>
  </city>
  <city name="Achojpaya">
    <latitude>-16.8166667</latitude>
    <longitude>-67.6333333</longitude>
  </city>
  <city name="Achoma">
    <latitude>-18.2666667</latitude>
    <longitude>-64.9666667</longitude>
  </city>
  <city name="Achuluni">
    <latitude>-15.6</latitude>
    <longitude>-69.2833333</longitude>
  </city>
  <city name="Achuma">
    <latitude>-20.9166667</latitude>
    <longitude>-65.3</longitude>
  </city>
  <city name="Achumani">
    <latitude>-16.5333333</latitude>
    <longitude>-68.0666667</longitude>
  </city>
  <city name="Acnapa">
    <latitude>-21.75</latitude>
    <longitude>-65.8166667</longitude>
  </city>
  <city name="Acoberayoc">
    <latitude>-21.45</latitude>
    <longitude>-66.65</longitude>
  </city>
  <city name="Acopata">
    <latitude>-17.15</latitude>
    <longitude>-68.7666667</longitude>
  </city>
  <city name="Acoribes">
    <latitude>-18.6166667</latitude>
    <longitude>-68.5166667</longitude>
  </city>
  <city name="Acquia">
    <latitude>-21.95</latitude>
    <longitude>-66.7166667</longitude>
  </city>
  <city name="Actapalla">
    <latitude>-20.8166667</latitude>
    <longitude>-65.7333333</longitude>
  </city>
  <city name="Acullani">
    <latitude>-16.6</latitude>
    <longitude>-67.3166667</longitude>
  </city>
  <city name="Aczuli Pampa">
    <latitude>-19.1252778</latitude>
    <longitude>-65.4638889</longitude>
  </city>
  <city name="Adelia">
    <latitude>-11.0166667</latitude>
    <longitude>-68.35</longitude>
  </city>
  <city name="Adivino Amaya">
    <latitude>-17.0833333</latitude>
    <longitude>-68.6666667</longitude>
  </city>
  <city name="Adoberayoc">
    <latitude>-21.45</latitude>
    <longitude>-66.65</longitude>
  </city>
  <city name="Aduana">
    <latitude>-17.55</latitude>
    <longitude>-65.2333333</longitude>
  </city>
  <city name="Agana">
    <latitude>-15.8833333</latitude>
    <longitude>-67.8166667</longitude>
  </city>
  <city name="Agapito">
    <latitude>-10.7833333</latitude>
    <longitude>-67.35</longitude>
  </city>
  <city name="A. Garzón">
    <latitude>-20.9833333</latitude>
    <longitude>-63.1666667</longitude>
  </city>
  <city name="Agdo">
    <latitude>-10.45</latitude>
    <longitude>-67.4833333</longitude>
  </city>
  <city name="Agua">
    <latitude>-20.65</latitude>
    <longitude>-68.1833333</longitude>
  </city>
  <city name="Agua Blanca">
    <latitude>-18.1833333</latitude>
    <longitude>-64.6333333</longitude>
  </city>
  <city name="Agua Buena">
    <latitude>-19.0</latitude>
    <longitude>-63.4166667</longitude>
  </city>
  <city name="Agua Caliente">
    <latitude>-19.5833333</latitude>
    <longitude>-64.0833333</longitude>
  </city>
  <city name="Aguacandita">
    <latitude>-21.85</latitude>
    <longitude>-63.8166667</longitude>
  </city>
  <city name="Agua Castilla">
    <latitude>-21.0</latitude>
    <longitude>-64.6</longitude>
  </city>
  <city name="Agua Chica">
    <latitude>-21.0833333</latitude>
    <longitude>-67.25</longitude>
  </city>
  <city name="Aguacho">
    <latitude>-18.2666667</latitude>
    <longitude>-67.2</longitude>
  </city>
  <city name="Agua Clara">
    <latitude>-19.0666667</latitude>
    <longitude>-63.0333333</longitude>
  </city>
  <city name="Aguada">
    <latitude>-17.1</latitude>
    <longitude>-66.6166667</longitude>
  </city>
  <city name="Aguada de Jaraloma">
    <latitude>-20.75</latitude>
    <longitude>-68.2333333</longitude>
  </city>
  <city name="Aguada de Pantalaca">
    <latitude>-20.65</latitude>
    <longitude>-68.1833333</longitude>
  </city>
  <city name="Aguada de Poruncha">
    <latitude>-20.85</latitude>
    <longitude>-68.3666667</longitude>
  </city>
  <city name="Aguada de Quiaquilani">
    <latitude>-20.2333333</latitude>
    <longitude>-68.4</longitude>
  </city>
  <city name="Aguada de Quiaquillani">
    <latitude>-20.2333333</latitude>
    <longitude>-68.4</longitude>
  </city>
  <city name="Aguada de Quillaquillani">
    <latitude>-20.2333333</latitude>
    <longitude>-68.4</longitude>
  </city>
  <city name="Aguada de Tapia">
    <latitude>-20.75</latitude>
    <longitude>-68.15</longitude>
  </city>
  <city name="Aguada de Tapis">
    <latitude>-20.75</latitude>
    <longitude>-68.15</longitude>
  </city>
  <city name="Aguada Quiaquillani">
    <latitude>-20.2333333</latitude>
    <longitude>-68.4</longitude>
  </city>
  <city name="Agua de Castilla">
    <latitude>-20.9333333</latitude>
    <longitude>-66.7666667</longitude>
  </city>
  <city name="Aguadilla">
    <latitude>-21.7166667</latitude>
    <longitude>-66.0166667</longitude>
  </city>
  <city name="Aguaditas">
    <latitude>-18.7666667</latitude>
    <longitude>-64.05</longitude>
  </city>
  <city name="Agua Dulce">
    <latitude>-12.5833333</latitude>
    <longitude>-65.5666667</longitude>
  </city>
  <city name="Agua Fea">
    <latitude>-18.9666667</latitude>
    <longitude>-63.0333333</longitude>
  </city>
  <city name="Agua Hedionda">
    <latitude>-20.9</latitude>
    <longitude>-64.1</longitude>
  </city>
  <city name="Aguaira">
    <latitude>-19.9833333</latitude>
    <longitude>-63.0666667</longitude>
  </city>
  <city name="Aguairenda">
    <latitude>-21.8333333</latitude>
    <longitude>-63.75</longitude>
  </city>
  <city name="Aguairendita">
    <latitude>-21.8333333</latitude>
    <longitude>-63.75</longitude>
  </city>
  <city name="Aguaises">
    <latitude>-17.9333333</latitude>
    <longitude>-63.2166667</longitude>
  </city>
  <city name="Aguallamaya">
    <latitude>-16.8333333</latitude>
    <longitude>-68.9333333</longitude>
  </city>
  <city name="Agua Milada">
    <latitude>-20.5333333</latitude>
    <longitude>-66.5333333</longitude>
  </city>
  <city name="Agua Milagra">
    <latitude>-19.2833333</latitude>
    <longitude>-67.1166667</longitude>
  </city>
  <city name="Aguamilagro">
    <latitude>-14.2833333</latitude>
    <longitude>-68.2</longitude>
  </city>
  <city name="Agua Milagro">
    <latitude>-16.0333333</latitude>
    <longitude>-67.1666667</longitude>
  </city>
  <city name="Agua Millada">
    <latitude>-20.5333333</latitude>
    <longitude>-66.5333333</longitude>
  </city>
  <city name="Agua Panda">
    <latitude>-18.05</latitude>
    <longitude>-60.85</longitude>
  </city>
  <city name="Agua Pande">
    <latitude>-18.05</latitude>
    <longitude>-60.85</longitude>
  </city>
  <city name="Agua Pasta">
    <latitude>-19.4666667</latitude>
    <longitude>-61.2</longitude>
  </city>
  <city name="Agua Pasto">
    <latitude>-19.4666667</latitude>
    <longitude>-61.2</longitude>
  </city>
  <city name="Aguaquisa">
    <latitude>-20.5666667</latitude>
    <longitude>-67.75</longitude>
  </city>
  <city name="Aguaragüe">
    <latitude>-21.4666667</latitude>
    <longitude>-63.5166667</longitude>
  </city>
  <city name="Aguarai">
    <latitude>-21.4666667</latitude>
    <longitude>-63.5166667</longitude>
  </city>
  <city name="Aguarate Guazú">
    <latitude>-19.3166667</latitude>
    <longitude>-62.4333333</longitude>
  </city>
  <city name="Aguarate-mi">
    <latitude>-19.3333333</latitude>
    <longitude>-62.4666667</longitude>
  </city>
  <city name="Aguaray">
    <latitude>-21.4666667</latitude>
    <longitude>-63.5166667</longitude>
  </city>
  <city name="Aguarda">
    <latitude>-20.6</latitude>
    <longitude>-66.4666667</longitude>
  </city>
  <city name="Aguardaloma">
    <latitude>-21.35</latitude>
    <longitude>-66.0666667</longitude>
  </city>
  <city name="Aguarendita">
    <latitude>-21.8333333</latitude>
    <longitude>-63.75</longitude>
  </city>
  <city name="Aguareteguazú">
    <latitude>-19.3166667</latitude>
    <longitude>-62.4333333</longitude>
  </city>
  <city name="Aguaretemí">
    <latitude>-19.3333333</latitude>
    <longitude>-62.4666667</longitude>
  </city>
  <city name="Agua Retirada">
    <latitude>-18.5333333</latitude>
    <longitude>-59.1833333</longitude>
  </city>
  <city name="Agua Rica">
    <latitude>-21.5166667</latitude>
    <longitude>-63.4833333</longitude>
  </city>
  <city name="Agua Salada">
    <latitude>-21.3833333</latitude>
    <longitude>-63.6333333</longitude>
  </city>
  <city name="Aguas Calientes">
    <latitude>-19.5833333</latitude>
    <longitude>-64.0833333</longitude>
  </city>
  <city name="Aguas Claras">
    <latitude>-16.55</latitude>
    <longitude>-67.4333333</longitude>
  </city>
  <city name="Agua Sulfhídrica">
    <latitude>-22.7333333</latitude>
    <longitude>-64.3666667</longitude>
  </city>
  <city name="Agua Sulfídrica">
    <latitude>-22.7333333</latitude>
    <longitude>-64.3666667</longitude>
  </city>
  <city name="Aguaypalos">
    <latitude>-21.1666667</latitude>
    <longitude>-64.3833333</longitude>
  </city>
  <city name="Aguayrenda">
    <latitude>-21.8666667</latitude>
    <longitude>-63.6666667</longitude>
  </city>
  <city name="Agua Zande">
    <latitude>-18.05</latitude>
    <longitude>-60.85</longitude>
  </city>
  <city name="Aguilani">
    <latitude>-16.7166667</latitude>
    <longitude>-67.35</longitude>
  </city>
  <city name="Aguilar">
    <latitude>-16.7166667</latitude>
    <longitude>-67.35</longitude>
  </city>
  <city name="Aguilera">
    <latitude>-11.5166667</latitude>
    <longitude>-68.0166667</longitude>
  </city>
  <city name="Aguirre">
    <latitude>-17.3666667</latitude>
    <longitude>-65.7333333</longitude>
  </city>
  <city name="Aguita Chica">
    <latitude>-22.0833333</latitude>
    <longitude>-65.5833333</longitude>
  </city>
  <city name="Aguo Blanca">
    <latitude>-10.3</latitude>
    <longitude>-66.25</longitude>
  </city>
  <city name="Aguricoba">
    <latitude>-10.4333333</latitude>
    <longitude>-66.8</longitude>
  </city>
  <city name="Agustín">
    <latitude>-17.1666667</latitude>
    <longitude>-61.6333333</longitude>
  </city>
  <city name="Aigachi">
    <latitude>-16.3666667</latitude>
    <longitude>-68.6166667</longitude>
  </city>
  <city name="Aigú">
    <latitude>-17.4833333</latitude>
    <longitude>-61.6</longitude>
  </city>
  <city name="Aijuríco">
    <latitude>-15.0</latitude>
    <longitude>-65.0333333</longitude>
  </city>
  <city name="Ailaico">
    <latitude>-16.3333333</latitude>
    <longitude>-68.1</longitude>
  </city>
  <city name="Aillaico">
    <latitude>-16.3333333</latitude>
    <longitude>-68.1</longitude>
  </city>
  <city name="Aillolaya">
    <latitude>-15.1833333</latitude>
    <longitude>-68.7166667</longitude>
  </city>
  <city name="Aimaya">
    <latitude>-18.4333333</latitude>
    <longitude>-66.5166667</longitude>
  </city>
  <city name="Aime">
    <latitude>-11.7833333</latitude>
    <longitude>-66.6666667</longitude>
  </city>
  <city name="Aimidonani">
    <latitude>-17.7333333</latitude>
    <longitude>-68.2666667</longitude>
  </city>
  <city name="Aimirí">
    <latitude>-19.3833333</latitude>
    <longitude>-63.3</longitude>
  </city>
  <city name="Ainachuta">
    <latitude>-17.8</latitude>
    <longitude>-68.95</longitude>
  </city>
  <city name="Aiquile">
    <latitude>-18.1666667</latitude>
    <longitude>-65.1666667</longitude>
  </city>
  <city name="Aiyuiv">
    <latitude>-15.1833333</latitude>
    <longitude>-67.0666667</longitude>
  </city>
  <city name="Ajamarca">
    <latitude>-17.3666667</latitude>
    <longitude>-67.0666667</longitude>
  </city>
  <city name="Ajañani">
    <latitude>-16.1666667</latitude>
    <longitude>-69.0</longitude>
  </city>
  <city name="Ajchilla">
    <latitude>-20.35</latitude>
    <longitude>-64.8166667</longitude>
  </city>
  <city name="Ajial">
    <latitude>-18.4666667</latitude>
    <longitude>-65.3166667</longitude>
  </city>
  <city name="Ajinaluyani">
    <latitude>-16.5</latitude>
    <longitude>-68.6</longitude>
  </city>
  <city name="Ajllata">
    <latitude>-16.0166667</latitude>
    <longitude>-68.7833333</longitude>
  </city>
  <city name="Ajtara">
    <latitude>-19.0666667</latitude>
    <longitude>-65.95</longitude>
  </city>
  <city name="Ajusan">
    <latitude>-15.4</latitude>
    <longitude>-68.5333333</longitude>
  </city>
  <city name="Ajusani">
    <latitude>-15.4</latitude>
    <longitude>-68.5166667</longitude>
  </city>
  <city name="Ajusticiado">
    <latitude>-16.65</latitude>
    <longitude>-66.8166667</longitude>
  </city>
  <city name="Alaconi">
    <latitude>-17.1666667</latitude>
    <longitude>-69.15</longitude>
  </city>
  <city name="Alalay">
    <latitude>-17.6833333</latitude>
    <longitude>-65.6833333</longitude>
  </city>
  <city name="Alapaxa">
    <latitude>-19.5666667</latitude>
    <longitude>-67.9666667</longitude>
  </city>
  <city name="Alarachi">
    <latitude>-22.2</latitude>
    <longitude>-64.6333333</longitude>
  </city>
  <city name="Alba">
    <latitude>-17.7666667</latitude>
    <longitude>-60.6</longitude>
  </city>
  <city name="Albertopa">
    <latitude>-19.7333333</latitude>
    <longitude>-64.2333333</longitude>
  </city>
  <city name="Alberto-Pampa">
    <latitude>-19.7333333</latitude>
    <longitude>-64.2333333</longitude>
  </city>
  <city name="Albertoque">
    <latitude>-19.7333333</latitude>
    <longitude>-64.2333333</longitude>
  </city>
  <city name="Alcalá">
    <latitude>-19.3666667</latitude>
    <longitude>-64.4166667</longitude>
  </city>
  <city name="Alcalá Tambo">
    <latitude>-19.35</latitude>
    <longitude>-66.0666667</longitude>
  </city>
  <city name="Alcalde Pampa">
    <latitude>-19.5666667</latitude>
    <longitude>-64.4833333</longitude>
  </city>
  <city name="Alcamariyoc">
    <latitude>-21.65</latitude>
    <longitude>-66.7333333</longitude>
  </city>
  <city name="Alcaria">
    <latitude>-18.3833333</latitude>
    <longitude>-66.4333333</longitude>
  </city>
  <city name="Alcatambo">
    <latitude>-19.7</latitude>
    <longitude>-65.7666667</longitude>
  </city>
  <city name="Alcautal">
    <latitude>-20.1</latitude>
    <longitude>-63.9</longitude>
  </city>
  <city name="Alcaya">
    <latitude>-19.6166667</latitude>
    <longitude>-67.7666667</longitude>
  </city>
  <city name="Alcayatal">
    <latitude>-20.1</latitude>
    <longitude>-63.9</longitude>
  </city>
  <city name="Alcoche">
    <latitude>-15.7</latitude>
    <longitude>-67.6666667</longitude>
  </city>
  <city name="Alcornocal">
    <latitude>-17.7666667</latitude>
    <longitude>-63.3666667</longitude>
  </city>
  <city name="Alcotambo">
    <latitude>-19.7</latitude>
    <longitude>-65.7666667</longitude>
  </city>
  <city name="Aldea de Bororos">
    <latitude>-16.3833333</latitude>
    <longitude>-58.4</longitude>
  </city>
  <city name="Alegre">
    <latitude>-10.3666667</latitude>
    <longitude>-67.3166667</longitude>
  </city>
  <city name="Alegrete">
    <latitude>-10.75</latitude>
    <longitude>-65.5666667</longitude>
  </city>
  <city name="Alejandría">
    <latitude>-12.0666667</latitude>
    <longitude>-65.15</longitude>
  </city>
  <city name="Algarrobal">
    <latitude>-18.05</latitude>
    <longitude>-65.05</longitude>
  </city>
  <city name="Algarrobilla">
    <latitude>-21.3666667</latitude>
    <longitude>-63.5</longitude>
  </city>
  <city name="Algarrobillo">
    <latitude>-18.1</latitude>
    <longitude>-62.95</longitude>
  </city>
  <city name="Algarrobillos">
    <latitude>-21.9166667</latitude>
    <longitude>-63.1833333</longitude>
  </city>
  <city name="Algodonal">
    <latitude>-20.3833333</latitude>
    <longitude>-64.4166667</longitude>
  </city>
  <city name="Alianza">
    <latitude>-10.9333333</latitude>
    <longitude>-66.05</longitude>
  </city>
  <city name="Aliaza">
    <latitude>-10.9333333</latitude>
    <longitude>-66.05</longitude>
  </city>
  <city name="Alicia">
    <latitude>-10.9833333</latitude>
    <longitude>-69.0333333</longitude>
  </city>
  <city name="Alisani">
    <latitude>-16.9</latitude>
    <longitude>-66.6666667</longitude>
  </city>
  <city name="Alisas">
    <latitude>-21.85</latitude>
    <longitude>-64.9333333</longitude>
  </city>
  <city name="Aliso Mayu">
    <latitude>-19.3</latitude>
    <longitude>-64.6666667</longitude>
  </city>
  <city name="Alisuni">
    <latitude>-16.9</latitude>
    <longitude>-66.6666667</longitude>
  </city>
  <city name="Alizos">
    <latitude>-21.85</latitude>
    <longitude>-64.9333333</longitude>
  </city>
  <city name="Allagracia">
    <latitude>-11.6</latitude>
    <longitude>-68.25</longitude>
  </city>
  <city name="Allallica">
    <latitude>-16.8</latitude>
    <longitude>-67.9666667</longitude>
  </city>
  <city name="Allangua">
    <latitude>-19.8</latitude>
    <longitude>-63.7666667</longitude>
  </city>
  <city name="Allita">
    <latitude>-20.4</latitude>
    <longitude>-66.6</longitude>
  </city>
  <city name="Allitas">
    <latitude>-20.4</latitude>
    <longitude>-66.6</longitude>
  </city>
  <city name="Allituma">
    <latitude>-19.3166667</latitude>
    <longitude>-68.3666667</longitude>
  </city>
  <city name="Allpacoma">
    <latitude>-16.5333333</latitude>
    <longitude>-68.15</longitude>
  </city>
  <city name="Allpakeri">
    <latitude>-17.9333333</latitude>
    <longitude>-69.0833333</longitude>
  </city>
  <city name="Allpaqueri">
    <latitude>-17.85</latitude>
    <longitude>-68.4333333</longitude>
  </city>
  <city name="Almacén">
    <latitude>-14.0166667</latitude>
    <longitude>-62.05</longitude>
  </city>
  <city name="Almasaruchipa">
    <latitude>-21.4666667</latitude>
    <longitude>-66.0833333</longitude>
  </city>
  <city name="Almendral">
    <latitude>-11.05</latitude>
    <longitude>-65.7</longitude>
  </city>
  <city name="Almendras">
    <latitude>-18.0666667</latitude>
    <longitude>-63.2666667</longitude>
  </city>
  <city name="Almendro">
    <latitude>-18.5666667</latitude>
    <longitude>-59.05</longitude>
  </city>
  <city name="Almendros">
    <latitude>-18.5666667</latitude>
    <longitude>-59.05</longitude>
  </city>
  <city name="Almona">
    <latitude>-21.15</latitude>
    <longitude>-65.7833333</longitude>
  </city>
  <city name="Almonedas">
    <latitude>-10.6333333</latitude>
    <longitude>-66.2666667</longitude>
  </city>
  <city name="Aloohuasi">
    <latitude>-21.5833333</latitude>
    <longitude>-66.4</longitude>
  </city>
  <city name="Alota">
    <latitude>-21.4</latitude>
    <longitude>-67.5666667</longitude>
  </city>
  <city name="Alpaca">
    <latitude>-18.4333333</latitude>
    <longitude>-65.8</longitude>
  </city>
  <city name="Alpacan">
    <latitude>-19.9333333</latitude>
    <longitude>-66.9833333</longitude>
  </city>
  <city name="Alpacoma">
    <latitude>-16.6</latitude>
    <longitude>-68.1833333</longitude>
  </city>
  <city name="Alpahuasi">
    <latitude>-21.1333333</latitude>
    <longitude>-65.8666667</longitude>
  </city>
  <city name="Alpampa">
    <latitude>-20.4</latitude>
    <longitude>-66.6</longitude>
  </city>
  <city name="Alsacia">
    <latitude>-10.6666667</latitude>
    <longitude>-66.3833333</longitude>
  </city>
  <city name="Alsacia Cosulta">
    <latitude>-10.6666667</latitude>
    <longitude>-66.3833333</longitude>
  </city>
  <city name="Alsarsia">
    <latitude>-10.6666667</latitude>
    <longitude>-66.3833333</longitude>
  </city>
  <city name="Alsuri">
    <latitude>-17.8333333</latitude>
    <longitude>-68.0666667</longitude>
  </city>
  <city name="Alta Gracia">
    <latitude>-13.25</latitude>
    <longitude>-64.1666667</longitude>
  </city>
  <city name="Altagracia">
    <latitude>-11.6</latitude>
    <longitude>-68.25</longitude>
  </city>
  <city name="Altamachi">
    <latitude>-17.0333333</latitude>
    <longitude>-66.4333333</longitude>
  </city>
  <city name="Altamarani">
    <latitude>-14.35</latitude>
    <longitude>-67.5666667</longitude>
  </city>
  <city name="Altamirani">
    <latitude>-17.5166667</latitude>
    <longitude>-68.5</longitude>
  </city>
  <city name="Altampasi">
    <latitude>-21.2833333</latitude>
    <longitude>-66.2166667</longitude>
  </city>
  <city name="Altapampa">
    <latitude>-20.4</latitude>
    <longitude>-66.6</longitude>
  </city>
  <city name="Alta Vista">
    <latitude>-14.7166667</latitude>
    <longitude>-62.4</longitude>
  </city>
  <city name="Alto Achacana">
    <latitude>-16.7833333</latitude>
    <longitude>-69.1666667</longitude>
  </city>
  <city name="Alto Almacén">
    <latitude>-14.3333333</latitude>
    <longitude>-62.1666667</longitude>
  </city>
  <city name="Alto">
    <latitude>-15.6</latitude>
    <longitude>-68.4833333</longitude>
  </city>
  <city name="Alto Barranca">
    <latitude>-21.5833333</latitude>
    <longitude>-66.7833333</longitude>
  </city>
  <city name="Alto Camiri">
    <latitude>-20.1</latitude>
    <longitude>-63.5333333</longitude>
  </city>
  <city name="Alto Chaparé">
    <latitude>-16.8</latitude>
    <longitude>-65.1333333</longitude>
  </city>
  <city name="Alto Comanehi">
    <latitude>-17.05</latitude>
    <longitude>-68.4833333</longitude>
  </city>
  <city name="Alto de Cajas">
    <latitude>-21.35</latitude>
    <longitude>-64.5</longitude>
  </city>
  <city name="Alto de Comanche">
    <latitude>-17.05</latitude>
    <longitude>-68.4833333</longitude>
  </city>
  <city name="Alto de España">
    <latitude>-21.3833333</latitude>
    <longitude>-64.4333333</longitude>
  </city>
  <city name="Alto de las Sierras">
    <latitude>-18.35</latitude>
    <longitude>-63.7833333</longitude>
  </city>
  <city name="Alto de los Zarzos">
    <latitude>-21.4666667</latitude>
    <longitude>-63.9</longitude>
  </city>
  <city name="Alto de Tareira">
    <latitude>-19.6666667</latitude>
    <longitude>-63.6</longitude>
  </city>
  <city name="Alto de Tereira">
    <latitude>-19.6666667</latitude>
    <longitude>-63.6</longitude>
  </city>
  <city name="Alto Ipaguazi">
    <latitude>-21.4</latitude>
    <longitude>-63.8333333</longitude>
  </city>
  <city name="Alto Lajitas">
    <latitude>-21.5666667</latitude>
    <longitude>-63.6833333</longitude>
  </city>
  <city name="Alto Lima">
    <latitude>-16.4833333</latitude>
    <longitude>-68.1833333</longitude>
  </city>
  <city name="Alto Madidi">
    <latitude>-13.6333333</latitude>
    <longitude>-68.7416667</longitude>
  </city>
  <city name="Alto Porvenir">
    <latitude>-11.35</latitude>
    <longitude>-69.2166667</longitude>
  </city>
  <city name="Altos">
    <latitude>-14.5</latitude>
    <longitude>-68.4666667</longitude>
  </city>
  <city name="Alto Seco">
    <latitude>-18.8666667</latitude>
    <longitude>-64.1166667</longitude>
  </city>
  <city name="Altura Nueva Brema">
    <latitude>-12.55</latitude>
    <longitude>-64.4</longitude>
  </city>
  <city name="Alum Ita">
    <latitude>-17.1</latitude>
    <longitude>-68.6166667</longitude>
  </city>
  <city name="Alves">
    <latitude>-9.8333333</latitude>
    <longitude>-65.6333333</longitude>
  </city>
  <city name="Alvis">
    <latitude>-14.6333333</latitude>
    <longitude>-63.15</longitude>
  </city>
  <city name="Amachani">
    <latitude>-15.7666667</latitude>
    <longitude>-68.85</longitude>
  </city>
  <city name="Amachuma">
    <latitude>-21.1333333</latitude>
    <longitude>-65.4333333</longitude>
  </city>
  <city name="Amachuma Grande">
    <latitude>-18.4</latitude>
    <longitude>-68.3</longitude>
  </city>
  <city name="Amachumama">
    <latitude>-18.4</latitude>
    <longitude>-68.35</longitude>
  </city>
  <city name="Amachumani">
    <latitude>-17.6166667</latitude>
    <longitude>-67.4</longitude>
  </city>
  <city name="Amachuta">
    <latitude>-17.8</latitude>
    <longitude>-68.95</longitude>
  </city>
  <city name="Amaguaya">
    <latitude>-15.9333333</latitude>
    <longitude>-68.2666667</longitude>
  </city>
  <city name="Amanati">
    <latitude>-19.2833333</latitude>
    <longitude>-62.4333333</longitude>
  </city>
  <city name="Amancaya">
    <latitude>-19.3166667</latitude>
    <longitude>-64.55</longitude>
  </city>
  <city name="Amani">
    <latitude>-17.4166667</latitude>
    <longitude>-68.95</longitude>
  </city>
  <city name="Amañoken">
    <latitude>-17.7333333</latitude>
    <longitude>-68.6166667</longitude>
  </city>
  <city name="Amañokeri">
    <latitude>-17.7333333</latitude>
    <longitude>-68.6166667</longitude>
  </city>
  <city name="Amarete">
    <latitude>-15.2333333</latitude>
    <longitude>-68.9666667</longitude>
  </city>
  <city name="Amaro">
    <latitude>-19.5166667</latitude>
    <longitude>-68.4833333</longitude>
  </city>
  <city name="Amaru">
    <latitude>-19.4666667</latitude>
    <longitude>-64.4</longitude>
  </city>
  <city name="Amauari">
    <latitude>-11.2333333</latitude>
    <longitude>-68.2333333</longitude>
  </city>
  <city name="Amaya">
    <latitude>-18.4833333</latitude>
    <longitude>-66.4333333</longitude>
  </city>
  <city name="Amayapampa">
    <latitude>-18.4833333</latitude>
    <longitude>-66.4333333</longitude>
  </city>
  <city name="Ambaibo">
    <latitude>-16.8833333</latitude>
    <longitude>-62.85</longitude>
  </city>
  <city name="Ambaito">
    <latitude>-16.8833333</latitude>
    <longitude>-62.85</longitude>
  </city>
  <city name="Ambaná">
    <latitude>-15.4666667</latitude>
    <longitude>-69.0</longitude>
  </city>
  <city name="Amboró">
    <latitude>-17.6166667</latitude>
    <longitude>-63.6166667</longitude>
  </city>
  <city name="Amboro Nuevo">
    <latitude>-19.7166667</latitude>
    <longitude>-62.6166667</longitude>
  </city>
  <city name="Ambreo">
    <latitude>-10.4833333</latitude>
    <longitude>-66.8333333</longitude>
  </city>
  <city name="Amenati">
    <latitude>-19.2833333</latitude>
    <longitude>-62.4333333</longitude>
  </city>
  <city name="Amenet">
    <latitude>-19.2833333</latitude>
    <longitude>-62.4333333</longitude>
  </city>
  <city name="Amereta">
    <latitude>-21.5</latitude>
    <longitude>-64.0333333</longitude>
  </city>
  <city name="Amerete">
    <latitude>-21.5</latitude>
    <longitude>-64.0333333</longitude>
  </city>
  <city name="América">
    <latitude>-11.2833333</latitude>
    <longitude>-66.1333333</longitude>
  </city>
  <city name="Amiraya">
    <latitude>-17.4833333</latitude>
    <longitude>-66.3</longitude>
  </city>
  <city name="Ampa Ampa">
    <latitude>-20.3</latitude>
    <longitude>-65.4</longitude>
  </city>
  <city name="Ampaya">
    <latitude>-19.25</latitude>
    <longitude>-65.2333333</longitude>
  </city>
  <city name="Ampicolque">
    <latitude>-17.2333333</latitude>
    <longitude>-67.35</longitude>
  </city>
  <city name="Amta Auta">
    <latitude>-17.3166667</latitude>
    <longitude>-68.6333333</longitude>
  </city>
  <city name="Amullajta">
    <latitude>-17.0333333</latitude>
    <longitude>-67.8</longitude>
  </city>
  <city name="Amutari">
    <latitude>-11.2333333</latitude>
    <longitude>-68.2333333</longitude>
  </city>
  <city name="Aña">
    <latitude>-21.3</latitude>
    <longitude>-65.5</longitude>
  </city>
  <city name="Anaca">
    <latitude>-17.2</latitude>
    <longitude>-68.7666667</longitude>
  </city>
  <city name="Añahuani">
    <latitude>-18.2166667</latitude>
    <longitude>-65.65</longitude>
  </city>
  <city name="Anahuayani">
    <latitude>-18.2166667</latitude>
    <longitude>-65.65</longitude>
  </city>
  <city name="Anahui">
    <latitude>-21.2666667</latitude>
    <longitude>-66.1833333</longitude>
  </city>
  <city name="Anahuiloma">
    <latitude>-21.5</latitude>
    <longitude>-66.1666667</longitude>
  </city>
  <city name="Anahulloma">
    <latitude>-21.5</latitude>
    <longitude>-66.1666667</longitude>
  </city>
  <city name="Anahuna">
    <latitude>-21.2666667</latitude>
    <longitude>-66.0</longitude>
  </city>
  <city name="Analoa">
    <latitude>-20.5666667</latitude>
    <longitude>-68.1333333</longitude>
  </city>
  <city name="Ananea">
    <latitude>-15.5333333</latitude>
    <longitude>-68.7333333</longitude>
  </city>
  <city name="Anarchuyo">
    <latitude>-19.35</latitude>
    <longitude>-67.2333333</longitude>
  </city>
  <city name="Anarchuyu">
    <latitude>-19.35</latitude>
    <longitude>-67.2333333</longitude>
  </city>
  <city name="Añarenda">
    <latitude>-21.0666667</latitude>
    <longitude>-64.1</longitude>
  </city>
  <city name="Anaruya">
    <latitude>-21.0666667</latitude>
    <longitude>-65.8833333</longitude>
  </city>
  <city name="Anayani">
    <latitude>-17.1333333</latitude>
    <longitude>-68.5333333</longitude>
  </city>
  <city name="Ancacato">
    <latitude>-18.8833333</latitude>
    <longitude>-66.6666667</longitude>
  </city>
  <city name="Ancacora">
    <latitude>-19.9333333</latitude>
    <longitude>-63.1833333</longitude>
  </city>
  <city name="Ancañasa">
    <latitude>-20.8833333</latitude>
    <longitude>-63.7166667</longitude>
  </city>
  <city name="Ancara">
    <latitude>-16.8166667</latitude>
    <longitude>-68.2166667</longitude>
  </city>
  <city name="Ancarani">
    <latitude>-18.8833333</latitude>
    <longitude>-65.2666667</longitude>
  </city>
  <city name="Ancaravi">
    <latitude>-18.4</latitude>
    <longitude>-67.7666667</longitude>
  </city>
  <city name="Ancasoro">
    <latitude>-19.9333333</latitude>
    <longitude>-63.1833333</longitude>
  </city>
  <city name="Ancazoro">
    <latitude>-19.9333333</latitude>
    <longitude>-63.1833333</longitude>
  </city>
  <city name="Ancelmo">
    <latitude>-15.2333333</latitude>
    <longitude>-68.3333333</longitude>
  </city>
  <city name="Anchaplaya">
    <latitude>-14.05</latitude>
    <longitude>-68.8833333</longitude>
  </city>
  <city name="Ancheplaya">
    <latitude>-14.05</latitude>
    <longitude>-68.8833333</longitude>
  </city>
  <city name="Anchocara">
    <latitude>-17.05</latitude>
    <longitude>-67.6333333</longitude>
  </city>
  <city name="Anchodaya">
    <latitude>-14.05</latitude>
    <longitude>-68.8833333</longitude>
  </city>
  <city name="Anchopata">
    <latitude>-14.05</latitude>
    <longitude>-68.8833333</longitude>
  </city>
  <city name="Anchopaya">
    <latitude>-14.05</latitude>
    <longitude>-68.8833333</longitude>
  </city>
  <city name="Anciaqui">
    <latitude>-15.5833333</latitude>
    <longitude>-67.95</longitude>
  </city>
  <city name="Ancoamaya">
    <latitude>-16.2</latitude>
    <longitude>-68.8166667</longitude>
  </city>
  <city name="Ancoaque">
    <latitude>-15.5833333</latitude>
    <longitude>-67.95</longitude>
  </city>
  <city name="Anco-aque">
    <latitude>-16.75</latitude>
    <longitude>-68.95</longitude>
  </city>
  <city name="Ancocahua">
    <latitude>-16.4166667</latitude>
    <longitude>-68.5333333</longitude>
  </city>
  <city name="Ancocala">
    <latitude>-15.5666667</latitude>
    <longitude>-68.1</longitude>
  </city>
  <city name="Ancocalani">
    <latitude>-15.4</latitude>
    <longitude>-68.5166667</longitude>
  </city>
  <city name="Ancocola">
    <latitude>-18.4333333</latitude>
    <longitude>-67.6833333</longitude>
  </city>
  <city name="Ancocolla">
    <latitude>-19.4333333</latitude>
    <longitude>-67.4</longitude>
  </city>
  <city name="Ancocolo">
    <latitude>-18.4333333</latitude>
    <longitude>-67.6833333</longitude>
  </city>
  <city name="Ancocoto">
    <latitude>-19.4333333</latitude>
    <longitude>-67.4</longitude>
  </city>
  <city name="Ancohua">
    <latitude>-18.5666667</latitude>
    <longitude>-67.6166667</longitude>
  </city>
  <city name="Ancohuma">
    <latitude>-15.75</latitude>
    <longitude>-68.55</longitude>
  </city>
  <city name="Ancola">
    <latitude>-18.4333333</latitude>
    <longitude>-67.6833333</longitude>
  </city>
  <city name="Ancolayma">
    <latitude>-18.6</latitude>
    <longitude>-66.4833333</longitude>
  </city>
  <city name="Ancoma">
    <latitude>-15.7666667</latitude>
    <longitude>-68.55</longitude>
  </city>
  <city name="Ancomarca">
    <latitude>-17.2166667</latitude>
    <longitude>-68.95</longitude>
  </city>
  <city name="Ancomaya">
    <latitude>-19.4</latitude>
    <longitude>-65.2333333</longitude>
  </city>
  <city name="Ancona">
    <latitude>-19.1169444</latitude>
    <longitude>-65.6447222</longitude>
  </city>
  <city name="Ancón">
    <latitude>-21.6166667</latitude>
    <longitude>-64.6666667</longitude>
  </city>
  <city name="Ancoraimes">
    <latitude>-15.9</latitude>
    <longitude>-68.9666667</longitude>
  </city>
  <city name="Ancorovi">
    <latitude>-18.4</latitude>
    <longitude>-67.7666667</longitude>
  </city>
  <city name="Ancoruma">
    <latitude>-17.5</latitude>
    <longitude>-66.7333333</longitude>
  </city>
  <city name="Ancosuni">
    <latitude>-16.7833333</latitude>
    <longitude>-67.9666667</longitude>
  </city>
  <city name="Ancota">
    <latitude>-15.5333333</latitude>
    <longitude>-68.0166667</longitude>
  </city>
  <city name="Ancoyo">
    <latitude>-19.7166667</latitude>
    <longitude>-67.6833333</longitude>
  </city>
  <city name="Andaca">
    <latitude>-17.3166667</latitude>
    <longitude>-68.75</longitude>
  </city>
  <city name="Andacaba">
    <latitude>-19.8166667</latitude>
    <longitude>-65.6333333</longitude>
  </city>
  <city name="Andacave">
    <latitude>-19.8166667</latitude>
    <longitude>-65.6333333</longitude>
  </city>
  <city name="Andamarca">
    <latitude>-18.7666667</latitude>
    <longitude>-67.5166667</longitude>
  </city>
  <city name="Andapata">
    <latitude>-18.2333333</latitude>
    <longitude>-67.9666667</longitude>
  </city>
  <city name="Andarivi">
    <latitude>-16.9333333</latitude>
    <longitude>-68.3</longitude>
  </city>
  <city name="Andavilque">
    <latitude>-18.4</latitude>
    <longitude>-66.5833333</longitude>
  </city>
  <city name="Andén">
    <latitude>-17.9666667</latitude>
    <longitude>-65.9</longitude>
  </city>
  <city name="Andenes">
    <latitude>-17.85</latitude>
    <longitude>-65.9833333</longitude>
  </city>
  <city name="Andenpampa">
    <latitude>-17.9166667</latitude>
    <longitude>-65.9166667</longitude>
  </city>
  <city name="Andrés">
    <latitude>-17.8333333</latitude>
    <longitude>-58.75</longitude>
  </city>
  <city name="Añez">
    <latitude>-10.8666667</latitude>
    <longitude>-66.5333333</longitude>
  </city>
  <city name="Angelcasa">
    <latitude>-20.9333333</latitude>
    <longitude>-66.35</longitude>
  </city>
  <city name="Ángeles">
    <latitude>-20.9</latitude>
    <longitude>-66.3166667</longitude>
  </city>
  <city name="Angeles">
    <latitude>-14.5333333</latitude>
    <longitude>-62.2166667</longitude>
  </city>
  <city name="Angosto">
    <latitude>-20.3833333</latitude>
    <longitude>-64.0166667</longitude>
  </city>
  <city name="Angosto Taperilla">
    <latitude>-19.7333333</latitude>
    <longitude>-63.8833333</longitude>
  </city>
  <city name="Angostura">
    <latitude>-18.8333333</latitude>
    <longitude>-65.1166667</longitude>
  </city>
  <city name="Angosturacasa">
    <latitude>-21.3833333</latitude>
    <longitude>-66.3166667</longitude>
  </city>
  <city name="Anguaira">
    <latitude>-19.9833333</latitude>
    <longitude>-63.0666667</longitude>
  </city>
  <city name="Añilaya">
    <latitude>-15.65</latitude>
    <longitude>-68.7166667</longitude>
  </city>
  <city name="Anillo">
    <latitude>-14.0666667</latitude>
    <longitude>-61.85</longitude>
  </city>
  <city name="Ánimas">
    <latitude>-18.3666667</latitude>
    <longitude>-67.5833333</longitude>
  </city>
  <city name="Animas">
    <latitude>-20.9666667</latitude>
    <longitude>-66.3</longitude>
  </city>
  <city name="Añimbó">
    <latitude>-20.5666667</latitude>
    <longitude>-64.1</longitude>
  </city>
  <city name="Animosa">
    <latitude>-18.3666667</latitude>
    <longitude>-67.5833333</longitude>
  </city>
  <city name="Animoza">
    <latitude>-18.3666667</latitude>
    <longitude>-67.5833333</longitude>
  </city>
  <city name="Anka Kollu">
    <latitude>-18.5166667</latitude>
    <longitude>-68.0</longitude>
  </city>
  <city name="Anluta">
    <latitude>-20.6166667</latitude>
    <longitude>-66.3833333</longitude>
  </city>
  <city name="Anocagua">
    <latitude>-15.5833333</latitude>
    <longitude>-67.95</longitude>
  </city>
  <city name="Anocarayre">
    <latitude>-17.4333333</latitude>
    <longitude>-66.3333333</longitude>
  </city>
  <city name="Anocarire">
    <latitude>-17.4333333</latitude>
    <longitude>-66.3333333</longitude>
  </city>
  <city name="Anokolke">
    <latitude>-17.8666667</latitude>
    <longitude>-68.8333333</longitude>
  </city>
  <city name="Anquaira">
    <latitude>-19.9833333</latitude>
    <longitude>-63.0666667</longitude>
  </city>
  <city name="Anquioma Alto">
    <latitude>-16.9833333</latitude>
    <longitude>-67.65</longitude>
  </city>
  <city name="Anquioma">
    <latitude>-16.9833333</latitude>
    <longitude>-67.6666667</longitude>
  </city>
  <city name="Anquioma Bajo">
    <latitude>-16.9666667</latitude>
    <longitude>-67.6666667</longitude>
  </city>
  <city name="Anselmo">
    <latitude>-15.2333333</latitude>
    <longitude>-68.3333333</longitude>
  </city>
  <city name="Anta">
    <latitude>-16.95</latitude>
    <longitude>-68.7333333</longitude>
  </city>
  <city name="Anta Anta">
    <latitude>-17.3166667</latitude>
    <longitude>-68.6333333</longitude>
  </city>
  <city name="Antacagua">
    <latitude>-17.5833333</latitude>
    <longitude>-66.6833333</longitude>
  </city>
  <city name="Antacollo">
    <latitude>-18.1666667</latitude>
    <longitude>-68.6</longitude>
  </city>
  <city name="Anta Khaua">
    <latitude>-17.6</latitude>
    <longitude>-66.7</longitude>
  </city>
  <city name="Antamarca">
    <latitude>-16.6</latitude>
    <longitude>-68.7666667</longitude>
  </city>
  <city name="Antana">
    <latitude>-16.4</latitude>
    <longitude>-68.5</longitude>
  </city>
  <city name="Antani">
    <latitude>-17.4166667</latitude>
    <longitude>-68.95</longitude>
  </city>
  <city name="Antapata">
    <latitude>-18.2333333</latitude>
    <longitude>-67.9666667</longitude>
  </city>
  <city name="Antaquira">
    <latitude>-17.0333333</latitude>
    <longitude>-68.5833333</longitude>
  </city>
  <city name="Antasagua">
    <latitude>-17.5833333</latitude>
    <longitude>-66.6833333</longitude>
  </city>
  <city name="Anta-Uta">
    <latitude>-17.3333333</latitude>
    <longitude>-68.9333333</longitude>
  </city>
  <city name="Antaya">
    <latitude>-19.25</latitude>
    <longitude>-65.2166667</longitude>
  </city>
  <city name="Antequera">
    <latitude>-18.4833333</latitude>
    <longitude>-66.8833333</longitude>
  </city>
  <city name="Antezana">
    <latitude>-11.3666667</latitude>
    <longitude>-67.5166667</longitude>
  </city>
  <city name="Anticasa">
    <latitude>-20.9666667</latitude>
    <longitude>-66.4666667</longitude>
  </city>
  <city name="Anticuragua">
    <latitude>-18.25</latitude>
    <longitude>-68.4666667</longitude>
  </city>
  <city name="Anticuraguara">
    <latitude>-18.25</latitude>
    <longitude>-68.4666667</longitude>
  </city>
  <city name="Anticurahuara">
    <latitude>-18.25</latitude>
    <longitude>-68.4666667</longitude>
  </city>
  <city name="Antigua Colonia Crevaux">
    <latitude>-21.9166667</latitude>
    <longitude>-62.9166667</longitude>
  </city>
  <city name="Antihasi">
    <latitude>-21.15</latitude>
    <longitude>-66.3666667</longitude>
  </city>
  <city name="Antihorno">
    <latitude>-21.1333333</latitude>
    <longitude>-66.2333333</longitude>
  </city>
  <city name="Antihuasi">
    <latitude>-21.15</latitude>
    <longitude>-66.3666667</longitude>
  </city>
  <city name="Antiipiña">
    <latitude>-17.6166667</latitude>
    <longitude>-68.6</longitude>
  </city>
  <city name="Antijipiña">
    <latitude>-17.6166667</latitude>
    <longitude>-68.6</longitude>
  </city>
  <city name="Antilpiña">
    <latitude>-17.6166667</latitude>
    <longitude>-68.6</longitude>
  </city>
  <city name="Antincurahua">
    <latitude>-18.25</latitude>
    <longitude>-68.4666667</longitude>
  </city>
  <city name="Antincurahuara">
    <latitude>-18.25</latitude>
    <longitude>-68.4666667</longitude>
  </city>
  <city name="Antiopujre">
    <latitude>-21.5166667</latitude>
    <longitude>-65.8833333</longitude>
  </city>
  <city name="Antipampa">
    <latitude>-17.4833333</latitude>
    <longitude>-67.6166667</longitude>
  </city>
  <city name="Antipiña">
    <latitude>-17.6166667</latitude>
    <longitude>-68.6</longitude>
  </city>
  <city name="Antocollo">
    <latitude>-16.2166667</latitude>
    <longitude>-68.5666667</longitude>
  </city>
  <city name="Antora">
    <latitude>-18.7333333</latitude>
    <longitude>-65.6333333</longitude>
  </city>
  <city name="Anukariri">
    <latitude>-17.2</latitude>
    <longitude>-69.35</longitude>
  </city>
  <city name="Anupucara">
    <latitude>-17.4166667</latitude>
    <longitude>-67.4166667</longitude>
  </city>
  <city name="Anupuraca">
    <latitude>-17.4166667</latitude>
    <longitude>-67.4166667</longitude>
  </city>
  <city name="Anzaldo">
    <latitude>-17.8333333</latitude>
    <longitude>-65.9166667</longitude>
  </city>
  <city name="Apacheta">
    <latitude>-17.7833333</latitude>
    <longitude>-65.35</longitude>
  </city>
  <city name="Apacheta Calcalaguay">
    <latitude>-19.8</latitude>
    <longitude>-68.45</longitude>
  </city>
  <city name="Apachetacasa">
    <latitude>-21.5333333</latitude>
    <longitude>-66.8833333</longitude>
  </city>
  <city name="Apacheta Kasa">
    <latitude>-21.5333333</latitude>
    <longitude>-66.8833333</longitude>
  </city>
  <city name="Apachetilla">
    <latitude>-19.2833333</latitude>
    <longitude>-65.05</longitude>
  </city>
  <city name="Apama">
    <latitude>-15.9333333</latitude>
    <longitude>-67.9166667</longitude>
  </city>
  <city name="Apana">
    <latitude>-15.9333333</latitude>
    <longitude>-67.9166667</longitude>
  </city>
  <city name="Aparajos">
    <latitude>-15.7833333</latitude>
    <longitude>-64.4666667</longitude>
  </city>
  <city name="Aparejos">
    <latitude>-15.7833333</latitude>
    <longitude>-64.4666667</longitude>
  </city>
  <city name="Apayiruma">
    <latitude>-17.05</latitude>
    <longitude>-68.6</longitude>
  </city>
  <city name="Apere">
    <latitude>-12.1166667</latitude>
    <longitude>-66.2833333</longitude>
  </city>
  <city name="Apilla">
    <latitude>-17.85</latitude>
    <longitude>-66.25</longitude>
  </city>
  <city name="Apilla Pampa">
    <latitude>-17.85</latitude>
    <longitude>-66.25</longitude>
  </city>
  <city name="Apillapampa">
    <latitude>-17.8</latitude>
    <longitude>-66.2</longitude>
  </city>
  <city name="Apillmarca">
    <latitude>-17.0666667</latitude>
    <longitude>-68.55</longitude>
  </city>
  <city name="Apingalla">
    <latitude>-17.05</latitude>
    <longitude>-67.7833333</longitude>
  </city>
  <city name="Apingollas">
    <latitude>-17.05</latitude>
    <longitude>-67.7833333</longitude>
  </city>
  <city name="Apita">
    <latitude>-16.6333333</latitude>
    <longitude>-67.5</longitude>
  </city>
  <city name="Apolo">
    <latitude>-14.7166667</latitude>
    <longitude>-68.4166667</longitude>
  </city>
  <city name="Apooco">
    <latitude>-15.8666667</latitude>
    <longitude>-68.8666667</longitude>
  </city>
  <city name="Apucara">
    <latitude>-21.5833333</latitude>
    <longitude>-66.8166667</longitude>
  </city>
  <city name="Aquilambaya">
    <latitude>-15.7666667</latitude>
    <longitude>-68.8166667</longitude>
  </city>
  <city name="Aquio">
    <latitude>-19.7</latitude>
    <longitude>-63.7166667</longitude>
  </city>
  <city name="Ara">
    <latitude>-20.6</latitude>
    <longitude>-65.4833333</longitude>
  </city>
  <city name="Arabate">
    <latitude>-19.0</latitude>
    <longitude>-65.2</longitude>
  </city>
  <city name="Arabete">
    <latitude>-19.0</latitude>
    <longitude>-65.2</longitude>
  </city>
  <city name="Arabico">
    <latitude>-20.1166667</latitude>
    <longitude>-63.6666667</longitude>
  </city>
  <city name="Araca">
    <latitude>-16.8166667</latitude>
    <longitude>-67.55</longitude>
  </city>
  <city name="Aracachi">
    <latitude>-18.6333333</latitude>
    <longitude>-66.1833333</longitude>
  </city>
  <city name="Aracana">
    <latitude>-17.15</latitude>
    <longitude>-68.55</longitude>
  </city>
  <city name="Araijilla">
    <latitude>-19.5166667</latitude>
    <longitude>-65.8166667</longitude>
  </city>
  <city name="Aramani">
    <latitude>-17.05</latitude>
    <longitude>-66.7833333</longitude>
  </city>
  <city name="Arampampa">
    <latitude>-17.95</latitude>
    <longitude>-66.0833333</longitude>
  </city>
  <city name="Arana">
    <latitude>-15.8833333</latitude>
    <longitude>-67.8166667</longitude>
  </city>
  <city name="Arani">
    <latitude>-17.5666667</latitude>
    <longitude>-65.7666667</longitude>
  </city>
  <city name="Aranjuez">
    <latitude>-16.55</latitude>
    <longitude>-68.1</longitude>
  </city>
  <city name="Arapata">
    <latitude>-16.2166667</latitude>
    <longitude>-67.5666667</longitude>
  </city>
  <city name="Arapiri">
    <latitude>-19.9666667</latitude>
    <longitude>-65.1166667</longitude>
  </city>
  <city name="Arasaya">
    <latitude>-16.45</latitude>
    <longitude>-68.95</longitude>
  </city>
  <city name="Arashico">
    <latitude>-11.4</latitude>
    <longitude>-68.8666667</longitude>
  </city>
  <city name="Arático">
    <latitude>-20.1166667</latitude>
    <longitude>-63.6666667</longitude>
  </city>
  <city name="Arauco">
    <latitude>-17.2833333</latitude>
    <longitude>-65.9833333</longitude>
  </city>
  <city name="Araujo">
    <latitude>-17.2833333</latitude>
    <longitude>-65.9833333</longitude>
  </city>
  <city name="Arballio">
    <latitude>-22.1333333</latitude>
    <longitude>-64.9</longitude>
  </city>
  <city name="Arballo">
    <latitude>-22.1333333</latitude>
    <longitude>-64.9</longitude>
  </city>
  <city name="Arbieto">
    <latitude>-17.5666667</latitude>
    <longitude>-66.0166667</longitude>
  </city>
  <city name="Arbolito">
    <latitude>-22.1333333</latitude>
    <longitude>-64.9</longitude>
  </city>
  <city name="Árbol Solo">
    <latitude>-13.6166667</latitude>
    <longitude>-64.75</longitude>
  </city>
  <city name="Arca">
    <latitude>-17.9166667</latitude>
    <longitude>-66.7</longitude>
  </city>
  <city name="Arcata">
    <latitude>-17.1166667</latitude>
    <longitude>-68.0</longitude>
  </city>
  <city name="Arco">
    <latitude>-17.9166667</latitude>
    <longitude>-66.7</longitude>
  </city>
  <city name="Arcopongo">
    <latitude>-16.65</latitude>
    <longitude>-67.0</longitude>
  </city>
  <city name="Arcos">
    <latitude>-20.2333333</latitude>
    <longitude>-64.2666667</longitude>
  </city>
  <city name="Ardilla">
    <latitude>-17.7166667</latitude>
    <longitude>-65.2666667</longitude>
  </city>
  <city name="Areloma">
    <latitude>-20.85</latitude>
    <longitude>-66.2333333</longitude>
  </city>
  <city name="Arena">
    <latitude>-20.1833333</latitude>
    <longitude>-63.8833333</longitude>
  </city>
  <city name="Arenal">
    <latitude>-12.2666667</latitude>
    <longitude>-66.2333333</longitude>
  </city>
  <city name="Arenales">
    <latitude>-22.1</latitude>
    <longitude>-65.4833333</longitude>
  </city>
  <city name="ArenaLoma">
    <latitude>-20.85</latitude>
    <longitude>-66.2333333</longitude>
  </city>
  <city name="Arenas">
    <latitude>-20.1833333</latitude>
    <longitude>-63.8833333</longitude>
  </city>
  <city name="Arepucho">
    <latitude>-17.25</latitude>
    <longitude>-65.2333333</longitude>
  </city>
  <city name="Arequipa">
    <latitude>-12.3666667</latitude>
    <longitude>-66.2833333</longitude>
  </city>
  <city name="Argandoñaloma">
    <latitude>-21.5666667</latitude>
    <longitude>-66.35</longitude>
  </city>
  <city name="Argel">
    <latitude>-13.45</latitude>
    <longitude>-62.5</longitude>
  </city>
  <city name="Argelia">
    <latitude>-13.45</latitude>
    <longitude>-62.5</longitude>
  </city>
  <city name="Aribibi">
    <latitude>-14.05</latitude>
    <longitude>-62.5666667</longitude>
  </city>
  <city name="Arica">
    <latitude>-9.7666667</latitude>
    <longitude>-65.8833333</longitude>
  </city>
  <city name="Arichua">
    <latitude>-17.2</latitude>
    <longitude>-68.9666667</longitude>
  </city>
  <city name="Arillanga">
    <latitude>-17.3166667</latitude>
    <longitude>-67.8666667</longitude>
  </city>
  <city name="Ariruma">
    <latitude>-18.2983333</latitude>
    <longitude>-64.2638889</longitude>
  </city>
  <city name="Arislaca">
    <latitude>-20.55</latitude>
    <longitude>-66.6166667</longitude>
  </city>
  <city name="Aritalomas">
    <latitude>-21.15</latitude>
    <longitude>-66.55</longitude>
  </city>
  <city name="Armala">
    <latitude>-18.3333333</latitude>
    <longitude>-68.1833333</longitude>
  </city>
  <city name="Armata">
    <latitude>-18.3333333</latitude>
    <longitude>-68.1833333</longitude>
  </city>
  <city name="Armenia">
    <latitude>-14.4166667</latitude>
    <longitude>-67.0666667</longitude>
  </city>
  <city name="Armenta">
    <latitude>-14.4166667</latitude>
    <longitude>-67.0666667</longitude>
  </city>
  <city name="Aroifilla">
    <latitude>-19.5166667</latitude>
    <longitude>-65.8166667</longitude>
  </city>
  <city name="Aroma">
    <latitude>-15.15</latitude>
    <longitude>-64.0333333</longitude>
  </city>
  <city name="Arpaja">
    <latitude>-20.65</latitude>
    <longitude>-64.95</longitude>
  </city>
  <city name="Arpasiña">
    <latitude>-18.0</latitude>
    <longitude>-68.15</longitude>
  </city>
  <city name="Arpita">
    <latitude>-17.5833333</latitude>
    <longitude>-66.05</longitude>
  </city>
  <city name="Arque">
    <latitude>-17.8</latitude>
    <longitude>-66.3833333</longitude>
  </city>
  <city name="Arquillas">
    <latitude>-19.25</latitude>
    <longitude>-64.4833333</longitude>
  </city>
  <city name="Arquillos">
    <latitude>-19.25</latitude>
    <longitude>-64.4833333</longitude>
  </city>
  <city name="Arrayán">
    <latitude>-18.3666667</latitude>
    <longitude>-64.4833333</longitude>
  </city>
  <city name="Arrepiado">
    <latitude>-10.5</latitude>
    <longitude>-67.5333333</longitude>
  </city>
  <city name="Arriegua">
    <latitude>-14.4166667</latitude>
    <longitude>-67.5333333</longitude>
  </city>
  <city name="Arrien">
    <latitude>-19.8166667</latitude>
    <longitude>-58.1833333</longitude>
  </city>
  <city name="Arrosales">
    <latitude>-22.6666667</latitude>
    <longitude>-64.3166667</longitude>
  </city>
  <city name="Arroyo Grande">
    <latitude>-10.7333333</latitude>
    <longitude>-67.9166667</longitude>
  </city>
  <city name="Arroyos">
    <latitude>-16.6333333</latitude>
    <longitude>-63.7666667</longitude>
  </city>
  <city name="Arroyo Seco">
    <latitude>-13.95</latitude>
    <longitude>-61.9166667</longitude>
  </city>
  <city name="Arroyuelo">
    <latitude>-17.8166667</latitude>
    <longitude>-63.05</longitude>
  </city>
  <city name="Arteza">
    <latitude>-21.6166667</latitude>
    <longitude>-65.2666667</longitude>
  </city>
  <city name="Arugaito">
    <latitude>-16.05</latitude>
    <longitude>-61.8833333</longitude>
  </city>
  <city name="Aruguayito">
    <latitude>-16.3833333</latitude>
    <longitude>-62.05</longitude>
  </city>
  <city name="Arum-Itapi">
    <latitude>-17.1</latitude>
    <longitude>-68.6166667</longitude>
  </city>
  <city name="Arumtapi">
    <latitude>-17.1</latitude>
    <longitude>-68.6166667</longitude>
  </city>
  <city name="Arumt tapi">
    <latitude>-17.1</latitude>
    <longitude>-68.6166667</longitude>
  </city>
  <city name="Asabi">
    <latitude>-17.2333333</latitude>
    <longitude>-63.4</longitude>
  </city>
  <city name="Asariama">
    <latitude>-14.25</latitude>
    <longitude>-68.5416667</longitude>
  </city>
  <city name="Asariamas">
    <latitude>-14.25</latitude>
    <longitude>-68.5416667</longitude>
  </city>
  <city name="Asarón">
    <latitude>-21.1166667</latitude>
    <longitude>-65.9166667</longitude>
  </city>
  <city name="A. Sarzón">
    <latitude>-20.85</latitude>
    <longitude>-63.1</longitude>
  </city>
  <city name="Ascanti">
    <latitude>-20.9666667</latitude>
    <longitude>-65.7</longitude>
  </city>
  <city name="Ascención">
    <latitude>-13.6166667</latitude>
    <longitude>-63.0333333</longitude>
  </city>
  <city name="Ascensión">
    <latitude>-13.6166667</latitude>
    <longitude>-63.0333333</longitude>
  </city>
  <city name="Ascension de las Petas">
    <latitude>-16.3166667</latitude>
    <longitude>-59.45</longitude>
  </city>
  <city name="Asencion">
    <latitude>-15.7</latitude>
    <longitude>-63.0833333</longitude>
  </city>
  <city name="Aseraduya">
    <latitude>-21.8</latitude>
    <longitude>-66.5</longitude>
  </city>
  <city name="Aserani">
    <latitude>-21.0666667</latitude>
    <longitude>-65.9166667</longitude>
  </city>
  <city name="Aserduya">
    <latitude>-21.8</latitude>
    <longitude>-66.5</longitude>
  </city>
  <city name="Aseron">
    <latitude>-21.1166667</latitude>
    <longitude>-65.9166667</longitude>
  </city>
  <city name="Aserradero">
    <latitude>-19.0</latitude>
    <longitude>-57.8666667</longitude>
  </city>
  <city name="Asiento">
    <latitude>-16.8166667</latitude>
    <longitude>-67.55</longitude>
  </city>
  <city name="Asiento Minero de Macha">
    <latitude>-18.9166667</latitude>
    <longitude>-66.3</longitude>
  </city>
  <city name="Asiento Minero de Pacha">
    <latitude>-18.9166667</latitude>
    <longitude>-66.3</longitude>
  </city>
  <city name="Asiento Minero Macha">
    <latitude>-18.9166667</latitude>
    <longitude>-66.3</longitude>
  </city>
  <city name="Asilla">
    <latitude>-14.45</latitude>
    <longitude>-68.6166667</longitude>
  </city>
  <city name="Asimpunta">
    <latitude>-20.8</latitude>
    <longitude>-66.2</longitude>
  </city>
  <city name="Asinpunta">
    <latitude>-20.8</latitude>
    <longitude>-66.2</longitude>
  </city>
  <city name="Asioca">
    <latitude>-21.75</latitude>
    <longitude>-65.3333333</longitude>
  </city>
  <city name="Asirumarca">
    <latitude>-17.0666667</latitude>
    <longitude>-68.7</longitude>
  </city>
  <city name="Asis">
    <latitude>-10.45</latitude>
    <longitude>-66.1666667</longitude>
  </city>
  <city name="Asloca">
    <latitude>-21.7</latitude>
    <longitude>-65.2833333</longitude>
  </city>
  <city name="Asnapugio">
    <latitude>-20.2833333</latitude>
    <longitude>-66.5333333</longitude>
  </city>
  <city name="Asnapujio">
    <latitude>-20.2833333</latitude>
    <longitude>-66.5333333</longitude>
  </city>
  <city name="Asnapujo">
    <latitude>-20.2833333</latitude>
    <longitude>-66.5333333</longitude>
  </city>
  <city name="Asna Pujro">
    <latitude>-21.4833333</latitude>
    <longitude>-65.1666667</longitude>
  </city>
  <city name="Asobayoc">
    <latitude>-21.2333333</latitude>
    <longitude>-65.85</longitude>
  </city>
  <city name="Asociega">
    <latitude>-13.3666667</latitude>
    <longitude>-62.1</longitude>
  </city>
  <city name="Asociego">
    <latitude>-13.3666667</latitude>
    <longitude>-62.1</longitude>
  </city>
  <city name="Astich">
    <latitude>-16.9666667</latitude>
    <longitude>-61.0166667</longitude>
  </city>
  <city name="Astillero">
    <latitude>-19.5</latitude>
    <longitude>-64.1833333</longitude>
  </city>
  <city name="Astuchoma">
    <latitude>-21.7333333</latitude>
    <longitude>-65.8333333</longitude>
  </city>
  <city name="Astuchona">
    <latitude>-21.7333333</latitude>
    <longitude>-65.8333333</longitude>
  </city>
  <city name="Asunción">
    <latitude>-16.8833333</latitude>
    <longitude>-65.1166667</longitude>
  </city>
  <city name="Asunta">
    <latitude>-12.65</latitude>
    <longitude>-64.1833333</longitude>
  </city>
  <city name="Asuntia">
    <latitude>-15.45</latitude>
    <longitude>-64.4166667</longitude>
  </city>
  <city name="Asunto">
    <latitude>-10.2166667</latitude>
    <longitude>-66.9666667</longitude>
  </city>
  <city name="Asuvi">
    <latitude>-17.1166667</latitude>
    <longitude>-63.4333333</longitude>
  </city>
  <city name="Atacasa">
    <latitude>-20.95</latitude>
    <longitude>-65.95</longitude>
  </city>
  <city name="Atahallani">
    <latitude>-16.8333333</latitude>
    <longitude>-67.7333333</longitude>
  </city>
  <city name="Atahuallani">
    <latitude>-16.7333333</latitude>
    <longitude>-67.7833333</longitude>
  </city>
  <city name="Atahuasi">
    <latitude>-21.4833333</latitude>
    <longitude>-66.4833333</longitude>
  </city>
  <city name="Atajado">
    <latitude>-18.8166667</latitude>
    <longitude>-62.7166667</longitude>
  </city>
  <city name="Atalamayoc">
    <latitude>-21.45</latitude>
    <longitude>-66.4333333</longitude>
  </city>
  <city name="Atalamayos">
    <latitude>-21.45</latitude>
    <longitude>-66.4333333</longitude>
  </city>
  <city name="Ataraca">
    <latitude>-17.75</latitude>
    <longitude>-67.25</longitude>
  </city>
  <city name="Ataraque">
    <latitude>-17.75</latitude>
    <longitude>-67.25</longitude>
  </city>
  <city name="Atén">
    <latitude>-14.9166667</latitude>
    <longitude>-68.3833333</longitude>
  </city>
  <city name="Atirindia">
    <latitude>-20.85</latitude>
    <longitude>-63.9333333</longitude>
  </city>
  <city name="Atocani">
    <latitude>-18.8</latitude>
    <longitude>-65.4</longitude>
  </city>
  <city name="Atocha">
    <latitude>-20.9333333</latitude>
    <longitude>-66.2333333</longitude>
  </city>
  <city name="Atocha Palca">
    <latitude>-20.9166667</latitude>
    <longitude>-66.2166667</longitude>
  </city>
  <city name="Atocha Vieja">
    <latitude>-20.9166667</latitude>
    <longitude>-66.2166667</longitude>
  </city>
  <city name="Atochuhuasiloma">
    <latitude>-21.2666667</latitude>
    <longitude>-65.6333333</longitude>
  </city>
  <city name="Atorama">
    <latitude>-17.0666667</latitude>
    <longitude>-67.55</longitude>
  </city>
  <city name="Atoroma">
    <latitude>-17.0666667</latitude>
    <longitude>-67.55</longitude>
  </city>
  <city name="Atulcha">
    <latitude>-20.5666667</latitude>
    <longitude>-67.6333333</longitude>
  </city>
  <city name="Atuloni">
    <latitude>-21.5166667</latitude>
    <longitude>-66.1166667</longitude>
  </city>
  <city name="Atuouiri">
    <latitude>-17.2833333</latitude>
    <longitude>-67.85</longitude>
  </city>
  <city name="Atupuncu">
    <latitude>-19.4</latitude>
    <longitude>-65.9</longitude>
  </city>
  <city name="Atuquiri">
    <latitude>-17.2833333</latitude>
    <longitude>-67.85</longitude>
  </city>
  <city name="Aturicamayoc">
    <latitude>-21.1</latitude>
    <longitude>-66.4</longitude>
  </city>
  <city name="Aucachi">
    <latitude>-20.8</latitude>
    <longitude>-65.5333333</longitude>
  </city>
  <city name="Aucapata">
    <latitude>-15.3666667</latitude>
    <longitude>-68.65</longitude>
  </city>
  <city name="Audiencia">
    <latitude>-17.4666667</latitude>
    <longitude>-68.6166667</longitude>
  </city>
  <city name="Aullagas">
    <latitude>-18.6666667</latitude>
    <longitude>-66.0166667</longitude>
  </city>
  <city name="Auqui Amaya">
    <latitude>-17.1166667</latitude>
    <longitude>-69.0333333</longitude>
  </city>
  <city name="Auqui Kollu">
    <latitude>-19.3833333</latitude>
    <longitude>-67.6</longitude>
  </city>
  <city name="Aurora">
    <latitude>-16.3</latitude>
    <longitude>-68.2166667</longitude>
  </city>
  <city name="Australia">
    <latitude>-12.7</latitude>
    <longitude>-66.5333333</longitude>
  </city>
  <city name="Auto Aillo">
    <latitude>-17.5</latitude>
    <longitude>-68.4666667</longitude>
  </city>
  <city name="Avarachani">
    <latitude>-15.2833333</latitude>
    <longitude>-69.1</longitude>
  </city>
  <city name="Avaroa">
    <latitude>-19.0833333</latitude>
    <longitude>-60.2333333</longitude>
  </city>
  <city name="Averana">
    <latitude>-18.5833333</latitude>
    <longitude>-66.2</longitude>
  </city>
  <city name="Averanga">
    <latitude>-18.5833333</latitude>
    <longitude>-66.2</longitude>
  </city>
  <city name="Avicaya">
    <latitude>-16.4833333</latitude>
    <longitude>-68.45</longitude>
  </city>
  <city name="Avichaca">
    <latitude>-16.05</latitude>
    <longitude>-68.65</longitude>
  </city>
  <city name="Avilcha">
    <latitude>-21.2833333</latitude>
    <longitude>-67.2166667</longitude>
  </city>
  <city name="Avilio">
    <latitude>-11.3833333</latitude>
    <longitude>-67.5166667</longitude>
  </city>
  <city name="Ayaamaya">
    <latitude>-17.5666667</latitude>
    <longitude>-67.7</longitude>
  </city>
  <city name="Ayacucho">
    <latitude>-17.7333333</latitude>
    <longitude>-65.6</longitude>
  </city>
  <city name="Ayala">
    <latitude>-21.1</latitude>
    <longitude>-66.0</longitude>
  </city>
  <city name="Ayamaya">
    <latitude>-17.3833333</latitude>
    <longitude>-67.7166667</longitude>
  </city>
  <city name="Ayampampa">
    <latitude>-17.7333333</latitude>
    <longitude>-65.6</longitude>
  </city>
  <city name="Ayantata">
    <latitude>-18.5333333</latitude>
    <longitude>-66.45</longitude>
  </city>
  <city name="Ayapampa">
    <latitude>-17.7333333</latitude>
    <longitude>-65.6</longitude>
  </city>
  <city name="Ayata">
    <latitude>-15.35</latitude>
    <longitude>-68.75</longitude>
  </city>
  <city name="Aygachi">
    <latitude>-16.3666667</latitude>
    <longitude>-68.6166667</longitude>
  </city>
  <city name="Ayisana">
    <latitude>-21.4166667</latitude>
    <longitude>-66.2166667</longitude>
  </city>
  <city name="Ayma">
    <latitude>-16.65</latitude>
    <longitude>-68.0666667</longitude>
  </city>
  <city name="Aymaya">
    <latitude>-18.4333333</latitude>
    <longitude>-66.5166667</longitude>
  </city>
  <city name="Aymiri">
    <latitude>-19.3833333</latitude>
    <longitude>-63.3</longitude>
  </city>
  <city name="Ayoamlaya">
    <latitude>-17.5666667</latitude>
    <longitude>-67.7</longitude>
  </city>
  <city name="Ayo Ayo">
    <latitude>-17.0833333</latitude>
    <longitude>-68.0</longitude>
  </city>
  <city name="Ayoma">
    <latitude>-17.6333333</latitude>
    <longitude>-66.4333333</longitude>
  </city>
  <city name="Ayparahui">
    <latitude>-19.0333333</latitude>
    <longitude>-67.9333333</longitude>
  </city>
  <city name="Ayparahul">
    <latitude>-19.0333333</latitude>
    <longitude>-67.9333333</longitude>
  </city>
  <city name="Ayparavi">
    <latitude>-19.0333333</latitude>
    <longitude>-67.9333333</longitude>
  </city>
  <city name="Ayque">
    <latitude>-19.8833333</latitude>
    <longitude>-67.5833333</longitude>
  </city>
  <city name="Ayumbiraiti">
    <latitude>-20.1666667</latitude>
    <longitude>-63.7333333</longitude>
  </city>
  <city name="Ayumbirate">
    <latitude>-20.1666667</latitude>
    <longitude>-63.7333333</longitude>
  </city>
  <city name="Ayzacollo">
    <latitude>-17.4166667</latitude>
    <longitude>-67.5</longitude>
  </city>
  <city name="Azafranal">
    <latitude>-16.65</latitude>
    <longitude>-68.9333333</longitude>
  </city>
  <city name="Azafrán">
    <latitude>-17.3166667</latitude>
    <longitude>-62.9833333</longitude>
  </city>
  <city name="Azakes">
    <latitude>-20.6</latitude>
    <longitude>-67.6833333</longitude>
  </city>
  <city name="Azángaro">
    <latitude>-15.0666667</latitude>
    <longitude>-68.8333333</longitude>
  </city>
  <city name="Azangora">
    <latitude>-15.0666667</latitude>
    <longitude>-68.8333333</longitude>
  </city>
  <city name="Azeradayoc">
    <latitude>-21.8</latitude>
    <longitude>-66.5</longitude>
  </city>
  <city name="Azero Marca">
    <latitude>-17.0666667</latitude>
    <longitude>-68.7</longitude>
  </city>
  <city name="Azero María">
    <latitude>-17.0666667</latitude>
    <longitude>-68.7</longitude>
  </city>
  <city name="Azerón">
    <latitude>-21.1166667</latitude>
    <longitude>-65.9166667</longitude>
  </city>
  <city name="Azotea">
    <latitude>-11.3333333</latitude>
    <longitude>-67.2</longitude>
  </city>
  <city name="Azotes">
    <latitude>-11.3333333</latitude>
    <longitude>-67.2</longitude>
  </city>
  <city name="Azucaro">
    <latitude>-17.9</latitude>
    <longitude>-60.2333333</longitude>
  </city>
  <city name="Azufreras">
    <latitude>-19.7166667</latitude>
    <longitude>-68.6666667</longitude>
  </city>
  <city name="Azul">
    <latitude>-17.7166667</latitude>
    <longitude>-65.1833333</longitude>
  </city>
  <city name="Azul Cocha">
    <latitude>-17.7166667</latitude>
    <longitude>-65.1833333</longitude>
  </city>
  <city name="Azulicasa">
    <latitude>-21.1166667</latitude>
    <longitude>-65.7</longitude>
  </city>
  <city name="Azulichihua">
    <latitude>-21.35</latitude>
    <longitude>-66.1833333</longitude>
  </city>
  <city name="Azullenca">
    <latitude>-17.0666667</latitude>
    <longitude>-68.8</longitude>
  </city>
  <city name="Azurdui">
    <latitude>-20.1</latitude>
    <longitude>-64.4166667</longitude>
  </city>
  <city name="Azurduy">
    <latitude>-20.1</latitude>
    <longitude>-64.4166667</longitude>
  </city>
  <city name="Azurita">
    <latitude>-18.0666667</latitude>
    <longitude>-68.15</longitude>
  </city>
  <city name="Azusaqui">
    <latitude>-17.35</latitude>
    <longitude>-63.1333333</longitude>
  </city>
  <city name="Azuvi">
    <latitude>-17.2333333</latitude>
    <longitude>-63.4</longitude>
  </city>
  <city name="Azuzagui">
    <latitude>-17.35</latitude>
    <longitude>-63.1333333</longitude>
  </city>
  <city name="Baerepoti">
    <latitude>-19.85</latitude>
    <longitude>-63.8333333</longitude>
  </city>
  <city name="Bagio">
    <latitude>-11.2</latitude>
    <longitude>-68.6166667</longitude>
  </city>
  <city name="Bahía">
    <latitude>-18.6166667</latitude>
    <longitude>-58.2</longitude>
  </city>
  <city name="Bahía Blanca">
    <latitude>-14.4333333</latitude>
    <longitude>-62.3</longitude>
  </city>
  <city name="Bahia Floresta">
    <latitude>-11.15</latitude>
    <longitude>-68.7833333</longitude>
  </city>
  <city name="Bahía Progreso">
    <latitude>-12.95</latitude>
    <longitude>-63.8333333</longitude>
  </city>
  <city name="Bahía Verde">
    <latitude>-10.15</latitude>
    <longitude>-66.6</longitude>
  </city>
  <city name="Baichuja">
    <latitude>-14.4</latitude>
    <longitude>-67.1166667</longitude>
  </city>
  <city name="Baichuje">
    <latitude>-14.4</latitude>
    <longitude>-67.1166667</longitude>
  </city>
  <city name="Baisondo">
    <latitude>-20.8666667</latitude>
    <longitude>-63.85</longitude>
  </city>
  <city name="Baja Huaricana">
    <latitude>-16.7333333</latitude>
    <longitude>-67.9166667</longitude>
  </city>
  <city name="Bajío">
    <latitude>-11.2333333</latitude>
    <longitude>-68.5833333</longitude>
  </city>
  <city name="Bajo">
    <latitude>-16.0833333</latitude>
    <longitude>-68.05</longitude>
  </city>
  <city name="Bajo Plata">
    <latitude>-14.5</latitude>
    <longitude>-62.25</longitude>
  </city>
  <city name="Bajos Punta">
    <latitude>-20.4666667</latitude>
    <longitude>-66.7666667</longitude>
  </city>
  <city name="Bala">
    <latitude>-20.6</latitude>
    <longitude>-68.3</longitude>
  </city>
  <city name="Bala Puca">
    <latitude>-22.5</latitude>
    <longitude>-64.4666667</longitude>
  </city>
  <city name="Balcón">
    <latitude>-20.9666667</latitude>
    <longitude>-64.6833333</longitude>
  </city>
  <city name="Balconcillo Alomuya">
    <latitude>-19.5666667</latitude>
    <longitude>-65.2666667</longitude>
  </city>
  <city name="Balconcillo">
    <latitude>-19.5666667</latitude>
    <longitude>-65.2666667</longitude>
  </city>
  <city name="Balconcito Alomuya">
    <latitude>-19.5666667</latitude>
    <longitude>-65.2666667</longitude>
  </city>
  <city name="Ballivián">
    <latitude>-17.1</latitude>
    <longitude>-68.4833333</longitude>
  </city>
  <city name="Balsa">
    <latitude>-17.0</latitude>
    <longitude>-68.7833333</longitude>
  </city>
  <city name="Balsamuni">
    <latitude>-15.6166667</latitude>
    <longitude>-67.8333333</longitude>
  </city>
  <city name="Balsanuni">
    <latitude>-15.6166667</latitude>
    <longitude>-67.8333333</longitude>
  </city>
  <city name="Balsapampa">
    <latitude>-15.5833333</latitude>
    <longitude>-68.1666667</longitude>
  </city>
  <city name="Balsa Pampa">
    <latitude>-16.1666667</latitude>
    <longitude>-67.0666667</longitude>
  </city>
  <city name="Bambarillo">
    <latitude>-17.1166667</latitude>
    <longitude>-67.5666667</longitude>
  </city>
  <city name="Bambarra">
    <latitude>-19.3166667</latitude>
    <longitude>-57.9333333</longitude>
  </city>
  <city name="Bambarral">
    <latitude>-19.3166667</latitude>
    <longitude>-57.9333333</longitude>
  </city>
  <city name="Bamburata">
    <latitude>-17.0833333</latitude>
    <longitude>-68.85</longitude>
  </city>
  <city name="Bamburuta">
    <latitude>-17.45</latitude>
    <longitude>-69.1333333</longitude>
  </city>
  <city name="Bañadito">
    <latitude>-17.2666667</latitude>
    <longitude>-63.3333333</longitude>
  </city>
  <city name="Bañado">
    <latitude>-18.9602778</latitude>
    <longitude>-64.4988889</longitude>
  </city>
  <city name="Bañados">
    <latitude>-21.15</latitude>
    <longitude>-63.4333333</longitude>
  </city>
  <city name="Bandera">
    <latitude>-13.2333333</latitude>
    <longitude>-65.65</longitude>
  </city>
  <city name="Banderayauna">
    <latitude>-21.0666667</latitude>
    <longitude>-65.6833333</longitude>
  </city>
  <city name="Banduria">
    <latitude>-17.55</latitude>
    <longitude>-63.2666667</longitude>
  </city>
  <city name="Banegas">
    <latitude>-17.15</latitude>
    <longitude>-62.8333333</longitude>
  </city>
  <city name="Banepoti">
    <latitude>-19.85</latitude>
    <longitude>-63.8333333</longitude>
  </city>
  <city name="Banger">
    <latitude>-19.4833333</latitude>
    <longitude>-65.8166667</longitude>
  </city>
  <city name="Baños">
    <latitude>-17.2166667</latitude>
    <longitude>-67.95</longitude>
  </city>
  <city name="Barbacho">
    <latitude>-11.1833333</latitude>
    <longitude>-69.1833333</longitude>
  </city>
  <city name="Barbecho">
    <latitude>-11.1833333</latitude>
    <longitude>-69.1833333</longitude>
  </city>
  <city name="Barbechos">
    <latitude>-19.9166667</latitude>
    <longitude>-64.6166667</longitude>
  </city>
  <city name="Barbosa">
    <latitude>-21.1</latitude>
    <longitude>-63.1166667</longitude>
  </city>
  <city name="Barcal Vieja">
    <latitude>-18.0</latitude>
    <longitude>-67.3166667</longitude>
  </city>
  <city name="Barcelona">
    <latitude>-10.9166667</latitude>
    <longitude>-66.8833333</longitude>
  </city>
  <city name="Barelones">
    <latitude>-13.8333333</latitude>
    <longitude>-61.7166667</longitude>
  </city>
  <city name="Barepoli">
    <latitude>-19.3833333</latitude>
    <longitude>-64.9833333</longitude>
  </city>
  <city name="Barepoti">
    <latitude>-19.85</latitude>
    <longitude>-63.8333333</longitude>
  </city>
  <city name="Barraca">
    <latitude>-18.9833333</latitude>
    <longitude>-65.3333333</longitude>
  </city>
  <city name="Barraca General Román">
    <latitude>-17.15</latitude>
    <longitude>-64.4666667</longitude>
  </city>
  <city name="Barraca Grande">
    <latitude>-11.8666667</latitude>
    <longitude>-65.6</longitude>
  </city>
  <city name="Barraca Ibabo">
    <latitude>-16.4333333</latitude>
    <longitude>-64.6833333</longitude>
  </city>
  <city name="Barraca Ibobo">
    <latitude>-16.4333333</latitude>
    <longitude>-64.6833333</longitude>
  </city>
  <city name="Barraca Isarsama">
    <latitude>-17.0</latitude>
    <longitude>-64.6833333</longitude>
  </city>
  <city name="Barraca Rapirrán">
    <latitude>-10.3333333</latitude>
    <longitude>-67.1666667</longitude>
  </city>
  <city name="Barraca Repirran">
    <latitude>-10.3333333</latitude>
    <longitude>-67.1666667</longitude>
  </city>
  <city name="Barraca Riparran">
    <latitude>-10.3333333</latitude>
    <longitude>-67.1666667</longitude>
  </city>
  <city name="Barraca Sacta">
    <latitude>-16.8333333</latitude>
    <longitude>-64.75</longitude>
  </city>
  <city name="Barraca Víbora">
    <latitude>-17.0333333</latitude>
    <longitude>-64.55</longitude>
  </city>
  <city name="Barracoma">
    <latitude>-12.05</latitude>
    <longitude>-65.9166667</longitude>
  </city>
  <city name="Barranca">
    <latitude>-18.9833333</latitude>
    <longitude>-65.3333333</longitude>
  </city>
  <city name="Barranca Ibari">
    <latitude>-16.6</latitude>
    <longitude>-63.8166667</longitude>
  </city>
  <city name="Barrancas">
    <latitude>-22.1666667</latitude>
    <longitude>-67.4166667</longitude>
  </city>
  <city name="Barranco">
    <latitude>-16.7666667</latitude>
    <longitude>-67.3833333</longitude>
  </city>
  <city name="Barranco Ibare">
    <latitude>-16.6</latitude>
    <longitude>-63.8166667</longitude>
  </city>
  <city name="Barrancos">
    <latitude>-18.9833333</latitude>
    <longitude>-65.3333333</longitude>
  </city>
  <city name="Barraquita">
    <latitude>-12.2166667</latitude>
    <longitude>-67.1166667</longitude>
  </city>
  <city name="Barrera">
    <latitude>-12.5833333</latitude>
    <longitude>-66.9833333</longitude>
  </city>
  <city name="Barrera Grande">
    <latitude>-11.8666667</latitude>
    <longitude>-65.6</longitude>
  </city>
  <city name="Barreras">
    <latitude>-17.45</latitude>
    <longitude>-63.1666667</longitude>
  </city>
  <city name="Barrero">
    <latitude>-19.9666667</latitude>
    <longitude>-63.7833333</longitude>
  </city>
  <city name="Barrero Cañada">
    <latitude>-19.9666667</latitude>
    <longitude>-63.7833333</longitude>
  </city>
  <city name="Barrial">
    <latitude>-17.5</latitude>
    <longitude>-63.2166667</longitude>
  </city>
  <city name="Barro Negro">
    <latitude>-21.7333333</latitude>
    <longitude>-63.8333333</longitude>
  </city>
  <city name="Barroquita">
    <latitude>-12.2166667</latitude>
    <longitude>-67.1166667</longitude>
  </city>
  <city name="Barros">
    <latitude>-21.7833333</latitude>
    <longitude>-63.6</longitude>
  </city>
  <city name="Barros Blancos">
    <latitude>-18.2666667</latitude>
    <longitude>-62.9333333</longitude>
  </city>
  <city name="Bartaca">
    <latitude>-18.9833333</latitude>
    <longitude>-65.3333333</longitude>
  </city>
  <city name="Bartolo">
    <latitude>-15.5666667</latitude>
    <longitude>-68.1166667</longitude>
  </city>
  <city name="Basilea">
    <latitude>-14.6</latitude>
    <longitude>-65.0166667</longitude>
  </city>
  <city name="Basilio">
    <latitude>-18.0333333</latitude>
    <longitude>-63.1666667</longitude>
  </city>
  <city name="Basquira">
    <latitude>-15.95</latitude>
    <longitude>-68.6166667</longitude>
  </city>
  <city name="Bastilla">
    <latitude>-11.0166667</latitude>
    <longitude>-68.0833333</longitude>
  </city>
  <city name="Batalla">
    <latitude>-16.3</latitude>
    <longitude>-68.55</longitude>
  </city>
  <city name="Batallas">
    <latitude>-16.3333333</latitude>
    <longitude>-68.5</longitude>
  </city>
  <city name="Batania">
    <latitude>-17.35</latitude>
    <longitude>-63.15</longitude>
  </city>
  <city name="Batelones">
    <latitude>-13.8333333</latitude>
    <longitude>-61.7166667</longitude>
  </city>
  <city name="Batun Quemado">
    <latitude>-14.4333333</latitude>
    <longitude>-64.55</longitude>
  </city>
  <city name="Bauer">
    <latitude>-16.4</latitude>
    <longitude>-60.9166667</longitude>
  </city>
  <city name="Baurecito">
    <latitude>-13.2166667</latitude>
    <longitude>-64.8</longitude>
  </city>
  <city name="Baures">
    <latitude>-13.5833333</latitude>
    <longitude>-63.5833333</longitude>
  </city>
  <city name="Bauricito">
    <latitude>-13.2166667</latitude>
    <longitude>-64.8</longitude>
  </city>
  <city name="Beata">
    <latitude>-21.3666667</latitude>
    <longitude>-66.2166667</longitude>
  </city>
  <city name="Behiro Novo">
    <latitude>-12.8166667</latitude>
    <longitude>-63.0333333</longitude>
  </city>
  <city name="Beiro Neva">
    <latitude>-12.8166667</latitude>
    <longitude>-63.0333333</longitude>
  </city>
  <city name="Belem">
    <latitude>-18.0666667</latitude>
    <longitude>-67.9333333</longitude>
  </city>
  <city name="Belén">
    <latitude>-14.7333333</latitude>
    <longitude>-66.7833333</longitude>
  </city>
  <city name="Belén de Anamarca">
    <latitude>-18.8</latitude>
    <longitude>-67.65</longitude>
  </city>
  <city name="Belén de Andamarca">
    <latitude>-18.8</latitude>
    <longitude>-67.65</longitude>
  </city>
  <city name="Belén de Choquecota">
    <latitude>-17.9833333</latitude>
    <longitude>-67.85</longitude>
  </city>
  <city name="Bella Angélica">
    <latitude>-14.6333333</latitude>
    <longitude>-61.55</longitude>
  </city>
  <city name="Bella Brisa">
    <latitude>-11.3833333</latitude>
    <longitude>-66.35</longitude>
  </city>
  <city name="Bella Esperanza">
    <latitude>-10.9833333</latitude>
    <longitude>-66.8333333</longitude>
  </city>
  <city name="Bella Flor">
    <latitude>-11.15</latitude>
    <longitude>-67.8166667</longitude>
  </city>
  <city name="Bella Selva">
    <latitude>-10.6</latitude>
    <longitude>-66.6166667</longitude>
  </city>
  <city name="Bella Vista">
    <latitude>-18.9</latitude>
    <longitude>-65.1666667</longitude>
  </city>
  <city name="Bella Vista de Cañaviri">
    <latitude>-18.65</latitude>
    <longitude>-66.9166667</longitude>
  </city>
  <city name="Bello Horizonte">
    <latitude>-10.35</latitude>
    <longitude>-66.7</longitude>
  </city>
  <city name="Bello Oriente">
    <latitude>-10.35</latitude>
    <longitude>-66.7</longitude>
  </city>
  <city name="Belmonte">
    <latitude>-9.85</latitude>
    <longitude>-66.2666667</longitude>
  </city>
  <city name="Belo Monte">
    <latitude>-10.0666667</latitude>
    <longitude>-66.8333333</longitude>
  </city>
  <city name="Bena">
    <latitude>-21.25</latitude>
    <longitude>-67.35</longitude>
  </city>
  <city name="Benavides">
    <latitude>-12.6333333</latitude>
    <longitude>-67.3333333</longitude>
  </city>
  <city name="Benavidez">
    <latitude>-12.6333333</latitude>
    <longitude>-67.3333333</longitude>
  </city>
  <city name="Bendom">
    <latitude>-20.65</latitude>
    <longitude>-65.9833333</longitude>
  </city>
  <city name="Bengala">
    <latitude>-16.9333333</latitude>
    <longitude>-67.4333333</longitude>
  </city>
  <city name="Benjamín">
    <latitude>-12.9166667</latitude>
    <longitude>-65.1166667</longitude>
  </city>
  <city name="Benjamino">
    <latitude>-12.9166667</latitude>
    <longitude>-65.1166667</longitude>
  </city>
  <city name="Berenguela">
    <latitude>-17.8833333</latitude>
    <longitude>-66.4166667</longitude>
  </city>
  <city name="Berlín">
    <latitude>-18.5833333</latitude>
    <longitude>-68.2333333</longitude>
  </city>
  <city name="Bermejo">
    <latitude>-22.65</latitude>
    <longitude>-64.3666667</longitude>
  </city>
  <city name="Berros">
    <latitude>-18.3</latitude>
    <longitude>-68.5833333</longitude>
  </city>
  <city name="Bertani">
    <latitude>-21.1166667</latitude>
    <longitude>-66.8833333</longitude>
  </city>
  <city name="Bestia">
    <latitude>-15.6333333</latitude>
    <longitude>-68.2833333</longitude>
  </city>
  <city name="Betanzos">
    <latitude>-19.5505556</latitude>
    <longitude>-65.4533333</longitude>
  </city>
  <city name="Beyuma">
    <latitude>-11.5333333</latitude>
    <longitude>-68.9333333</longitude>
  </city>
  <city name="Bibasi">
    <latitude>-15.9833333</latitude>
    <longitude>-60.4</longitude>
  </city>
  <city name="Bibosi">
    <latitude>-14.2333333</latitude>
    <longitude>-66.9666667</longitude>
  </city>
  <city name="Bibosis">
    <latitude>-14.2333333</latitude>
    <longitude>-66.9666667</longitude>
  </city>
  <city name="Bicuiche">
    <latitude>-14.2666667</latitude>
    <longitude>-67.3</longitude>
  </city>
  <city name="Bicuichu">
    <latitude>-14.2666667</latitude>
    <longitude>-67.3</longitude>
  </city>
  <city name="Bihua">
    <latitude>-14.25</latitude>
    <longitude>-68.0833333</longitude>
  </city>
  <city name="Billarcito">
    <latitude>-19.65</latitude>
    <longitude>-63.6833333</longitude>
  </city>
  <city name="Biquiri">
    <latitude>-15.3833333</latitude>
    <longitude>-68.7166667</longitude>
  </city>
  <city name="Birag">
    <latitude>-22.1833333</latitude>
    <longitude>-64.1</longitude>
  </city>
  <city name="Biray">
    <latitude>-22.1833333</latitude>
    <longitude>-64.1</longitude>
  </city>
  <city name="Birayo">
    <latitude>-22.1833333</latitude>
    <longitude>-64.1</longitude>
  </city>
  <city name="Bisanche">
    <latitude>-19.6166667</latitude>
    <longitude>-64.7666667</longitude>
  </city>
  <city name="Bivosis">
    <latitude>-14.2333333</latitude>
    <longitude>-66.9666667</longitude>
  </city>
  <city name="Biz">
    <latitude>-17.65</latitude>
    <longitude>-62.9</longitude>
  </city>
  <city name="Blanca Flor">
    <latitude>-11.8</latitude>
    <longitude>-66.8</longitude>
  </city>
  <city name="Blanco">
    <latitude>-20.6666667</latitude>
    <longitude>-65.7166667</longitude>
  </city>
  <city name="Blomfield">
    <latitude>-15.1</latitude>
    <longitude>-62.1</longitude>
  </city>
  <city name="Bloomfield">
    <latitude>-14.8</latitude>
    <longitude>-62.2166667</longitude>
  </city>
  <city name="Bloomfielt">
    <latitude>-14.8</latitude>
    <longitude>-62.2166667</longitude>
  </city>
  <city name="Boa Vista">
    <latitude>-10.9</latitude>
    <longitude>-65.6</longitude>
  </city>
  <city name="Boca">
    <latitude>-12.6833333</latitude>
    <longitude>-63.2833333</longitude>
  </city>
  <city name="Boca Chaparé">
    <latitude>-15.9333333</latitude>
    <longitude>-64.6833333</longitude>
  </city>
  <city name="Boca del Ortón">
    <latitude>-10.8333333</latitude>
    <longitude>-66.0666667</longitude>
  </city>
  <city name="Boca Grande">
    <latitude>-12.6833333</latitude>
    <longitude>-63.2833333</longitude>
  </city>
  <city name="Bocamina">
    <latitude>-19.7833333</latitude>
    <longitude>-65.75</longitude>
  </city>
  <city name="Boca Muyumanu">
    <latitude>-11.45</latitude>
    <longitude>-69.05</longitude>
  </city>
  <city name="Boca Ortón">
    <latitude>-10.8333333</latitude>
    <longitude>-66.0666667</longitude>
  </city>
  <city name="Boca Toma">
    <latitude>-17.1166667</latitude>
    <longitude>-67.1</longitude>
  </city>
  <city name="Bocca">
    <latitude>-12.6833333</latitude>
    <longitude>-63.2833333</longitude>
  </city>
  <city name="Bochahuasi">
    <latitude>-21.8666667</latitude>
    <longitude>-66.2666667</longitude>
  </city>
  <city name="Bocoa">
    <latitude>-12.6833333</latitude>
    <longitude>-63.2833333</longitude>
  </city>
  <city name="Bococo">
    <latitude>-13.6333333</latitude>
    <longitude>-65.4833333</longitude>
  </city>
  <city name="Bogasugua">
    <latitude>-20.2166667</latitude>
    <longitude>-63.7</longitude>
  </city>
  <city name="Boguasugua">
    <latitude>-20.2166667</latitude>
    <longitude>-63.7</longitude>
  </city>
  <city name="Bohorques">
    <latitude>-19.75</latitude>
    <longitude>-64.0666667</longitude>
  </city>
  <city name="Boicobo Mision">
    <latitude>-20.6833333</latitude>
    <longitude>-63.7</longitude>
  </city>
  <city name="Boicobú">
    <latitude>-20.6833333</latitude>
    <longitude>-63.7</longitude>
  </city>
  <city name="Boicovo">
    <latitude>-20.6833333</latitude>
    <longitude>-63.7</longitude>
  </city>
  <city name="Bojorquez">
    <latitude>-19.75</latitude>
    <longitude>-64.0666667</longitude>
  </city>
  <city name="Bola Puca">
    <latitude>-22.5</latitude>
    <longitude>-64.4666667</longitude>
  </city>
  <city name="Bolívar">
    <latitude>-17.9666667</latitude>
    <longitude>-66.5333333</longitude>
  </city>
  <city name="Bolivar-Sucre">
    <latitude>-19.2666667</latitude>
    <longitude>-68.6166667</longitude>
  </city>
  <city name="Bolpabra">
    <latitude>-10.9333333</latitude>
    <longitude>-69.5833333</longitude>
  </city>
  <city name="Bolpebra">
    <latitude>-10.9333333</latitude>
    <longitude>-69.5833333</longitude>
  </city>
  <city name="Bolsas">
    <latitude>-16.75</latitude>
    <longitude>-63.55</longitude>
  </city>
  <city name="Bolsón">
    <latitude>-18.0333333</latitude>
    <longitude>-64.6833333</longitude>
  </city>
  <city name="Bolson">
    <latitude>-17.2833333</latitude>
    <longitude>-63.6166667</longitude>
  </city>
  <city name="Bombo">
    <latitude>-18.3666667</latitude>
    <longitude>-66.7666667</longitude>
  </city>
  <city name="Bomboma">
    <latitude>-20.4166667</latitude>
    <longitude>-64.6666667</longitude>
  </city>
  <city name="Bom Fica">
    <latitude>-11.05</latitude>
    <longitude>-68.5</longitude>
  </city>
  <city name="Bonaparte">
    <latitude>-16.9333333</latitude>
    <longitude>-67.5166667</longitude>
  </city>
  <city name="Bon Fica">
    <latitude>-11.05</latitude>
    <longitude>-68.5</longitude>
  </city>
  <city name="Boqui">
    <latitude>-17.7166667</latitude>
    <longitude>-61.1666667</longitude>
  </city>
  <city name="Boquis">
    <latitude>-17.7166667</latitude>
    <longitude>-61.1666667</longitude>
  </city>
  <city name="Borigua">
    <latitude>-20.4666667</latitude>
    <longitude>-63.9</longitude>
  </city>
  <city name="Boroanza">
    <latitude>-21.5166667</latitude>
    <longitude>-66.45</longitude>
  </city>
  <city name="Borochi">
    <latitude>-12.5333333</latitude>
    <longitude>-66.5166667</longitude>
  </city>
  <city name="Boroica">
    <latitude>-13.2166667</latitude>
    <longitude>-64.15</longitude>
  </city>
  <city name="Boroico">
    <latitude>-13.2166667</latitude>
    <longitude>-64.15</longitude>
  </city>
  <city name="Boroigua">
    <latitude>-19.9</latitude>
    <longitude>-63.2833333</longitude>
  </city>
  <city name="Bororigua">
    <latitude>-20.4666667</latitude>
    <longitude>-63.9</longitude>
  </city>
  <city name="Borracoma">
    <latitude>-12.05</latitude>
    <longitude>-65.9166667</longitude>
  </city>
  <city name="Borrorigua">
    <latitude>-20.5333333</latitude>
    <longitude>-63.6666667</longitude>
  </city>
  <city name="Bosiperio">
    <latitude>-15.3166667</latitude>
    <longitude>-64.5166667</longitude>
  </city>
  <city name="Boston">
    <latitude>-15.3666667</latitude>
    <longitude>-67.5833333</longitude>
  </city>
  <city name="Botijlaca">
    <latitude>-16.2166667</latitude>
    <longitude>-68.1166667</longitude>
  </city>
  <city name="Botín Quemado">
    <latitude>-14.4333333</latitude>
    <longitude>-64.55</longitude>
  </city>
  <city name="Boyuguasuga">
    <latitude>-20.2166667</latitude>
    <longitude>-63.7</longitude>
  </city>
