<?xml version="1.0" encoding="UTF-8"?>
<country code="co" name="Colombie">
  <city name="20 de Julio">
    <latitude>4.576244</latitude>
    <longitude>-74.089281</longitude>
  </city>
  <city name="20 de Junio">
    <latitude>8.040556</latitude>
    <longitude>-72.6225</longitude>
  </city>
  <city name="4 Esquinas">
    <latitude>1.114268</latitude>
    <longitude>-77.433143</longitude>
  </city>
  <city name="Abarca">
    <latitude>10.766667</latitude>
    <longitude>-74.166667</longitude>
  </city>
  <city name="Abejero">
    <latitude>5.157098</latitude>
    <longitude>-75.906734</longitude>
  </city>
  <city name="Abejorral">
    <latitude>5.789281</latitude>
    <longitude>-75.427252</longitude>
  </city>
  <city name="Abisinia">
    <latitude>-1.383333</latitude>
    <longitude>-72.2</longitude>
  </city>
  <city name="Abra">
    <latitude>11.30987</latitude>
    <longitude>-72.899242</longitude>
  </city>
  <city name="Abrahán Asprilla">
    <latitude>5.0</latitude>
    <longitude>-77.166667</longitude>
  </city>
  <city name="Abras">
    <latitude>11.30987</latitude>
    <longitude>-72.899242</longitude>
  </city>
  <city name="A Bravo">
    <latitude>8.611342</latitude>
    <longitude>-76.443971</longitude>
  </city>
  <city name="Abre El Ojo">
    <latitude>10.928333</latitude>
    <longitude>-72.6675</longitude>
  </city>
  <city name="Abrego">
    <latitude>2.366667</latitude>
    <longitude>-76.716667</longitude>
  </city>
  <city name="Ábrego">
    <latitude>8.080647</latitude>
    <longitude>-73.220543</longitude>
  </city>
  <city name="Abrego Número Dos">
    <latitude>4.224671</latitude>
    <longitude>-75.951616</longitude>
  </city>
  <city name="Abriaquí">
    <latitude>6.631477</latitude>
    <longitude>-76.064437</longitude>
  </city>
  <city name="Abriojo">
    <latitude>6.916667</latitude>
    <longitude>-75.831389</longitude>
  </city>
  <city name="Abuyama">
    <latitude>6.876111</latitude>
    <longitude>-70.585833</longitude>
  </city>
  <city name="Acacías">
    <latitude>3.986946</latitude>
    <longitude>-73.757971</longitude>
  </city>
  <city name="Acalá">
    <latitude>4.674722</latitude>
    <longitude>-75.7825</longitude>
  </city>
  <city name="Acandí">
    <latitude>8.506334</latitude>
    <longitude>-77.277839</longitude>
  </city>
  <city name="Acanti">
    <latitude>8.506334</latitude>
    <longitude>-77.277839</longitude>
  </city>
  <city name="Acapulco">
    <latitude>6.475564</latitude>
    <longitude>-71.712911</longitude>
  </city>
  <city name="Acaricuará">
    <latitude>0.7</latitude>
    <longitude>-70.233333</longitude>
  </city>
  <city name="Acayali">
    <latitude>1.067501</latitude>
    <longitude>-73.37824</longitude>
  </city>
  <city name="Aceite">
    <latitude>12.093792</latitude>
    <longitude>-71.50466</longitude>
  </city>
  <city name="Aceituno">
    <latitude>3.9175</latitude>
    <longitude>-75.18</longitude>
  </city>
  <city name="Acequía">
    <latitude>3.6375</latitude>
    <longitude>-76.401111</longitude>
  </city>
  <city name="Acevedo">
    <latitude>1.754223</latitude>
    <longitude>-76.888115</longitude>
  </city>
  <city name="Acevedo y Gómez">
    <latitude>3.68</latitude>
    <longitude>-75.064722</longitude>
  </city>
  <city name="Achí">
    <latitude>8.568178</latitude>
    <longitude>-74.554052</longitude>
  </city>
  <city name="Achiote">
    <latitude>5.50523</latitude>
    <longitude>-74.354871</longitude>
  </city>
  <city name="Achotal">
    <latitude>10.7</latitude>
    <longitude>-74.85</longitude>
  </city>
  <city name="Achupallas">
    <latitude>1.699642</latitude>
    <longitude>-76.99008</longitude>
  </city>
  <city name="Aco">
    <latitude>3.747222</latitude>
    <longitude>-74.813889</longitude>
  </city>
  <city name="Acón">
    <latitude>1.533333</latitude>
    <longitude>-78.9</longitude>
  </city>
  <city name="Aco Nuevo">
    <latitude>3.74871</latitude>
    <longitude>-74.81118</longitude>
  </city>
  <city name="Acordeón">
    <latitude>9.523956</latitude>
    <longitude>-74.414047</longitude>
  </city>
  <city name="Acosó">
    <latitude>5.096564</latitude>
    <longitude>-76.561818</longitude>
  </city>
  <city name="Acosta">
    <latitude>8.561133</latitude>
    <longitude>-75.545597</longitude>
  </city>
  <city name="Acuapal">
    <latitude>5.422459</latitude>
    <longitude>-74.50783</longitude>
  </city>
  <city name="Acuatá">
    <latitude>4.477443</latitude>
    <longitude>-74.648858</longitude>
  </city>
  <city name="Acuña">
    <latitude>6.666667</latitude>
    <longitude>-74.266667</longitude>
  </city>
  <city name="Adaluz">
    <latitude>11.250385</latitude>
    <longitude>-72.221929</longitude>
  </city>
  <city name="Adán">
    <latitude>10.183333</latitude>
    <longitude>-73.9</longitude>
  </city>
  <city name="Adelaide">
    <latitude>3.921111</latitude>
    <longitude>-75.144167</longitude>
  </city>
  <city name="Admirable">
    <latitude>9.434436</latitude>
    <longitude>-75.003493</longitude>
  </city>
  <city name="Adolfo Ríos">
    <latitude>4.724365</latitude>
    <longitude>-73.900268</longitude>
  </city>
  <city name="Adoretes">
    <latitude>1.840542</latitude>
    <longitude>-77.17688</longitude>
  </city>
  <city name="Adriana">
    <latitude>9.301944</latitude>
    <longitude>-73.913611</longitude>
  </city>
  <city name="Adriano Potes">
    <latitude>5.0</latitude>
    <longitude>-77.066667</longitude>
  </city>
  <city name="Adriene Morano">
    <latitude>4.2775</latitude>
    <longitude>-76.303889</longitude>
  </city>
  <city name="Aduriameina">
    <latitude>10.65181</latitude>
    <longitude>-73.638892</longitude>
  </city>
  <city name="Adurimeina">
    <latitude>10.65181</latitude>
    <longitude>-73.638892</longitude>
  </city>
  <city name="Aflohera">
    <latitude>8.766667</latitude>
    <longitude>-76.116667</longitude>
  </city>
  <city name="Africa">
    <latitude>5.402827</latitude>
    <longitude>-74.867176</longitude>
  </city>
  <city name="Aganche">
    <latitude>2.883333</latitude>
    <longitude>-76.666667</longitude>
  </city>
  <city name="Agárrate">
    <latitude>8.714166</latitude>
    <longitude>-75.542397</longitude>
  </city>
  <city name="Agrado">
    <latitude>2.257254</latitude>
    <longitude>-75.771421</longitude>
  </city>
  <city name="Agregados Siberia">
    <latitude>4.742767</latitude>
    <longitude>-74.136743</longitude>
  </city>
  <city name="Agriasdulces">
    <latitude>10.166667</latitude>
    <longitude>-74.05</longitude>
  </city>
  <city name="Agro Florida">
    <latitude>4.737775</latitude>
    <longitude>-74.137258</longitude>
  </city>
  <city name="Agroyaco">
    <latitude>1.570719</latitude>
    <longitude>-77.435014</longitude>
  </city>
  <city name="Agrumito">
    <latitude>6.471379</latitude>
    <longitude>-70.539085</longitude>
  </city>
  <city name="Agua Azul">
    <latitude>5.172819</latitude>
    <longitude>-72.547058</longitude>
  </city>
  <city name="Agua Blanca">
    <latitude>2.675735</latitude>
    <longitude>-75.937564</longitude>
  </city>
  <city name="Aguablanca">
    <latitude>8.236997</latitude>
    <longitude>-73.52446</longitude>
  </city>
  <city name="Aguabonita">
    <latitude>5.695337</latitude>
    <longitude>-75.628056</longitude>
  </city>
  <city name="Agua Bonita">
    <latitude>2.579625</latitude>
    <longitude>-72.588927</longitude>
  </city>
  <city name="Aguabuena">
    <latitude>6.394039</latitude>
    <longitude>-73.259321</longitude>
  </city>
  <city name="Aguacaliente">
    <latitude>1.381118</latitude>
    <longitude>-75.630307</longitude>
  </city>
  <city name="Agua Caliente">
    <latitude>8.416667</latitude>
    <longitude>-72.5</longitude>
  </city>
  <city name="Aguacatal">
    <latitude>7.102596</latitude>
    <longitude>-75.405245</longitude>
  </city>
  <city name="Aguacate">
    <latitude>5.835527</latitude>
    <longitude>-75.506399</longitude>
  </city>
  <city name="Aguachica">
    <latitude>8.308442</latitude>
    <longitude>-73.6166</longitude>
  </city>
  <city name="Aguacilla">
    <latitude>1.583333</latitude>
    <longitude>-77.016667</longitude>
  </city>
  <city name="Aguacillas">
    <latitude>1.583333</latitude>
    <longitude>-77.016667</longitude>
  </city>
  <city name="Agua Clara">
    <latitude>2.708096</latitude>
    <longitude>-77.160157</longitude>
  </city>
  <city name="Aguaclara">
    <latitude>2.295672</latitude>
    <longitude>-77.767545</longitude>
  </city>
  <city name="Agua Colorada">
    <latitude>5.735833</latitude>
    <longitude>-74.096389</longitude>
  </city>
  <city name="Aguada">
    <latitude>1.687426</latitude>
    <longitude>-73.58343</longitude>
  </city>
  <city name="Aguada de Caferino">
    <latitude>7.181865</latitude>
    <longitude>-73.166003</longitude>
  </city>
  <city name="Aguada de Garrapata">
    <latitude>9.355026</latitude>
    <longitude>-74.098627</longitude>
  </city>
  <city name="Aguada de Pablo">
    <latitude>10.520372</latitude>
    <longitude>-75.006197</longitude>
  </city>
  <city name="Aguadas">
    <latitude>1.923868</latitude>
    <longitude>-76.292322</longitude>
  </city>
  <city name="Agua de Dios">
    <latitude>5.779722</latitude>
    <longitude>-73.866111</longitude>
  </city>
  <city name="Agua de La Virgen">
    <latitude>8.211389</latitude>
    <longitude>-73.3925</longitude>
  </city>
  <city name="Agua de Pablo">
    <latitude>10.520372</latitude>
    <longitude>-75.006197</longitude>
  </city>
  <city name="Agua de Perro">
    <latitude>5.525</latitude>
    <longitude>-74.260278</longitude>
  </city>
  <city name="Aguadita">
    <latitude>6.809722</latitude>
    <longitude>-76.076667</longitude>
  </city>
  <city name="Aguaditas">
    <latitude>8.769433</latitude>
    <longitude>-75.514553</longitude>
  </city>
  <city name="Agua Dulce">
    <latitude>2.793889</latitude>
    <longitude>-77.6125</longitude>
  </city>
  <city name="Aguadulce">
    <latitude>8.708749</latitude>
    <longitude>-75.698126</longitude>
  </city>
  <city name="Aguaestrada">
    <latitude>9.167778</latitude>
    <longitude>-73.991111</longitude>
  </city>
  <city name="Aguaflorida">
    <latitude>9.514323</latitude>
    <longitude>-75.361427</longitude>
  </city>
  <city name="Aguafría">
    <latitude>10.75</latitude>
    <longitude>-74.983333</longitude>
  </city>
  <city name="Agua Fría">
    <latitude>5.83</latitude>
    <longitude>-73.842778</longitude>
  </city>
  <city name="Agua Hedionda">
    <latitude>2.126667</latitude>
    <longitude>-75.6425</longitude>
  </city>
  <city name="Aguahedionda">
    <latitude>3.291944</latitude>
    <longitude>-75.105556</longitude>
  </city>
  <city name="Agualinda">
    <latitude>6.321389</latitude>
    <longitude>-74.609444</longitude>
  </city>
  <city name="Agua Linda">
    <latitude>6.337784</latitude>
    <longitude>-75.607653</longitude>
  </city>
  <city name="Agualisa">
    <latitude>5.569444</latitude>
    <longitude>-73.816667</longitude>
  </city>
  <city name="Aguamansa">
    <latitude>13.333333</latitude>
    <longitude>-81.366667</longitude>
  </city>
  <city name="Agua Mona">
    <latitude>3.85</latitude>
    <longitude>-76.516667</longitude>
  </city>
  <city name="Aguamuerta">
    <latitude>6.324722</latitude>
    <longitude>-74.504722</longitude>
  </city>
  <city name="Aguanegra">
    <latitude>1.013042</latitude>
    <longitude>-75.304412</longitude>
  </city>
  <city name="Agua Negra">
    <latitude>1.083678</latitude>
    <longitude>-75.534588</longitude>
  </city>
  <city name="Aguanegro">
    <latitude>5.778889</latitude>
    <longitude>-74.469167</longitude>
  </city>
  <city name="Aguanta-Callao">
    <latitude>8.284722</latitude>
    <longitude>-72.489444</longitude>
  </city>
  <city name="Agua Padilla">
    <latitude>8.719494</latitude>
    <longitude>-75.435294</longitude>
  </city>
  <city name="Aguasal">
    <latitude>5.464297</latitude>
    <longitude>-76.138766</longitude>
  </city>
  <city name="Aguasblancas">
    <latitude>10.223271</latitude>
    <longitude>-73.491304</longitude>
  </city>
  <city name="Aguas Blancas">
    <latitude>8.262469</latitude>
    <longitude>-73.654113</longitude>
  </city>
  <city name="Aguasbuenas">
    <latitude>10.266667</latitude>
    <longitude>-74.2</longitude>
  </city>
  <city name="Aguas Claras">
    <latitude>8.470064</latitude>
    <longitude>-75.444257</longitude>
  </city>
  <city name="Aguasclaras">
    <latitude>8.323283</latitude>
    <longitude>-73.353284</longitude>
  </city>
  <city name="Aguas Frias">
    <latitude>6.266609</latitude>
    <longitude>-75.516725</longitude>
  </city>
  <city name="Aguas Frías">
    <latitude>9.247456</latitude>
    <longitude>-73.884369</longitude>
  </city>
  <city name="Aguas Lindas">
    <latitude>4.068378</latitude>
    <longitude>-73.105011</longitude>
  </city>
  <city name="Aguas Negras">
    <latitude>7.833333</latitude>
    <longitude>-73.616667</longitude>
  </city>
  <city name="Aguas Prietas">
    <latitude>8.652778</latitude>
    <longitude>-76.175</longitude>
  </city>
  <city name="Agua Sucia">
    <latitude>6.6</latitude>
    <longitude>-72.683333</longitude>
  </city>
  <city name="Aguasvivas">
    <latitude>10.734461</latitude>
    <longitude>-75.07238</longitude>
  </city>
  <city name="Aguas Vivas">
    <latitude>8.524089</latitude>
    <longitude>-75.697771</longitude>
  </city>
  <city name="Aguas Vives">
    <latitude>8.851857</latitude>
    <longitude>-76.109651</longitude>
  </city>
  <city name="Aguaverde">
    <latitude>5.795304</latitude>
    <longitude>-69.983914</longitude>
  </city>
  <city name="Agua Verde">
    <latitude>4.44686</latitude>
    <longitude>-72.685266</longitude>
  </city>
  <city name="Aguaviva">
    <latitude>10.734461</latitude>
    <longitude>-75.07238</longitude>
  </city>
  <city name="Agua Vives">
    <latitude>8.851857</latitude>
    <longitude>-76.109651</longitude>
  </city>
  <city name="Aguayo">
    <latitude>3.711389</latitude>
    <longitude>-75.529444</longitude>
  </city>
  <city name="Aguazul">
    <latitude>4.876667</latitude>
    <longitude>-75.648889</longitude>
  </city>
  <city name="Águila">
    <latitude>6.596667</latitude>
    <longitude>-76.049167</longitude>
  </city>
  <city name="Aguila">
    <latitude>4.746975</latitude>
    <longitude>-73.492711</longitude>
  </city>
  <city name="Aguilandia">
    <latitude>2.939899</latitude>
    <longitude>-73.126065</longitude>
  </city>
  <city name="Aguilar">
    <latitude>6.764167</latitude>
    <longitude>-75.970833</longitude>
  </city>
  <city name="Águilas">
    <latitude>7.470556</latitude>
    <longitude>-73.315833</longitude>
  </city>
  <city name="Aguillo">
    <latitude>1.5</latitude>
    <longitude>-78.266667</longitude>
  </city>
  <city name="Aguirre">
    <latitude>6.597222</latitude>
    <longitude>-75.686944</longitude>
  </city>
  <city name="Aguisi">
    <latitude>7.1</latitude>
    <longitude>-73.65</longitude>
  </city>
  <city name="Agüita">
    <latitude>5.3</latitude>
    <longitude>-76.2</longitude>
  </city>
  <city name="Agüitas">
    <latitude>5.3</latitude>
    <longitude>-76.2</longitude>
  </city>
  <city name="Agustina">
    <latitude>5.666667</latitude>
    <longitude>-74.65</longitude>
  </city>
  <city name="Agustín Codazzi">
    <latitude>10.034087</latitude>
    <longitude>-73.236111</longitude>
  </city>
  <city name="Agustín Vivas">
    <latitude>5.25</latitude>
    <longitude>-76.933333</longitude>
  </city>
  <city name="Ahorca Zorra">
    <latitude>10.504167</latitude>
    <longitude>-74.628889</longitude>
  </city>
  <city name="Ahumada">
    <latitude>1.184198</latitude>
    <longitude>-77.55041</longitude>
  </city>
  <city name="Ahumada Grande">
    <latitude>1.184198</latitude>
    <longitude>-77.55041</longitude>
  </city>
  <city name="Ahuyama">
    <latitude>11.858147</latitude>
    <longitude>-72.291465</longitude>
  </city>
  <city name="Aicalá">
    <latitude>8.091389</latitude>
    <longitude>-72.383333</longitude>
  </city>
  <city name="Aichumahana">
    <latitude>11.945278</latitude>
    <longitude>-71.866667</longitude>
  </city>
  <city name="Aílanapaha">
    <latitude>11.908402</latitude>
    <longitude>-71.735712</longitude>
  </city>
  <city name="Ailaparihi">
    <latitude>11.921836</latitude>
    <longitude>-72.06112</longitude>
  </city>
  <city name="Aipe">
    <latitude>3.222222</latitude>
    <longitude>-75.236667</longitude>
  </city>
  <city name="Aipiruhu">
    <latitude>12.127429</latitude>
    <longitude>-72.115993</longitude>
  </city>
  <city name="Aire Libre">
    <latitude>8.803918</latitude>
    <longitude>-74.3852</longitude>
  </city>
  <city name="Áirrainmaru">
    <latitude>12.448482</latitude>
    <longitude>-71.666781</longitude>
  </city>
  <city name="Ajaraiahuria">
    <latitude>11.570556</latitude>
    <longitude>-72.508364</longitude>
  </city>
  <city name="Ajizales">
    <latitude>5.624167</latitude>
    <longitude>-74.44</longitude>
  </city>
  <city name="Ajumana">
    <latitude>11.466326</latitude>
    <longitude>-72.816053</longitude>
  </city>
  <city name="Álamos">
    <latitude>6.266667</latitude>
    <longitude>-75.583333</longitude>
  </city>
  <city name="Alamos">
    <latitude>4.698391</latitude>
    <longitude>-74.128235</longitude>
  </city>
  <city name="Albán">
    <latitude>1.105404</latitude>
    <longitude>-77.569673</longitude>
  </city>
  <city name="Albania">
    <latitude>1.328661</latitude>
    <longitude>-75.878235</longitude>
  </city>
  <city name="Albanio">
    <latitude>11.160987</latitude>
    <longitude>-72.592385</longitude>
  </city>
  <city name="Albergue">
    <latitude>5.716667</latitude>
    <longitude>-73.216667</longitude>
  </city>
  <city name="Alberto Durán">
    <latitude>7.683333</latitude>
    <longitude>-72.7</longitude>
  </city>
  <city name="Alberto Lleras">
    <latitude>3.87517</latitude>
    <longitude>-77.063358</longitude>
  </city>
  <city name="Albornoz">
    <latitude>10.566667</latitude>
    <longitude>-75.016667</longitude>
  </city>
  <city name="Albricias">
    <latitude>10.55</latitude>
    <longitude>-74.8</longitude>
  </city>
  <city name="Alcalá">
    <latitude>8.091389</latitude>
    <longitude>-72.383333</longitude>
  </city>
  <city name="Alcaldía Mayor">
    <latitude>4.599267</latitude>
    <longitude>-74.07749</longitude>
  </city>
  <city name="Alcantarilla">
    <latitude>0.949094</latitude>
    <longitude>-77.741289</longitude>
  </city>
  <city name="Alcaparral">
    <latitude>5.64265</latitude>
    <longitude>-73.015227</longitude>
  </city>
  <city name="Alcayata">
    <latitude>3.612222</latitude>
    <longitude>-75.315833</longitude>
  </city>
  <city name="Alcázar">
    <latitude>10.783333</latitude>
    <longitude>-75.166667</longitude>
  </city>
  <city name="Alcázares">
    <latitude>4.663288</latitude>
    <longitude>-74.070344</longitude>
  </city>
  <city name="Alcázares Norte">
    <latitude>4.666232</latitude>
    <longitude>-74.067284</longitude>
  </city>
  <city name="Alcibia">
    <latitude>10.416667</latitude>
    <longitude>-75.516667</longitude>
  </city>
  <city name="Alcivar">
    <latitude>1.733333</latitude>
    <longitude>-78.5</longitude>
  </city>
  <city name="Alcosana">
    <latitude>4.025842</latitude>
    <longitude>-73.593775</longitude>
  </city>
  <city name="Aldana">
    <latitude>0.882828</latitude>
    <longitude>-77.701026</longitude>
  </city>
  <city name="Aldea">
    <latitude>6.595</latitude>
    <longitude>-75.914722</longitude>
  </city>
  <city name="Aldea de María">
    <latitude>0.916667</latitude>
    <longitude>-77.533333</longitude>
  </city>
  <city name="Alegacion">
    <latitude>8.394088</latitude>
    <longitude>-73.868708</longitude>
  </city>
  <city name="Alegría">
    <latitude>-2.616667</latitude>
    <longitude>-70.083333</longitude>
  </city>
  <city name="Alegrías">
    <latitude>5.551299</latitude>
    <longitude>-75.611565</longitude>
  </city>
  <city name="Alejandría">
    <latitude>6.377447</latitude>
    <longitude>-75.140649</longitude>
  </city>
  <city name="Alejandria">
    <latitude>10.133333</latitude>
    <longitude>-73.983333</longitude>
  </city>
  <city name="Alejandro Bernate">
    <latitude>4.183333</latitude>
    <longitude>-74.75</longitude>
  </city>
  <city name="Alemania">
    <latitude>6.478889</latitude>
    <longitude>-74.771389</longitude>
  </city>
  <city name="Ales">
    <latitude>1.186858</latitude>
    <longitude>-77.493113</longitude>
  </city>
  <city name="Aletones">
    <latitude>1.487414</latitude>
    <longitude>-75.868885</longitude>
  </city>
  <city name="Alex">
    <latitude>1.189979</latitude>
    <longitude>-77.495592</longitude>
  </city>
  <city name="Alférez">
    <latitude>8.841424</latitude>
    <longitude>-75.07693</longitude>
  </city>
  <city name="Alferéz">
    <latitude>9.716667</latitude>
    <longitude>-75.166667</longitude>
  </city>
  <city name="Alfonso López">
    <latitude>5.895137</latitude>
    <longitude>-75.957222</longitude>
  </city>
  <city name="Alfonzo López">
    <latitude>5.895137</latitude>
    <longitude>-75.957222</longitude>
  </city>
  <city name="Algarrabo">
    <latitude>5.733333</latitude>
    <longitude>-71.933333</longitude>
  </city>
  <city name="Algarrobal">
    <latitude>9.738555</latitude>
    <longitude>-75.389538</longitude>
  </city>
  <city name="Algarrobillito">
    <latitude>10.299811</latitude>
    <longitude>-73.260344</longitude>
  </city>
  <city name="Algarrobo">
    <latitude>6.750833</latitude>
    <longitude>-75.9175</longitude>
  </city>
  <city name="Algeciras">
    <latitude>2.522953</latitude>
    <longitude>-75.314922</longitude>
  </city>
  <city name="Algodonal">
    <latitude>10.348897</latitude>
    <longitude>-74.949191</longitude>
  </city>
  <city name="Algodoncillo">
    <latitude>9.268704</latitude>
    <longitude>-75.55199</longitude>
  </city>
  <city name="Algodones">
    <latitude>4.704565</latitude>
    <longitude>-73.364963</longitude>
  </city>
  <city name="Algorrobo">
    <latitude>9.094389</latitude>
    <longitude>-75.446159</longitude>
  </city>
  <city name="Alianza">
    <latitude>-2.883333</latitude>
    <longitude>-69.766667</longitude>
  </city>
  <city name="Alibisú">
    <latitude>10.166667</latitude>
    <longitude>-75.25</longitude>
  </city>
  <city name="Alibizú">
    <latitude>10.166667</latitude>
    <longitude>-75.25</longitude>
  </city>
  <city name="Alicante">
    <latitude>6.616667</latitude>
    <longitude>-74.6</longitude>
  </city>
  <city name="Alicia">
    <latitude>3.57</latitude>
    <longitude>-76.435833</longitude>
  </city>
  <city name="Aljibes">
    <latitude>6.769191</latitude>
    <longitude>-73.548828</longitude>
  </city>
  <city name="Allaos">
    <latitude>6.261872</latitude>
    <longitude>-75.701765</longitude>
  </city>
  <city name="Allemira">
    <latitude>1.508442</latitude>
    <longitude>-77.010611</longitude>
  </city>
  <city name="Almagra">
    <latitude>8.9131</latitude>
    <longitude>-75.913671</longitude>
  </city>
  <city name="Almaguer">
    <latitude>1.917</latitude>
    <longitude>-76.852331</longitude>
  </city>
  <city name="Almara">
    <latitude>5.51</latitude>
    <longitude>-73.785833</longitude>
  </city>
  <city name="Almeida">
    <latitude>4.970833</latitude>
    <longitude>-73.379722</longitude>
  </city>
  <city name="Almendro">
    <latitude>7.583333</latitude>
    <longitude>-72.833333</longitude>
  </city>
  <city name="Almendros">
    <latitude>4.757467</latitude>
    <longitude>-74.101832</longitude>
  </city>
  <city name="Almidón">
    <latitude>3.825128</latitude>
    <longitude>-67.956097</longitude>
  </city>
  <city name="Almirante Colón">
    <latitude>4.715333</latitude>
    <longitude>-74.083534</longitude>
  </city>
  <city name="Almorzadero">
    <latitude>2.758889</latitude>
    <longitude>-75.535833</longitude>
  </city>
  <city name="Alonso Lince">
    <latitude>3.695833</latitude>
    <longitude>-76.261944</longitude>
  </city>
  <city name="Alpamanga">
    <latitude>0.938816</latitude>
    <longitude>-76.284634</longitude>
  </city>
  <city name="Alpena">
    <latitude>-1.016667</latitude>
    <longitude>-74.066667</longitude>
  </city>
  <city name="Alpes">
    <latitude>10.399444</latitude>
    <longitude>-75.481667</longitude>
  </city>
  <city name="Alpujarra">
    <latitude>6.233333</latitude>
    <longitude>-75.583333</longitude>
  </city>
  <city name="Alpujarrita">
    <latitude>3.361667</latitude>
    <longitude>-74.982778</longitude>
  </city>
  <city name="Alquería">
    <latitude>4.602752</latitude>
    <longitude>-74.140059</longitude>
  </city>
  <city name="Alquería La Fragua">
    <latitude>4.602752</latitude>
    <longitude>-74.140059</longitude>
  </city>
  <city name="Alsacia">
    <latitude>5.677778</latitude>
    <longitude>-75.846667</longitude>
  </city>
  <city name="Alsasia">
    <latitude>4.683333</latitude>
    <longitude>-75.666667</longitude>
  </city>
  <city name="Alta">
    <latitude>1.533333</latitude>
    <longitude>-78.15</longitude>
  </city>
  <city name="Alta Buena Vista">
    <latitude>2.733305</latitude>
    <longitude>-76.521697</longitude>
  </city>
  <city name="Alta Clara">
    <latitude>1.359749</latitude>
    <longitude>-77.074668</longitude>
  </city>
  <city name="Altaclara">
    <latitude>9.95</latitude>
    <longitude>-74.033333</longitude>
  </city>
  <city name="Altaflor">
    <latitude>4.124444</latitude>
    <longitude>-75.969722</longitude>
  </city>
  <city name="Alta Flores">
    <latitude>6.637222</latitude>
    <longitude>-73.836667</longitude>
  </city>
  <city name="Alta Gloria">
    <latitude>7.280278</latitude>
    <longitude>-73.307222</longitude>
  </city>
  <city name="Altagracia">
    <latitude>6.343186</latitude>
    <longitude>-70.487305</longitude>
  </city>
  <city name="Altamar">
    <latitude>5.637778</latitude>
    <longitude>-73.966944</longitude>
  </city>
  <city name="Altamaria">
    <latitude>6.848611</latitude>
    <longitude>-75.6275</longitude>
  </city>
  <city name="Altamira">
    <latitude>6.219444</latitude>
    <longitude>-75.948889</longitude>
  </city>
  <city name="Alta Mira">
    <latitude>7.916514</latitude>
    <longitude>-74.909208</longitude>
  </city>
  <city name="Altamir">
    <latitude>7.021111</latitude>
    <longitude>-75.5925</longitude>
  </city>
  <city name="Alta Miranda">
    <latitude>6.534722</latitude>
    <longitude>-75.745556</longitude>
  </city>
  <city name="Altamisa">
    <latitude>2.395441</latitude>
    <longitude>-75.827547</longitude>
  </city>
  <city name="Altaquér">
    <latitude>1.246635</latitude>
    <longitude>-78.091428</longitude>
  </city>
  <city name="Altas Claras">
    <latitude>9.70991</latitude>
    <longitude>-74.347932</longitude>
  </city>
  <city name="Alta Vista">
    <latitude>5.816667</latitude>
    <longitude>-74.65</longitude>
  </city>
  <city name="Altillo">
    <latitude>7.4</latitude>
    <longitude>-74.833333</longitude>
  </city>
  <city name="Alto Abejorral">
    <latitude>5.645218</latitude>
    <longitude>-75.858293</longitude>
  </city>
  <city name="Alto">
    <latitude>2.691999</latitude>
    <longitude>-76.773662</longitude>
  </city>
  <city name="Alto Barandas">
    <latitude>0.814881</latitude>
    <longitude>-75.879121</longitude>
  </city>
  <city name="Alto Baudó">
    <latitude>5.516042</latitude>
    <longitude>-76.97449</longitude>
  </city>
  <city name="Alto Bello">
    <latitude>6.083095</latitude>
    <longitude>-73.360338</longitude>
  </city>
  <city name="Alto Bonito">
    <latitude>1.147578</latitude>
    <longitude>-75.566277</longitude>
  </city>
  <city name="Altobonito">
    <latitude>8.519681</latitude>
    <longitude>-75.607477</longitude>
  </city>
  <city name="Alto Buenavista">
    <latitude>6.784167</latitude>
    <longitude>-76.114444</longitude>
  </city>
  <city name="Alto Buey Pelado">
    <latitude>7.106899</latitude>
    <longitude>-73.702421</longitude>
  </city>
  <city name="Alto Caldas">
    <latitude>1.638556</latitude>
    <longitude>-75.670549</longitude>
  </city>
  <city name="Alto Calera">
    <latitude>1.283333</latitude>
    <longitude>-77.466667</longitude>
  </city>
  <city name="Alto Campo Alegre">
    <latitude>5.860903</latitude>
    <longitude>-73.876817</longitude>
  </city>
  <city name="Alto Canoas">
    <latitude>6.256705</latitude>
    <longitude>-75.709563</longitude>
  </city>
  <city name="Alto Cantano">
    <latitude>5.844167</latitude>
    <longitude>-73.628333</longitude>
  </city>
  <city name="Alto Capilla">
    <latitude>5.834722</latitude>
    <longitude>-73.635</longitude>
  </city>
  <city name="Alto Caracuchal">
    <latitude>6.373313</latitude>
    <longitude>-73.12032</longitude>
  </city>
  <city name="Alto Cauca">
    <latitude>4.9925</latitude>
    <longitude>-75.743333</longitude>
  </city>
  <city name="Alto Centro Boquerón">
    <latitude>5.981667</latitude>
    <longitude>-73.786111</longitude>
  </city>
  <city name="Alto Chuaré">
    <latitude>2.866667</latitude>
    <longitude>-77.233333</longitude>
  </city>
  <city name="Alto Cruz">
    <latitude>6.801389</latitude>
    <longitude>-75.736389</longitude>
  </city>
  <city name="Alto de Angosturas">
    <latitude>7.319444</latitude>
    <longitude>-73.313889</longitude>
  </city>
  <city name="Alto de Belleza">
    <latitude>4.490278</latitude>
    <longitude>-75.138333</longitude>
  </city>
  <city name="Alto de Cabrera">
    <latitude>1.283333</latitude>
    <longitude>-77.466667</longitude>
  </city>
  <city name="Alto de Calarcá">
    <latitude>5.989714</latitude>
    <longitude>-72.547883</longitude>
  </city>
  <city name="Alto de Cascajal">
    <latitude>4.471013</latitude>
    <longitude>-73.92776</longitude>
  </city>
  <city name="Alto de Cuatro Bocas">
    <latitude>8.722379</latitude>
    <longitude>-74.145394</longitude>
  </city>
  <city name="Alto de Garzón">
    <latitude>2.196145</latitude>
    <longitude>-75.648457</longitude>
  </city>
  <city name="Alto de La Cruz">
    <latitude>4.96</latitude>
    <longitude>-75.5775</longitude>
  </city>
  <city name="Alto de la Mina">
    <latitude>4.951389</latitude>
    <longitude>-75.684446</longitude>
  </city>
  <city name="Alto de La Torre">
    <latitude>4.476667</latitude>
    <longitude>-75.152778</longitude>
  </city>
  <city name="Alto del Cielo">
    <latitude>4.058333</latitude>
    <longitude>-75.311111</longitude>
  </city>
  <city name="Alto del Corral">
    <latitude>6.20576</latitude>
    <longitude>-75.775712</longitude>
  </city>
  <city name="Alto de Lisboa">
    <latitude>5.116667</latitude>
    <longitude>-75.593611</longitude>
  </city>
  <city name="Alto del Manzanillo">
    <latitude>4.926389</latitude>
    <longitude>-75.651389</longitude>
  </city>
  <city name="Alto del Obispo">
    <latitude>1.847217</latitude>
    <longitude>-76.253105</longitude>
  </city>
  <city name="Alto del Oso">
    <latitude>1.649943</latitude>
    <longitude>-76.109309</longitude>
  </city>
  <city name="Alto de Los Patios">
    <latitude>8.25</latitude>
    <longitude>-73.283333</longitude>
  </city>
  <city name="Alto de Los Patos">
    <latitude>8.324444</latitude>
    <longitude>-73.308056</longitude>
  </city>
  <city name="Alto del Rey">
    <latitude>2.439397</latitude>
    <longitude>-76.852357</longitude>
  </city>
  <city name="Alto del Río">
    <latitude>4.539722</latitude>
    <longitude>-75.650278</longitude>
  </city>
  <city name="Alto del Rodadero">
    <latitude>4.457245</latitude>
    <longitude>-73.967343</longitude>
  </city>
  <city name="Alto del Rosario">
    <latitude>8.604954</latitude>
    <longitude>-75.838254</longitude>
  </city>
  <city name="Alto de Manablanca">
    <latitude>4.394159</latitude>
    <longitude>-73.899474</longitude>
  </city>
  <city name="Alto de Mayo">
    <latitude>1.697674</latitude>
    <longitude>-77.299561</longitude>
  </city>
  <city name="Alto de Miradorcito">
    <latitude>4.491389</latitude>
    <longitude>-75.156111</longitude>
  </city>
  <city name="Alto de Mulatos">
    <latitude>8.129414</latitude>
    <longitude>-76.534067</longitude>
  </city>
  <city name="Alto de Ortega">
    <latitude>3.998299</latitude>
    <longitude>-75.270534</longitude>
  </city>
  <city name="Alto de Páez">
    <latitude>4.266667</latitude>
    <longitude>-76.3</longitude>
  </city>
  <city name="Alto de Tigre">
    <latitude>7.178177</latitude>
    <longitude>-74.678401</longitude>
  </city>
  <city name="Alto El Cajón">
    <latitude>6.396614</latitude>
    <longitude>-73.093089</longitude>
  </city>
  <city name="Alto El Consuelo">
    <latitude>1.632592</latitude>
    <longitude>-76.105506</longitude>
  </city>
  <city name="Alto El Morro">
    <latitude>5.154664</latitude>
    <longitude>-74.560528</longitude>
  </city>
  <city name="Alto El Oso">
    <latitude>4.383333</latitude>
    <longitude>-75.65</longitude>
  </city>
  <city name="Alto El Pozo">
    <latitude>8.061111</latitude>
    <longitude>-73.02</longitude>
  </city>
  <city name="Alto El Rayo">
    <latitude>8.133333</latitude>
    <longitude>-73.516667</longitude>
  </city>
  <city name="Alto El Rey">
    <latitude>0.964802</latitude>
    <longitude>-77.506562</longitude>
  </city>
  <city name="Alto El Saltadero">
    <latitude>6.436094</latitude>
    <longitude>-75.563059</longitude>
  </city>
  <city name="Alto El Silencio">
    <latitude>7.268889</latitude>
    <longitude>-75.852778</longitude>
  </city>
  <city name="Alto El Toro">
    <latitude>4.805</latitude>
    <longitude>-75.639444</longitude>
  </city>
  <city name="Alto Forero">
    <latitude>5.674167</latitude>
    <longitude>-73.658333</longitude>
  </city>
  <city name="Alto Frío">
    <latitude>5.685556</latitude>
    <longitude>-74.345833</longitude>
  </city>
  <city name="Alto Gachantiva">
    <latitude>5.684444</latitude>
    <longitude>-73.549722</longitude>
  </city>
  <city name="Alto Gavilán">
    <latitude>3.905</latitude>
    <longitude>-74.385833</longitude>
  </city>
  <city name="Alto Genova">
    <latitude>8.5457</latitude>
    <longitude>-75.636824</longitude>
  </city>
  <city name="Alto Girardot">
    <latitude>5.1604</latitude>
    <longitude>-74.533462</longitude>
  </city>
  <city name="Alto Grande">
    <latitude>5.930566</latitude>
    <longitude>-72.402762</longitude>
  </city>
  <city name="Alto Guamito">
    <latitude>5.873889</latitude>
    <longitude>-73.620833</longitude>
  </city>
  <city name="Alto Guaramito">
    <latitude>8.195833</latitude>
    <longitude>-72.384722</longitude>
  </city>
  <city name="Alto Harmony Hall">
    <latitude>12.539203</latitude>
    <longitude>-81.70868</longitude>
  </city>
  <city name="Alto Jordan">
    <latitude>6.204734</latitude>
    <longitude>-73.743447</longitude>
  </city>
  <city name="Alto Juyamoca">
    <latitude>5.916269</latitude>
    <longitude>-73.670007</longitude>
  </city>
  <city name="Alto La Belleza">
    <latitude>5.935278</latitude>
    <longitude>-73.866389</longitude>
  </city>
  <city name="Alto La Campana">
    <latitude>1.749111</latitude>
    <longitude>-77.189748</longitude>
  </city>
  <city name="Alto La Cañada">
    <latitude>1.692715</latitude>
    <longitude>-77.219465</longitude>
  </city>
  <city name="Alto La Compana">
    <latitude>1.749111</latitude>
    <longitude>-77.189748</longitude>
  </city>
  <city name="Alto La Concordia">
    <latitude>12.539203</latitude>
    <longitude>-81.70868</longitude>
  </city>
  <city name="Alto La Meseta">
    <latitude>5.904648</latitude>
    <longitude>-73.63265</longitude>
  </city>
  <city name="Alto La Piedra">
    <latitude>6.694444</latitude>
    <longitude>-75.542778</longitude>
  </city>
  <city name="Alto La Playa">
    <latitude>2.072721</latitude>
    <longitude>-76.680598</longitude>
  </city>
  <city name="Alto La Quiebra">
    <latitude>6.270469</latitude>
    <longitude>-75.61655</longitude>
  </city>
  <city name="Alto Las Niguas">
    <latitude>6.484001</latitude>
    <longitude>-73.153383</longitude>
  </city>
  <city name="Alto Las Parras">
    <latitude>5.646282</latitude>
    <longitude>-75.82521</longitude>
  </city>
  <city name="Alto Lisboa">
    <latitude>5.116667</latitude>
    <longitude>-75.593611</longitude>
  </city>
  <city name="Alto Loma Hermtosa">
    <latitude>6.269341</latitude>
    <longitude>-75.627261</longitude>
  </city>
  <city name="Alto Losada">
    <latitude>2.374436</latitude>
    <longitude>-74.556108</longitude>
  </city>
  <city name="Alto Lucero">
    <latitude>8.149444</latitude>
    <longitude>-73.385</longitude>
  </city>
  <city name="Alto Mayo">
    <latitude>1.697674</latitude>
    <longitude>-77.299561</longitude>
  </city>
  <city name="Alto Mira">
    <latitude>6.356303</latitude>
    <longitude>-71.792934</longitude>
  </city>
  <city name="Altomira">
    <latitude>10.916667</latitude>
    <longitude>-74.95</longitude>
  </city>
  <city name="Alto Paez">
    <latitude>4.266667</latitude>
    <longitude>-76.3</longitude>
  </city>
  <city name="Alto Palma">
    <latitude>6.283333</latitude>
    <longitude>-73.65</longitude>
  </city>
  <city name="Alto Pance">
    <latitude>3.329426</latitude>
    <longitude>-76.635422</longitude>
  </city>
  <city name="Alto Peña Colorado">
    <latitude>0.989444</latitude>
    <longitude>-77.789167</longitude>
  </city>
  <city name="Alto Piedra Herrada">
    <latitude>5.463379</latitude>
    <longitude>-73.117103</longitude>
  </city>
  <city name="Alto Pino">
    <latitude>11.44354</latitude>
    <longitude>-72.541946</longitude>
  </city>
  <city name="Altoplano">
    <latitude>9.900947</latitude>
    <longitude>-74.289106</longitude>
  </city>
  <city name="Alto Prado">
    <latitude>3.701944</latitude>
    <longitude>-76.160278</longitude>
  </city>
  <city name="Alto Redondo">
    <latitude>5.210587</latitude>
    <longitude>-72.774387</longitude>
  </city>
  <city name="Altoros">
    <latitude>2.021389</latitude>
    <longitude>-74.804444</longitude>
  </city>
  <city name="Alto Rosario">
    <latitude>8.604954</latitude>
    <longitude>-75.838254</longitude>
  </city>
  <city name="Alto San Juan">
    <latitude>4.205745</latitude>
    <longitude>-75.322548</longitude>
  </city>
  <city name="Alto Sano">
    <latitude>3.957778</latitude>
    <longitude>-75.262778</longitude>
  </city>
  <city name="Alto San Rafael">
    <latitude>5.558406</latitude>
    <longitude>-75.782498</longitude>
  </city>
  <city name="Altos del Rosario">
    <latitude>8.794444</latitude>
    <longitude>-74.165833</longitude>
  </city>
  <city name="Alto Seco">
    <latitude>5.598333</latitude>
    <longitude>-74.368611</longitude>
  </city>
  <city name="Alto Senón">
    <latitude>5.645833</latitude>
    <longitude>-75.835556</longitude>
  </city>
  <city name="Alto Sigüí">
    <latitude>2.867716</latitude>
    <longitude>-77.193098</longitude>
  </city>
  <city name="Alto Suárez">
    <latitude>6.289983</latitude>
    <longitude>-73.401932</longitude>
  </city>
  <city name="Alto Talpiaquer">
    <latitude>1.033333</latitude>
    <longitude>-77.3</longitude>
  </city>
  <city name="Alto Tapialquer">
    <latitude>1.033333</latitude>
    <longitude>-77.3</longitude>
  </city>
  <city name="Alto Tierra Negra">
    <latitude>3.979444</latitude>
    <longitude>-74.380556</longitude>
  </city>
  <city name="Alto Valvanera">
    <latitude>0.983486</latitude>
    <longitude>-77.66644</longitude>
  </city>
  <city name="Alto Venecia">
    <latitude>6.745556</latitude>
    <longitude>-75.511111</longitude>
  </city>
  <city name="Altoviento">
    <latitude>8.166667</latitude>
    <longitude>-72.45</longitude>
  </city>
  <city name="Alto Viento">
    <latitude>6.749874</latitude>
    <longitude>-73.696296</longitude>
  </city>
  <city name="Alto Villaraso">
    <latitude>4.971111</latitude>
    <longitude>-75.555556</longitude>
  </city>
  <city name="Alturas">
    <latitude>5.355382</latitude>
    <longitude>-75.811307</longitude>
  </city>
  <city name="Aluuotirö">
    <latitude>12.118585</latitude>
    <longitude>-71.765768</longitude>
  </city>
  <city name="Alvarado">
    <latitude>4.566124</latitude>
    <longitude>-74.962294</longitude>
  </city>
  <city name="Alvecia">
    <latitude>3.645278</latitude>
    <longitude>-76.104444</longitude>
  </city>
  <city name="Alvernia">
    <latitude>1.183333</latitude>
    <longitude>-76.516667</longitude>
  </city>
  <city name="Amaceri">
    <latitude>7.733333</latitude>
    <longitude>-74.716667</longitude>
  </city>
  <city name="Amacocha">
    <latitude>-1.385224</latitude>
    <longitude>-73.554083</longitude>
  </city>
  <city name="Amador">
    <latitude>10.433333</latitude>
    <longitude>-75.533333</longitude>
  </city>
  <city name="Amagá">
    <latitude>6.040011</latitude>
    <longitude>-75.703151</longitude>
  </city>
  <city name="Amagamiento">
    <latitude>6.25</latitude>
    <longitude>-74.9</longitude>
  </city>
  <city name="Amaiceo">
    <latitude>11.255346</latitude>
    <longitude>-72.371478</longitude>
  </city>
  <city name="Amaigur">
    <latitude>11.433333</latitude>
    <longitude>-72.2</longitude>
  </city>
  <city name="Amaime">
    <latitude>3.606523</latitude>
    <longitude>-76.275069</longitude>
  </city>
  <city name="Amaiquiro">
    <latitude>12.083333</latitude>
    <longitude>-72.116667</longitude>
  </city>
  <city name="Amaiteo">
    <latitude>11.255346</latitude>
    <longitude>-72.371478</longitude>
  </city>
  <city name="Amakimahana">
    <latitude>12.241291</latitude>
    <longitude>-71.68273</longitude>
  </city>
  <city name="Amalfi">
    <latitude>6.910163</latitude>
    <longitude>-75.077644</longitude>
  </city>
  <city name="Amalia">
    <latitude>7.001667</latitude>
    <longitude>-75.038333</longitude>
  </city>
  <city name="Amalia López">
    <latitude>4.111111</latitude>
    <longitude>-75.983889</longitude>
  </city>
  <city name="Amámahana">
    <latitude>11.413889</latitude>
    <longitude>-72.390556</longitude>
  </city>
  <city name="Amanaven">
    <latitude>4.096416</latitude>
    <longitude>-67.733269</longitude>
  </city>
  <city name="Amansagatos">
    <latitude>6.277778</latitude>
    <longitude>-73.22</longitude>
  </city>
  <city name="Amanserí">
    <latitude>7.737267</latitude>
    <longitude>-74.722503</longitude>
  </city>
  <city name="Amantible">
    <latitude>6.916389</latitude>
    <longitude>-75.566944</longitude>
  </city>
  <city name="Amaranto">
    <latitude>5.850351</latitude>
    <longitude>-75.931966</longitude>
  </city>
  <city name="Amaserí">
    <latitude>7.737267</latitude>
    <longitude>-74.722503</longitude>
  </city>
  <city name="Amaurica">
    <latitude>11.495473</latitude>
    <longitude>-72.743125</longitude>
  </city>
  <city name="Amaya">
    <latitude>9.393425</latitude>
    <longitude>-75.77131</longitude>
  </city>
  <city name="Amayarco">
    <latitude>3.773333</latitude>
    <longitude>-75.179444</longitude>
  </city>
  <city name="Amazonas">
    <latitude>10.1</latitude>
    <longitude>-73.3</longitude>
  </city>
  <city name="Ambalamita">
    <latitude>3.290556</latitude>
    <longitude>-74.924722</longitude>
  </city>
  <city name="Ambalema">
    <latitude>4.78405</latitude>
    <longitude>-74.762682</longitude>
  </city>
  <city name="Ambato">
    <latitude>4.236867</latitude>
    <longitude>-74.900131</longitude>
  </city>
  <city name="Amberes">
    <latitude>4.171667</latitude>
    <longitude>-75.613611</longitude>
  </city>
  <city name="Ambica">
    <latitude>2.585767</latitude>
    <longitude>-75.663467</longitude>
  </city>
  <city name="Ambicá">
    <latitude>3.495833</latitude>
    <longitude>-74.794167</longitude>
  </city>
  <city name="Amborco">
    <latitude>3.021944</latitude>
    <longitude>-75.364444</longitude>
  </city>
  <city name="Amborquito">
    <latitude>3.028611</latitude>
    <longitude>-75.358889</longitude>
  </city>
  <city name="Ambrosia">
    <latitude>10.462771</latitude>
    <longitude>-75.025903</longitude>
  </city>
  <city name="Ambrosio">
    <latitude>10.462771</latitude>
    <longitude>-75.025903</longitude>
  </city>
  <city name="Ambulu">
    <latitude>3.636111</latitude>
    <longitude>-75.355</longitude>
  </city>
  <city name="Amchisohu">
    <latitude>12.24929</latitude>
    <longitude>-71.344886</longitude>
  </city>
  <city name="América">
    <latitude>6.25</latitude>
    <longitude>-75.616667</longitude>
  </city>
  <city name="Amézquita">
    <latitude>5.783333</latitude>
    <longitude>-73.216667</longitude>
  </city>
  <city name="Aminda">
    <latitude>1.616667</latitude>
    <longitude>-77.5</longitude>
  </city>
  <city name="Amocal">
    <latitude>5.724722</latitude>
    <longitude>-74.004167</longitude>
  </city>
  <city name="Amoyá">
    <latitude>3.672467</latitude>
    <longitude>-75.384118</longitude>
  </city>
  <city name="Amparo">
    <latitude>4.75</latitude>
    <longitude>-72.233333</longitude>
  </city>
  <city name="Amsterco">
    <latitude>8.038868</latitude>
    <longitude>-76.657456</longitude>
  </city>
  <city name="Amsterdam">
    <latitude>4.977825</latitude>
    <longitude>-73.903241</longitude>
  </city>
  <city name="Amurco">
    <latitude>11.476944</latitude>
    <longitude>-72.756944</longitude>
  </city>
  <city name="Amúrurua">
    <latitude>11.5925</latitude>
    <longitude>-72.739444</longitude>
  </city>
  <city name="Anacal">
    <latitude>6.158014</latitude>
    <longitude>-73.148386</longitude>
  </city>
  <city name="Anacarco">
    <latitude>3.446389</latitude>
    <longitude>-75.098889</longitude>
  </city>
  <city name="Anacaro">
    <latitude>4.789167</latitude>
    <longitude>-75.966667</longitude>
  </city>
  <city name="Anacleto García">
    <latitude>2.983333</latitude>
    <longitude>-75.0</longitude>
  </city>
  <city name="Anaconia">
    <latitude>2.928229</latitude>
    <longitude>-75.100215</longitude>
  </city>
  <city name="Anacuta">
    <latitude>4.334167</latitude>
    <longitude>-74.490531</longitude>
  </city>
  <city name="Anaí">
    <latitude>11.626195</latitude>
    <longitude>-72.375102</longitude>
  </city>
  <city name="Anaime">
    <latitude>11.24358</latitude>
    <longitude>-73.04032</longitude>
  </city>
  <city name="Ana Joaquina">
    <latitude>9.240536</latitude>
    <longitude>-74.567154</longitude>
  </city>
  <city name="Analipa">
    <latitude>11.416667</latitude>
    <longitude>-72.633333</longitude>
  </city>
  <city name="Analipe">
    <latitude>11.416667</latitude>
    <longitude>-72.633333</longitude>
  </city>
  <city name="Anapoima">
    <latitude>4.520278</latitude>
    <longitude>-74.539444</longitude>
  </city>
  <city name="A Nariño">
    <latitude>1.756003</latitude>
    <longitude>-78.475033</longitude>
  </city>
  <city name="Anasu">
    <latitude>3.05</latitude>
    <longitude>-76.666667</longitude>
  </city>
  <city name="Anayaco">
    <latitude>1.817778</latitude>
    <longitude>-75.87883</longitude>
  </city>
  <city name="Anay">
    <latitude>11.626195</latitude>
    <longitude>-72.375102</longitude>
  </city>
  <city name="Anayas">
    <latitude>2.51444</latitude>
    <longitude>-76.786099</longitude>
  </city>
  <city name="Añazco">
    <latitude>3.5175</latitude>
    <longitude>-76.166389</longitude>
  </city>
  <city name="Anchicaya">
    <latitude>3.618611</latitude>
    <longitude>-76.913333</longitude>
  </city>
  <city name="Anchique">
    <latitude>3.579688</latitude>
    <longitude>-75.099279</longitude>
  </city>
  <city name="Ancón">
    <latitude>1.533333</latitude>
    <longitude>-78.9</longitude>
  </city>
  <city name="Ancuya">
    <latitude>1.2703</latitude>
    <longitude>-77.515749</longitude>
  </city>
  <city name="Andadero">
    <latitude>4.85</latitude>
    <longitude>-73.766667</longitude>
  </city>
  <city name="Andagoya">
    <latitude>5.094503</latitude>
    <longitude>-76.722773</longitude>
  </city>
  <city name="Andalucía">
    <latitude>7.587222</latitude>
    <longitude>-76.633889</longitude>
  </city>
  <city name="Andalucia">
    <latitude>1.254802</latitude>
    <longitude>-75.45783</longitude>
  </city>
  <city name="Andes">
    <latitude>5.656098</latitude>
    <longitude>-75.878772</longitude>
  </city>
  <city name="Andian">
    <latitude>10.25</latitude>
    <longitude>-75.266667</longitude>
  </city>
  <city name="Andianapolis">
    <latitude>4.165833</latitude>
    <longitude>-76.386389</longitude>
  </city>
  <city name="Andinapóles">
    <latitude>4.165833</latitude>
    <longitude>-76.386389</longitude>
  </city>
  <city name="Andongo">
    <latitude>1.638189</latitude>
    <longitude>-77.407135</longitude>
  </city>
  <city name="Andorra">
    <latitude>6.143059</latitude>
    <longitude>-73.177442</longitude>
  </city>
  <city name="Andrea">
    <latitude>10.766667</latitude>
    <longitude>-74.833333</longitude>
  </city>
  <city name="Anerrutamahana">
    <latitude>12.323584</latitude>
    <longitude>-71.662831</longitude>
  </city>
  <city name="Anganoy">
    <latitude>1.233333</latitude>
    <longitude>-77.283333</longitude>
  </city>
  <city name="Angelia">
    <latitude>3.493333</latitude>
    <longitude>-75.269722</longitude>
  </city>
  <city name="Angelina">
    <latitude>6.715</latitude>
    <longitude>-75.886667</longitude>
  </city>
  <city name="Angelópolis">
    <latitude>6.083333</latitude>
    <longitude>-75.7</longitude>
  </city>
  <city name="Angentina">
    <latitude>6.813959</latitude>
    <longitude>-73.705911</longitude>
  </city>
  <city name="Angola">
    <latitude>9.9</latitude>
    <longitude>-75.45</longitude>
  </city>
  <city name="Angonoy">
    <latitude>1.233333</latitude>
    <longitude>-77.283333</longitude>
  </city>
  <city name="Angostura">
    <latitude>-0.45</latitude>
    <longitude>-72.516667</longitude>
  </city>
  <city name="Angosturas">
    <latitude>6.885077</latitude>
    <longitude>-75.334669</longitude>
  </city>
  <city name="Angulo">
    <latitude>2.051887</latitude>
    <longitude>-77.107765</longitude>
  </city>
  <city name="Angustia">
    <latitude>9.323471</latitude>
    <longitude>-75.339699</longitude>
  </city>
  <city name="Ánimas">
    <latitude>0.85</latitude>
    <longitude>-77.633333</longitude>
  </city>
  <city name="Anjel del Descanso">
    <latitude>11.683333</latitude>
    <longitude>-72.75</longitude>
  </city>
  <city name="Anolaima">
    <latitude>8.088962</latitude>
    <longitude>-73.529127</longitude>
  </city>
  <city name="Añonuevo">
    <latitude>8.192523</latitude>
    <longitude>-77.107887</longitude>
  </city>
  <city name="Anorí">
    <latitude>7.072725</latitude>
    <longitude>-75.147677</longitude>
  </city>
  <city name="Anselmo Sedy">
    <latitude>5.016667</latitude>
    <longitude>-77.116667</longitude>
  </city>
  <city name="Anserma">
    <latitude>5.332778</latitude>
    <longitude>-75.791111</longitude>
  </city>
  <city name="Ansermanueva">
    <latitude>4.797222</latitude>
    <longitude>-75.995</longitude>
  </city>
  <city name="Ansermanuevo">
    <latitude>4.797222</latitude>
    <longitude>-75.995</longitude>
  </city>
  <city name="Antadó">
    <latitude>6.983333</latitude>
    <longitude>-76.25</longitude>
  </city>
  <city name="Antasales">
    <latitude>7.35</latitude>
    <longitude>-76.15</longitude>
  </city>
  <city name="Antechiro">
    <latitude>12.083333</latitude>
    <longitude>-71.383333</longitude>
  </city>
  <city name="Antéshiruhu">
    <latitude>12.083333</latitude>
    <longitude>-71.383333</longitude>
  </city>
  <city name="Antezales">
    <latitude>7.35</latitude>
    <longitude>-76.15</longitude>
  </city>
  <city name="Antiguo">
    <latitude>6.083333</latitude>
    <longitude>-69.233333</longitude>
  </city>
  <city name="Antiguo Caserío La Bonga">
    <latitude>10.372634</latitude>
    <longitude>-75.2836</longitude>
  </city>
  <city name="Antioquia">
    <latitude>6.556867</latitude>
    <longitude>-75.828056</longitude>
  </city>
  <city name="Antoñazo">
    <latitude>10.240991</latitude>
    <longitude>-74.336459</longitude>
  </city>
  <city name="Antonia">
    <latitude>10.870544</latitude>
    <longitude>-74.182836</longitude>
  </city>
  <city name="Antonia Santos">
    <latitude>6.272725</latitude>
    <longitude>-73.036037</longitude>
  </city>
  <city name="Antonio Garcia">
    <latitude>8.860278</latitude>
    <longitude>-76.339722</longitude>
  </city>
  <city name="Antonio Nariño">
    <latitude>1.663241</latitude>
    <longitude>-77.0174</longitude>
  </city>
  <city name="António Nariño">
    <latitude>4.585617</latitude>
    <longitude>-74.10151</longitude>
  </city>
  <city name="Antonio Recaurte">
    <latitude>5.665833</latitude>
    <longitude>-73.729722</longitude>
  </city>
  <city name="Antonio Ricaurte">
    <latitude>3.645513</latitude>
    <longitude>-76.247673</longitude>
  </city>
  <city name="Antonio Salguero">
    <latitude>5.566667</latitude>
    <longitude>-77.016667</longitude>
  </city>
  <city name="Anúachom A">
    <latitude>11.460109</latitude>
    <longitude>-72.559272</longitude>
  </city>
  <city name="Anúachom B">
    <latitude>11.466661</latitude>
    <longitude>-72.557887</longitude>
  </city>
  <city name="Anúachon">
    <latitude>11.460109</latitude>
    <longitude>-72.559272</longitude>
  </city>
  <city name="Anuariachóm">
    <latitude>11.245921</latitude>
    <longitude>-72.253508</longitude>
  </city>
  <city name="Anzá">
    <latitude>6.30322</latitude>
    <longitude>-75.853806</longitude>
  </city>
  <city name="Anzoátegui">
    <latitude>4.629963</latitude>
    <longitude>-75.09539</longitude>
  </city>
  <city name="Apariuohu">
    <latitude>11.428056</latitude>
    <longitude>-72.137222</longitude>
  </city>
  <city name="Apartadade">
    <latitude>8.778421</latitude>
    <longitude>-75.560149</longitude>
  </city>
  <city name="Apartadero">
    <latitude>8.216667</latitude>
    <longitude>-73.333333</longitude>
  </city>
  <city name="Apartaderos">
    <latitude>8.216667</latitude>
    <longitude>-73.333333</longitude>
  </city>
  <city name="Apartadó">
    <latitude>7.866667</latitude>
    <longitude>-76.666667</longitude>
  </city>
  <city name="Aperche">
    <latitude>5.423642</latitude>
    <longitude>-74.360956</longitude>
  </city>
  <city name="Apía">
    <latitude>5.10645</latitude>
    <longitude>-75.943177</longitude>
  </city>
  <city name="Apial">
    <latitude>4.105594</latitude>
    <longitude>-73.59242</longitude>
  </city>
  <city name="Apiay">
    <latitude>4.105594</latitude>
    <longitude>-73.59242</longitude>
  </city>
  <city name="Apicala">
    <latitude>4.147252</latitude>
    <longitude>-74.720141</longitude>
  </city>
  <city name="Aponé">
    <latitude>3.666667</latitude>
    <longitude>-75.366667</longitude>
  </city>
  <city name="Aponte">
    <latitude>1.40095</latitude>
    <longitude>-77.030009</longitude>
  </city>
  <city name="Aposentos">
    <latitude>8.333333</latitude>
    <longitude>-73.066667</longitude>
  </city>
  <city name="Apotoruitpa">
    <latitude>11.989797</latitude>
    <longitude>-72.054321</longitude>
  </city>
  <city name="Apotureca">
    <latitude>11.485</latitude>
    <longitude>-72.5775</longitude>
  </city>
  <city name="Apucarpo">
    <latitude>6.726111</latitude>
    <longitude>-76.033611</longitude>
  </city>
  <city name="Apulo">
    <latitude>4.519521</latitude>
    <longitude>-74.59293</longitude>
  </city>
  <city name="Apure">
    <latitude>9.871815</latitude>
    <longitude>-74.585907</longitude>
  </city>
  <city name="Apure Plato">
    <latitude>9.871815</latitude>
    <longitude>-74.585907</longitude>
  </city>
  <city name="Aquablanca">
    <latitude>3.684907</latitude>
    <longitude>-76.354936</longitude>
  </city>
  <city name="Aquabonita">
    <latitude>2.579625</latitude>
    <longitude>-72.588927</longitude>
  </city>
  <city name="Aquachía">
    <latitude>8.308442</latitude>
    <longitude>-73.6166</longitude>
  </city>
  <city name="Aquatría">
    <latitude>1.7725</latitude>
    <longitude>-77.236944</longitude>
  </city>
  <city name="Aquitania">
    <latitude>5.843837</latitude>
    <longitude>-74.970596</longitude>
  </city>
  <city name="Aquitas">
    <latitude>7.333432</latitude>
    <longitude>-75.46906</longitude>
  </city>
  <city name="Arabia">
    <latitude>5.916667</latitude>
    <longitude>-75.783333</longitude>
  </city>
  <city name="Araca">
    <latitude>3.566667</latitude>
    <longitude>-75.433333</longitude>
  </city>
  <city name="Aracal">
    <latitude>4.316825</latitude>
    <longitude>-73.139433</longitude>
  </city>
  <city name="Aracataca">
    <latitude>10.591812</latitude>
    <longitude>-74.189831</longitude>
  </city>
  <city name="Arache">
    <latitude>9.07534</latitude>
    <longitude>-75.642861</longitude>
  </city>
  <city name="Aracuara">
    <latitude>-0.615263</latitude>
    <longitude>-72.383902</longitude>
  </city>
  <city name="Aracure">
    <latitude>4.370278</latitude>
    <longitude>-70.6</longitude>
  </city>
  <city name="Arada">
    <latitude>3.455654</latitude>
    <longitude>-74.884378</longitude>
  </city>
  <city name="Aragón">
    <latitude>6.782341</latitude>
    <longitude>-75.561906</longitude>
  </city>
  <city name="Araguato">
    <latitude>2.751389</latitude>
    <longitude>-70.79</longitude>
  </city>
  <city name="Arainaguo">
    <latitude>11.473377</latitude>
    <longitude>-72.780311</longitude>
  </city>
  <city name="Arákachom">
    <latitude>11.474114</latitude>
    <longitude>-72.314047</longitude>
  </city>
  <city name="Arambaza">
    <latitude>-2.066667</latitude>
    <longitude>-73.1</longitude>
  </city>
  <city name="Aránapuruohu">
    <latitude>12.141109</latitude>
    <longitude>-71.727859</longitude>
  </city>
  <city name="Aranda">
    <latitude>1.239251</latitude>
    <longitude>-77.268174</longitude>
  </city>
  <city name="Aranjuez">
    <latitude>6.283333</latitude>
    <longitude>-75.566667</longitude>
  </city>
  <city name="Aranzazu">
    <latitude>2.476416</latitude>
    <longitude>-75.919011</longitude>
  </city>
  <city name="Araos">
    <latitude>6.709722</latitude>
    <longitude>-75.922778</longitude>
  </city>
  <city name="Aráparen">
    <latitude>11.498344</latitude>
    <longitude>-72.1732</longitude>
  </city>
  <city name="Arará">
    <latitude>1.164397</latitude>
    <longitude>-71.639954</longitude>
  </city>
  <city name="Ararac">
    <latitude>-0.8</latitude>
    <longitude>-72.333333</longitude>
  </city>
  <city name="Araracuara">
    <latitude>-0.621695</latitude>
    <longitude>-72.383952</longitude>
  </city>
  <city name="Araras de Coemas">
    <latitude>-1.216667</latitude>
    <longitude>-72.333333</longitude>
  </city>
  <city name="Ararca">
    <latitude>10.26102</latitude>
    <longitude>-75.555064</longitude>
  </city>
  <city name="Aráshouri">
    <latitude>12.40032</latitude>
    <longitude>-71.511294</longitude>
  </city>
  <city name="Aratoca">
    <latitude>6.693532</latitude>
    <longitude>-73.020826</longitude>
  </city>
  <city name="Aratoque">
    <latitude>8.25</latitude>
    <longitude>-73.2</longitude>
  </city>
  <city name="Araua">
    <latitude>12.317786</latitude>
    <longitude>-71.651918</longitude>
  </city>
  <city name="Arauca">
    <latitude>7.084512</latitude>
    <longitude>-70.755366</longitude>
  </city>
  <city name="Arauco">
    <latitude>5.110478</latitude>
    <longitude>-75.702298</longitude>
  </city>
  <city name="Araujo">
    <latitude>2.577927</latitude>
    <longitude>-75.830853</longitude>
  </city>
  <city name="Araurica">
    <latitude>11.616667</latitude>
    <longitude>-72.683333</longitude>
  </city>
  <city name="Araurío">
    <latitude>11.800833</latitude>
    <longitude>-72.359167</longitude>
  </city>
  <city name="Arayón">
    <latitude>3.416166</latitude>
    <longitude>-77.139294</longitude>
  </city>
  <city name="Arbela">
    <latitude>2.143607</latitude>
    <longitude>-76.771921</longitude>
  </city>
  <city name="Arbeláez">
    <latitude>9.012692</latitude>
    <longitude>-75.170909</longitude>
  </city>
  <city name="Árbol del Descanso">
    <latitude>11.683333</latitude>
    <longitude>-72.75</longitude>
  </city>
  <city name="Arboleda">
    <latitude>5.877366</latitude>
    <longitude>-75.506686</longitude>
  </city>
  <city name="Arboledas">
    <latitude>1.70134</latitude>
    <longitude>-77.201394</longitude>
  </city>
  <city name="Arboleda Sur">
    <latitude>4.563691</latitude>
    <longitude>-74.119878</longitude>
  </city>
  <city name="Arboletas">
    <latitude>8.85051</latitude>
    <longitude>-76.426939</longitude>
  </city>
  <city name="Arboletes">
    <latitude>8.85051</latitude>
    <longitude>-76.426939</longitude>
  </city>
  <city name="Arbolito">
    <latitude>4.013889</latitude>
    <longitude>-75.639722</longitude>
  </city>
  <city name="Arbolsolo">
    <latitude>6.207264</latitude>
    <longitude>-73.103748</longitude>
  </city>
  <city name="Árbol Solo">
    <latitude>6.419832</latitude>
    <longitude>-73.222773</longitude>
  </city>
  <city name="Arcabuco">
    <latitude>5.754629</latitude>
    <longitude>-73.436694</longitude>
  </city>
  <city name="Arcadia">
    <latitude>2.436573</latitude>
    <longitude>-75.411011</longitude>
  </city>
  <city name="Archibolds">
    <latitude>13.333333</latitude>
    <longitude>-81.366667</longitude>
  </city>
  <city name="Arcón">
    <latitude>5.5</latitude>
    <longitude>-75.666667</longitude>
  </city>
  <city name="Ardila">
    <latitude>6.4</latitude>
    <longitude>-75.233333</longitude>
  </city>
  <city name="Ardita">
    <latitude>7.150085</latitude>
    <longitude>-77.791104</longitude>
  </city>
  <city name="Arebe">
    <latitude>4.766667</latitude>
    <longitude>-68.5</longitude>
  </city>
  <city name="Arémasahin">
    <latitude>12.1865</latitude>
    <longitude>-71.815662</longitude>
  </city>
  <city name="Aremasain">
    <latitude>11.491981</latitude>
    <longitude>-72.694852</longitude>
  </city>
  <city name="Aremasánahu">
    <latitude>11.882502</latitude>
    <longitude>-71.641612</longitude>
  </city>
  <city name="Aremasáuahu">
    <latitude>11.882502</latitude>
    <longitude>-71.641612</longitude>
  </city>
  <city name="Aremasauao">
    <latitude>11.882502</latitude>
    <longitude>-71.641612</longitude>
  </city>
  <city name="Arena">
    <latitude>8.461745</latitude>
    <longitude>-75.548942</longitude>
  </city>
  <city name="Arena Blanca">
    <latitude>9.46186</latitude>
    <longitude>-73.457617</longitude>
  </city>
  <city name="Arenablanca">
    <latitude>9.165256</latitude>
    <longitude>-74.972585</longitude>
  </city>
  <city name="Arena del Norte">
    <latitude>8.986833</latitude>
    <longitude>-75.500231</longitude>
  </city>
  <city name="Arena del Sur">
    <latitude>8.581111</latitude>
    <longitude>-75.584167</longitude>
  </city>
  <city name="Arenal">
    <latitude>2.968211</latitude>
    <longitude>-77.397405</longitude>
  </city>
  <city name="Arenal Chico">
    <latitude>5.0</latitude>
    <longitude>-73.95</longitude>
  </city>
  <city name="Arenales">
    <latitude>2.820816</latitude>
    <longitude>-76.706869</longitude>
  </city>
  <city name="Arenas">
    <latitude>8.581111</latitude>
    <longitude>-75.584167</longitude>
  </city>
  <city name="Arenasblancas">
    <latitude>9.46186</latitude>
    <longitude>-73.457617</longitude>
  </city>
  <city name="Arenas del Norte">
    <latitude>8.986111</latitude>
    <longitude>-75.500833</longitude>
  </city>
  <city name="Arenas del Sur">
    <latitude>8.581111</latitude>
    <longitude>-75.584167</longitude>
  </city>
  <city name="Arenosa">
    <latitude>6.474258</latitude>
    <longitude>-74.686187</longitude>
  </city>
  <city name="Arenosita">
    <latitude>7.016667</latitude>
    <longitude>-74.55</longitude>
  </city>
  <city name="Arenoso">
    <latitude>8.217598</latitude>
    <longitude>-75.737998</longitude>
  </city>
  <city name="Ares Bocas">
    <latitude>6.977292</latitude>
    <longitude>-71.219466</longitude>
  </city>
  <city name="Argel">
    <latitude>4.75</latitude>
    <longitude>-74.316667</longitude>
  </city>
  <city name="Argelia">
    <latitude>-1.31932</latitude>
    <longitude>-73.433273</longitude>
  </city>
  <city name="Argentina">
    <latitude>5.733333</latitude>
    <longitude>-75.05</longitude>
  </city>
  <city name="Argüello">
    <latitude>1.145051</latitude>
    <longitude>-77.452926</longitude>
  </city>
  <city name="Aríaitpa">
    <latitude>12.266667</latitude>
    <longitude>-71.416667</longitude>
  </city>
  <city name="Ariari">
    <latitude>4.0</latitude>
    <longitude>-74.5</longitude>
  </city>
  <city name="Arica">
    <latitude>-2.133333</latitude>
    <longitude>-71.733333</longitude>
  </city>
  <city name="Ariguaní">
    <latitude>10.25</latitude>
    <longitude>-74.0</longitude>
  </city>
  <city name="Arihueca">
    <latitude>10.838798</latitude>
    <longitude>-74.17074</longitude>
  </city>
  <city name="Aríjunasahin">
    <latitude>11.685833</latitude>
    <longitude>-72.326111</longitude>
  </city>
  <city name="Arimaca">
    <latitude>11.126369</latitude>
    <longitude>-74.111603</longitude>
  </city>
  <city name="Ariporo">
    <latitude>5.966667</latitude>
    <longitude>-72.25</longitude>
  </city>
  <city name="Arírapaha">
    <latitude>12.098579</latitude>
    <longitude>-71.809327</longitude>
  </city>
  <city name="Arírapah">
    <latitude>11.628611</latitude>
    <longitude>-72.466389</longitude>
  </city>
  <city name="Aritayeín">
    <latitude>11.67368</latitude>
    <longitude>-72.736088</longitude>
  </city>
  <city name="Arizona">
    <latitude>2.720485</latitude>
    <longitude>-72.282198</longitude>
  </city>
  <city name="Arjona">
    <latitude>9.533851</latitude>
    <longitude>-73.909244</longitude>
  </city>
  <city name="Arma">
    <latitude>5.613828</latitude>
    <longitude>-75.539322</longitude>
  </city>
  <city name="Armadillo">
    <latitude>10.6</latitude>
    <longitude>-74.916667</longitude>
  </city>
  <city name="Armadillo Número Tres">
    <latitude>10.6</latitude>
    <longitude>-74.916667</longitude>
  </city>
  <city name="Armenia">
    <latitude>6.156389</latitude>
    <longitude>-75.787222</longitude>
  </city>
  <city name="Armenia Central">
    <latitude>8.825429</latitude>
    <longitude>-76.254748</longitude>
  </city>
  <city name="Armero">
    <latitude>5.031034</latitude>
    <longitude>-74.886825</longitude>
  </city>
  <city name="Arnanía">
    <latitude>7.185556</latitude>
    <longitude>-73.033889</longitude>
  </city>
  <city name="Arpajaco">
    <latitude>12.233333</latitude>
    <longitude>-71.266667</longitude>
  </city>
  <city name="Arquía">
    <latitude>6.240385</latitude>
    <longitude>-76.72837</longitude>
  </city>
  <city name="Arquisa">
    <latitude>8.133333</latitude>
    <longitude>-77.016667</longitude>
  </city>
  <city name="Arrancaplumas">
    <latitude>5.2</latitude>
    <longitude>-74.733333</longitude>
  </city>
  <city name="Arrastradero">
    <latitude>5.300206</latitude>
    <longitude>-76.33226</longitude>
  </city>
  <city name="Arrayanal">
    <latitude>2.688187</latitude>
    <longitude>-76.817139</longitude>
  </city>
  <city name="Arrayán">
    <latitude>3.133889</latitude>
    <longitude>-75.334167</longitude>
  </city>
  <city name="Arrayan">
    <latitude>5.523333</latitude>
    <longitude>-73.891389</longitude>
  </city>
  <city name="Arrayanes">
    <latitude>2.693849</latitude>
    <longitude>-76.806271</longitude>
  </city>
  <city name="Arrecifal">
    <latitude>3.634167</latitude>
    <longitude>-69.051111</longitude>
  </city>
  <city name="Arrecife">
    <latitude>6.981944</latitude>
    <longitude>-70.602778</longitude>
  </city>
  <city name="Arrecifes">
    <latitude>4.188707</latitude>
    <longitude>-73.240518</longitude>
  </city>
  <city name="Arriba">
    <latitude>3.743858</latitude>
    <longitude>-76.304803</longitude>
  </city>
  <city name="Arriba del Arroyo">
    <latitude>9.816096</latitude>
    <longitude>-75.182901</longitude>
  </city>
  <city name="Arribato">
    <latitude>8.435403</latitude>
    <longitude>-72.572634</longitude>
  </city>
  <city name="Arribató">
    <latitude>5.329458</latitude>
    <longitude>-75.940443</longitude>
  </city>
  <city name="Arrieta">
    <latitude>5.553155</latitude>
    <longitude>-75.517936</longitude>
  </city>
  <city name="Arrimadero">
    <latitude>9.046287</latitude>
    <longitude>-75.422721</longitude>
  </city>
  <city name="Arrocera Cabezas">
    <latitude>8.173218</latitude>
    <longitude>-73.603674</longitude>
  </city>
  <city name="Arroyave">
    <latitude>6.508611</latitude>
    <longitude>-75.600833</longitude>
  </city>
  <city name="Arroyo Arena">
    <latitude>8.532053</latitude>
    <longitude>-75.582541</longitude>
  </city>
  <city name="Arroyo Arenas">
    <latitude>9.730299</latitude>
    <longitude>-75.169839</longitude>
  </city>
  <city name="Arroyo Arriba">
    <latitude>8.626944</latitude>
    <longitude>-75.650278</longitude>
  </city>
  <city name="Arroyo Barro">
    <latitude>10.7</latitude>
    <longitude>-75.1</longitude>
  </city>
  <city name="Arroyo Bella Arena">
    <latitude>11.270458</latitude>
    <longitude>-72.909343</longitude>
  </city>
  <city name="Arroyo Cojo">
    <latitude>10.6</latitude>
    <longitude>-74.783333</longitude>
  </city>
  <city name="Arroyo de Piedra">
    <latitude>10.629467</latitude>
    <longitude>-75.10447</longitude>
  </city>
  <city name="Arroyo de Piedras">
    <latitude>10.629467</latitude>
    <longitude>-75.10447</longitude>
  </city>
  <city name="Arroyo Grande">
    <latitude>10.733333</latitude>
    <longitude>-74.883333</longitude>
  </city>
  <city name="Arroyo Hondo">
    <latitude>10.583333</latitude>
    <longitude>-74.866667</longitude>
  </city>
  <city name="Arroyohondo">
    <latitude>10.252204</latitude>
    <longitude>-75.019801</longitude>
  </city>
  <city name="Arroyo La Burra">
    <latitude>8.602595</latitude>
    <longitude>-75.621675</longitude>
  </city>
  <city name="Arroyón">
    <latitude>8.311895</latitude>
    <longitude>-75.735571</longitude>
  </city>
  <city name="Arroyo Negro">
    <latitude>10.569062</latitude>
    <longitude>-75.15051</longitude>
  </city>
  <city name="Arroyo Piedras">
    <latitude>10.629467</latitude>
    <longitude>-75.10447</longitude>
  </city>
  <city name="Arroyuelo">
    <latitude>3.900278</latitude>
    <longitude>-75.205278</longitude>
  </city>
  <city name="Arrozcrudo">
    <latitude>9.347425</latitude>
    <longitude>-74.388844</longitude>
  </city>
  <city name="Artonal">
    <latitude>3.452414</latitude>
    <longitude>-76.286426</longitude>
  </city>
  <city name="Arúachani">
    <latitude>12.2</latitude>
    <longitude>-71.3</longitude>
  </city>
  <city name="Arúahin">
    <latitude>11.658455</latitude>
    <longitude>-72.608839</longitude>
  </city>
  <city name="Arúatapahi">
    <latitude>11.570894</latitude>
    <longitude>-72.741058</longitude>
  </city>
  <city name="Aruatapahin">
    <latitude>12.361473</latitude>
    <longitude>-71.659509</longitude>
  </city>
  <city name="Arúatapay">
    <latitude>12.2</latitude>
    <longitude>-71.233333</longitude>
  </city>
  <city name="Aruba">
    <latitude>10.541111</latitude>
    <longitude>-72.9175</longitude>
  </city>
  <city name="Arumaque">
    <latitude>10.65</latitude>
    <longitude>-73.683333</longitude>
  </city>
  <city name="Arusí">
    <latitude>5.595778</latitude>
    <longitude>-77.475062</longitude>
  </city>
  <city name="Aruzí">
    <latitude>5.595778</latitude>
    <longitude>-77.475062</longitude>
  </city>
  <city name="Asamblea">
    <latitude>8.446223</latitude>
    <longitude>-75.920296</longitude>
  </city>
  <city name="As de Copas">
    <latitude>5.9225</latitude>
    <longitude>-74.396667</longitude>
  </city>
  <city name="Aserradero">
    <latitude>9.350615</latitude>
    <longitude>-75.685121</longitude>
  </city>
  <city name="Aserrío El Carmen">
    <latitude>3.316667</latitude>
    <longitude>-77.3275</longitude>
  </city>
  <city name="Aserrío La Fragua">
    <latitude>3.494158</latitude>
    <longitude>-77.227277</longitude>
  </city>
  <city name="Aserrío Primavera">
    <latitude>3.327778</latitude>
    <longitude>-77.345833</longitude>
  </city>
  <city name="Aserrío Tambor">
    <latitude>3.132841</latitude>
    <longitude>-77.498663</longitude>
  </city>
  <city name="Asia">
    <latitude>5.066667</latitude>
    <longitude>-75.85</longitude>
  </city>
  <city name="Asientos">
    <latitude>6.683333</latitude>
    <longitude>-75.8</longitude>
  </city>
  <city name="Así es La Vida">
    <latitude>9.985276</latitude>
    <longitude>-73.601874</longitude>
  </city>
  <city name="Asnazu">
    <latitude>3.05</latitude>
    <longitude>-76.666667</longitude>
  </city>
  <city name="Aspacica">
    <latitude>8.277222</latitude>
    <longitude>-73.186389</longitude>
  </city>
  <city name="Aspasica">
    <latitude>8.277222</latitude>
    <longitude>-73.186389</longitude>
  </city>
  <city name="Astanay">
    <latitude>12.316667</latitude>
    <longitude>-71.283333</longitude>
  </city>
  <city name="Astarón">
    <latitude>1.35</latitude>
    <longitude>-77.533333</longitude>
  </city>
  <city name="Astelia">
    <latitude>4.241957</latitude>
    <longitude>-75.964619</longitude>
  </city>
  <city name="Astillero">
    <latitude>9.230998</latitude>
    <longitude>-73.527902</longitude>
  </city>
  <city name="Astilleros">
    <latitude>8.538474</latitude>
    <longitude>-73.496078</longitude>
  </city>
  <city name="Astorga">
    <latitude>5.05</latitude>
    <longitude>-73.866667</longitude>
  </city>
  <city name="Astrea">
    <latitude>9.498276</latitude>
    <longitude>-73.975914</longitude>
  </city>
  <city name="Asturia">
    <latitude>3.729722</latitude>
    <longitude>-76.2925</longitude>
  </city>
  <city name="Asturias">
    <latitude>4.09</latitude>
    <longitude>-74.398889</longitude>
  </city>
  <city name="Asunción">
    <latitude>11.253889</latitude>
    <longitude>-73.263056</longitude>
  </city>
  <city name="Atáchom">
    <latitude>11.566667</latitude>
    <longitude>-72.733333</longitude>
  </city>
  <city name="Ataco">
    <latitude>3.591466</latitude>
    <longitude>-75.381776</longitude>
  </city>
  <city name="Atájapo">
    <latitude>12.032494</latitude>
    <longitude>-71.867266</longitude>
  </city>
  <city name="Atalaya">
    <latitude>2.101944</latitude>
    <longitude>-75.711111</longitude>
  </city>
  <city name="Atanasio">
    <latitude>6.416667</latitude>
    <longitude>-70.516667</longitude>
  </city>
  <city name="Atánques">
    <latitude>10.701438</latitude>
    <longitude>-73.35203</longitude>
  </city>
  <city name="Atanquez">
    <latitude>10.701438</latitude>
    <longitude>-73.35203</longitude>
  </city>
  <city name="Atara">
    <latitude>7.683333</latitude>
    <longitude>-74.466667</longitude>
  </city>
  <city name="Atarraya">
    <latitude>5.425</latitude>
    <longitude>-75.929167</longitude>
  </city>
  <city name="Atascosas">
    <latitude>10.416667</latitude>
    <longitude>-75.35</longitude>
  </city>
  <city name="Atasure">
    <latitude>11.312786</latitude>
    <longitude>-72.367705</longitude>
  </city>
  <city name="Atenas">
    <latitude>-0.6</latitude>
    <longitude>-72.9</longitude>
  </city>
  <city name="Atescos">
    <latitude>10.416667</latitude>
    <longitude>-75.35</longitude>
  </city>
  <city name="Atfanapu">
    <latitude>12.341613</latitude>
    <longitude>-71.715714</longitude>
  </city>
  <city name="Atiquimaqueca">
    <latitude>10.584011</latitude>
    <longitude>-73.567988</longitude>
  </city>
  <city name="Atkusirro">
    <latitude>11.437065</latitude>
    <longitude>-72.581789</longitude>
  </city>
  <city name="Atlántico">
    <latitude>10.453106</latitude>
    <longitude>-74.414245</longitude>
  </city>
  <city name="Atpajauohu">
    <latitude>12.233333</latitude>
    <longitude>-71.266667</longitude>
  </city>
  <city name="Atpana">
    <latitude>11.201667</latitude>
    <longitude>-72.238333</longitude>
  </city>
  <city name="Atpatirro">
    <latitude>12.216667</latitude>
    <longitude>-71.216667</longitude>
  </city>
  <city name="Atrato">
    <latitude>10.066667</latitude>
    <longitude>-74.2</longitude>
  </city>
  <city name="Atuncela">
    <latitude>3.737778</latitude>
    <longitude>-76.676389</longitude>
  </city>
  <city name="Atunsuela">
    <latitude>3.737778</latitude>
    <longitude>-76.676389</longitude>
  </city>
  <city name="Augura">
    <latitude>7.823889</latitude>
    <longitude>-76.649722</longitude>
  </city>
  <city name="Aujero">
    <latitude>11.496667</latitude>
    <longitude>-72.886667</longitude>
  </city>
  <city name="Aují">
    <latitude>3.618611</latitude>
    <longitude>-76.108889</longitude>
  </city>
  <city name="Aullama">
    <latitude>11.858147</latitude>
    <longitude>-72.291465</longitude>
  </city>
  <city name="Aural">
    <latitude>5.866111</latitude>
    <longitude>-73.518056</longitude>
  </city>
  <city name="Aures">
    <latitude>3.1</latitude>
    <longitude>-76.75</longitude>
  </city>
  <city name="Aurora">
    <latitude>9.464525</latitude>
    <longitude>-73.561087</longitude>
  </city>
  <city name="Aurra">
    <latitude>6.510562</latitude>
    <longitude>-75.803399</longitude>
  </city>
  <city name="Australia">
    <latitude>8.713333</latitude>
    <longitude>-76.107222</longitude>
  </city>
  <city name="Auyama">
    <latitude>11.858147</latitude>
    <longitude>-72.291465</longitude>
  </city>
  <city name="Auyamal">
    <latitude>10.449661</latitude>
    <longitude>-75.048418</longitude>
  </city>
  <city name="Auyana">
    <latitude>11.858147</latitude>
    <longitude>-72.291465</longitude>
  </city>
  <city name="Avelinere">
    <latitude>6.873245</latitude>
    <longitude>-70.594996</longitude>
  </city>
  <city name="Avelinero">
    <latitude>6.873245</latitude>
    <longitude>-70.594996</longitude>
  </city>
  <city name="Avendaño La Antigua">
    <latitude>6.02863</latitude>
    <longitude>-73.041186</longitude>
  </city>
  <city name="Avícola Brisas de Huila">
    <latitude>10.987277</latitude>
    <longitude>-74.851501</longitude>
  </city>
  <city name="Ávila">
    <latitude>-1.039722</latitude>
    <longitude>-70.338056</longitude>
  </city>
  <city name="Avimi">
    <latitude>4.329444</latitude>
    <longitude>-70.123611</longitude>
  </city>
  <city name="Avingüe">
    <latitude>10.7815</latitude>
    <longitude>-73.374615</longitude>
  </city>
  <city name="Avirama">
    <latitude>2.676096</latitude>
    <longitude>-76.014357</longitude>
  </city>
  <city name="Ayacucho">
    <latitude>10.75</latitude>
    <longitude>-74.916667</longitude>
  </city>
  <city name="Ayapel">
    <latitude>8.313721</latitude>
    <longitude>-75.139822</longitude>
  </city>
  <city name="Ayecta">
    <latitude>10.54777</latitude>
    <longitude>-73.562873</longitude>
  </city>
  <city name="Azcárete">
    <latitude>3.841667</latitude>
    <longitude>-76.327222</longitude>
  </city>
  <city name="Azoque">
    <latitude>1.422689</latitude>
    <longitude>-77.368953</longitude>
  </city>
  <city name="Azúcar">
    <latitude>1.3</latitude>
    <longitude>-78.566667</longitude>
  </city>
  <city name="Azucena">
    <latitude>10.8</latitude>
    <longitude>-75.1</longitude>
  </city>
  <city name="Azucenos">
    <latitude>6.608333</latitude>
    <longitude>-75.665833</longitude>
  </city>
  <city name="Azufrera">
    <latitude>4.783333</latitude>
    <longitude>-75.45</longitude>
  </city>
  <city name="Azul Boquerón">
    <latitude>5.683429</latitude>
    <longitude>-72.728909</longitude>
  </city>
  <city name="Azules">
    <latitude>6.558611</latitude>
    <longitude>-75.958056</longitude>
  </city>
  <city name="Bábega">
    <latitude>7.183333</latitude>
    <longitude>-72.733333</longitude>
  </city>
  <city name="Babillas">
    <latitude>8.806619</latitude>
    <longitude>-75.800562</longitude>
  </city>
  <city name="Babilonia">
    <latitude>8.433333</latitude>
    <longitude>-73.75</longitude>
  </city>
  <city name="Babitas">
    <latitude>7.030685</latitude>
    <longitude>-71.59591</longitude>
  </city>
  <city name="Baborreal">
    <latitude>7.005289</latitude>
    <longitude>-73.166597</longitude>
  </city>
  <city name="Báchira">
    <latitude>6.696556</latitude>
    <longitude>-72.183256</longitude>
  </city>
  <city name="Badillo">
    <latitude>7.233333</latitude>
    <longitude>-75.933333</longitude>
  </city>
  <city name="Bagadó">
    <latitude>5.411637</latitude>
    <longitude>-76.415202</longitude>
  </city>
  <city name="Bagalal">
    <latitude>7.522679</latitude>
    <longitude>-72.489283</longitude>
  </city>
  <city name="Baganique Centro">
    <latitude>5.345511</latitude>
    <longitude>-73.351883</longitude>
  </city>
  <city name="Bagaza">
    <latitude>4.984984</latitude>
    <longitude>-74.484266</longitude>
  </city>
  <city name="Bagazal">
    <latitude>4.8</latitude>
    <longitude>-74.5</longitude>
  </city>
  <city name="Bagre">
    <latitude>7.083333</latitude>
    <longitude>-74.6</longitude>
  </city>
  <city name="Bagrero">
    <latitude>3.167067</latitude>
    <longitude>-77.535265</longitude>
  </city>
  <city name="Bahaire">
    <latitude>10.283333</latitude>
    <longitude>-75.516667</longitude>
  </city>
  <city name="Bahía Honda">
    <latitude>12.318105</latitude>
    <longitude>-71.789231</longitude>
  </city>
  <city name="Bahía Hondita">
    <latitude>12.414749</latitude>
    <longitude>-71.729293</longitude>
  </city>
  <city name="Bahía Solano">
    <latitude>6.22622</latitude>
    <longitude>-77.404393</longitude>
  </city>
  <city name="Bahía Suroeste">
    <latitude>13.333333</latitude>
    <longitude>-81.383333</longitude>
  </city>
  <city name="Bailey">
    <latitude>13.35</latitude>
    <longitude>-81.35</longitude>
  </city>
  <city name="Bajira">
    <latitude>7.3725</latitude>
    <longitude>-76.714722</longitude>
  </city>
  <city name="Bajo Barandas">
    <latitude>0.841685</latitude>
    <longitude>-75.7701</longitude>
  </city>
  <city name="Bajo Baudó">
    <latitude>4.953336</latitude>
    <longitude>-77.365975</longitude>
  </city>
  <city name="Bajo Caldas">
    <latitude>1.643321</latitude>
    <longitude>-75.641074</longitude>
  </city>
  <city name="Bajo Calima">
    <latitude>3.996389</latitude>
    <longitude>-76.974444</longitude>
  </city>
  <city name="Bajo Casanare">
    <latitude>1.120736</latitude>
    <longitude>-77.197573</longitude>
  </city>
  <city name="Bajo Cebadal">
    <latitude>1.116667</latitude>
    <longitude>-77.35</longitude>
  </city>
  <city name="Bajo Cielo">
    <latitude>2.759722</latitude>
    <longitude>-75.607222</longitude>
  </city>
  <city name="Bajo Corazon">
    <latitude>1.033994</latitude>
    <longitude>-76.647799</longitude>
  </city>
  <city name="Bajo Cuque">
    <latitude>8.116667</latitude>
    <longitude>-77.0</longitude>
  </city>
  <city name="Bajo de Felipe">
    <latitude>10.426111</latitude>
    <longitude>-75.120833</longitude>
  </city>
  <city name="Bajo de Los Caballos">
    <latitude>9.783333</latitude>
    <longitude>-75.016667</longitude>
  </city>
  <city name="Bajo de Unira">
    <latitude>10.7</latitude>
    <longitude>-75.083333</longitude>
  </city>
  <city name="Bajo Español">
    <latitude>4.943611</latitude>
    <longitude>-75.696389</longitude>
  </city>
  <city name="Bajo Frutal">
    <latitude>1.797066</latitude>
    <longitude>-76.256432</longitude>
  </city>
  <city name="Bajo Grande">
    <latitude>8.74289</latitude>
    <longitude>-75.527903</longitude>
  </city>
  <city name="Bajogrande">
    <latitude>9.833333</latitude>
    <longitude>-74.966667</longitude>
  </city>
  <city name="Bajo Jordan">
    <latitude>6.209875</latitude>
    <longitude>-73.746178</longitude>
  </city>
  <city name="Bajo Los Babilleros">
    <latitude>8.4</latitude>
    <longitude>-75.316667</longitude>
  </city>
  <city name="Bajo Pato">
    <latitude>2.591944</latitude>
    <longitude>-74.761389</longitude>
  </city>
  <city name="Bajo Planes">
    <latitude>1.988279</latitude>
    <longitude>-76.160172</longitude>
  </city>
  <city name="Bajo Primavera">
    <latitude>8.913611</latitude>
    <longitude>-76.217222</longitude>
  </city>
  <city name="Bajo Sabaletas">
    <latitude>3.816667</latitude>
    <longitude>-76.616667</longitude>
  </city>
  <city name="Bajos de Chiquito">
    <latitude>10.6</latitude>
    <longitude>-75.333333</longitude>
  </city>
  <city name="Bajos de Gallego">
    <latitude>10.55</latitude>
    <longitude>-74.883333</longitude>
  </city>
  <city name="Bajo Sigüí">
    <latitude>2.866667</latitude>
    <longitude>-77.183333</longitude>
  </city>
  <city name="Bajo Tapialquer">
    <latitude>1.066667</latitude>
    <longitude>-77.316667</longitude>
  </city>
  <city name="Bajo Viejo">
    <latitude>9.322542</latitude>
    <longitude>-75.36694</longitude>
  </city>
  <city name="Bajo Zabaletas">
    <latitude>3.816667</latitude>
    <longitude>-76.616667</longitude>
  </city>
  <city name="Bakiro">
    <latitude>2.770399</latitude>
    <longitude>-69.18886</longitude>
  </city>
  <city name="Balalaica">
    <latitude>1.216667</latitude>
    <longitude>-77.666667</longitude>
  </city>
  <city name="Balalaika">
    <latitude>1.099292</latitude>
    <longitude>-75.680448</longitude>
  </city>
  <city name="Balastera">
    <latitude>6.785833</latitude>
    <longitude>-75.548889</longitude>
  </city>
  <city name="Balaustrada">
    <latitude>9.663082</latitude>
    <longitude>-75.411427</longitude>
  </city>
  <city name="Balbanera">
    <latitude>1.35</latitude>
    <longitude>-77.833333</longitude>
  </city>
  <city name="Balboa">
    <latitude>2.039556</latitude>
    <longitude>-77.216839</longitude>
  </city>
  <city name="Balcanes">
    <latitude>1.297365</latitude>
    <longitude>-75.588548</longitude>
  </city>
  <city name="Balcón">
    <latitude>5.528611</latitude>
    <longitude>-74.195</longitude>
  </city>
  <city name="Balconcitos">
    <latitude>8.356424</latitude>
    <longitude>-73.697697</longitude>
  </city>
  <city name="Balcón Cruz">
    <latitude>1.931222</latitude>
    <longitude>-76.750556</longitude>
  </city>
  <city name="Balconda">
    <latitude>7.23722</latitude>
    <longitude>-75.202876</longitude>
  </city>
  <city name="Balcones">
    <latitude>8.321111</latitude>
    <longitude>-73.075556</longitude>
  </city>
  <city name="Baldín">
    <latitude>10.416667</latitude>
    <longitude>-75.416667</longitude>
  </city>
  <city name="Baleon">
    <latitude>1.3</latitude>
    <longitude>-77.533333</longitude>
  </city>
  <city name="Balestas">
    <latitude>10.216101</latitude>
    <longitude>-75.438599</longitude>
  </city>
  <city name="Balkanes">
    <latitude>4.516667</latitude>
    <longitude>-76.366667</longitude>
  </city>
  <city name="Ballenato">
    <latitude>1.375</latitude>
    <longitude>-78.599444</longitude>
  </city>
  <city name="Ballestas">
    <latitude>10.216101</latitude>
    <longitude>-75.438599</longitude>
  </city>
  <city name="Ballesteros">
    <latitude>10.716667</latitude>
    <longitude>-74.833333</longitude>
  </city>
  <city name="Balmoral">
    <latitude>4.883054</latitude>
    <longitude>-72.360365</longitude>
  </city>
  <city name="Balneario Acapulco">
    <latitude>4.12025</latitude>
    <longitude>-73.59115</longitude>
  </city>
  <city name="Balneario de Concha">
    <latitude>11.3</latitude>
    <longitude>-74.15</longitude>
  </city>
  <city name="Balneario de Villa Concha">
    <latitude>11.3</latitude>
    <longitude>-74.15</longitude>
  </city>
  <city name="Balooncito">
    <latitude>5.002121</latitude>
    <longitude>-74.584358</longitude>
  </city>
  <city name="Balsa">
    <latitude>8.158374</latitude>
    <longitude>-76.077866</longitude>
  </city>
  <city name="Balsal">
    <latitude>6.510278</latitude>
    <longitude>-75.911389</longitude>
  </city>
  <city name="Balsamina">
    <latitude>8.121667</latitude>
    <longitude>-72.879167</longitude>
  </city>
  <city name="Bálsamo">
    <latitude>6.733333</latitude>
    <longitude>-73.6</longitude>
  </city>
  <city name="Balsares">
    <latitude>4.192316</latitude>
    <longitude>-75.340963</longitude>
  </city>
  <city name="Balseadero">
    <latitude>6.248056</latitude>
    <longitude>-74.880278</longitude>
  </city>
  <city name="Balsilla">
    <latitude>6.616667</latitude>
    <longitude>-71.733333</longitude>
  </city>
  <city name="Balsillas">
    <latitude>1.19891</latitude>
    <longitude>-75.606011</longitude>
  </city>
  <city name="Balsistas">
    <latitude>2.216667</latitude>
    <longitude>-77.7</longitude>
  </city>
  <city name="Balsita">
    <latitude>4.357872</latitude>
    <longitude>-74.716667</longitude>
  </city>
  <city name="Balsitas">
    <latitude>2.216667</latitude>
    <longitude>-77.7</longitude>
  </city>
  <city name="Balsora">
    <latitude>1.294997</latitude>
    <longitude>-75.596992</longitude>
  </city>
  <city name="Baltimore">
    <latitude>4.104444</latitude>
    <longitude>-75.579444</longitude>
  </city>
  <city name="Baltimores">
    <latitude>4.666667</latitude>
    <longitude>-74.516667</longitude>
  </city>
  <city name="Balzac">
    <latitude>10.595892</latitude>
    <longitude>-75.291584</longitude>
  </city>
  <city name="Banadía">
    <latitude>6.9</latitude>
    <longitude>-71.85</longitude>
  </city>
  <city name="Bananera">
    <latitude>8.074546</latitude>
    <longitude>-76.662423</longitude>
  </city>
  <city name="Bananera El Porvenir">
    <latitude>8.113549</latitude>
    <longitude>-76.698564</longitude>
  </city>
  <city name="Bananera La Caleta">
    <latitude>8.087956</latitude>
    <longitude>-76.672845</longitude>
  </city>
  <city name="Banco Amarillo">
    <latitude>7.00114</latitude>
    <longitude>-70.931951</longitude>
  </city>
  <city name="Banco Amarilo">
    <latitude>7.00114</latitude>
    <longitude>-70.931951</longitude>
  </city>
  <city name="Banco Arena">
    <latitude>8.358333</latitude>
    <longitude>-72.48</longitude>
  </city>
  <city name="Banco">
    <latitude>6.280164</latitude>
    <longitude>-71.897169</longitude>
  </city>
  <city name="Banco de Arena">
    <latitude>8.358333</latitude>
    <longitude>-72.48</longitude>
  </city>
  <city name="Banco de los Burros">
    <latitude>5.318009</latitude>
    <longitude>-72.151171</longitude>
  </city>
  <city name="Bandera">
    <latitude>2.11</latitude>
    <longitude>-74.884722</longitude>
  </city>
  <city name="Banganita">
    <latitude>10.927984</latitude>
    <longitude>-72.872496</longitude>
  </city>
  <city name="Bangaño">
    <latitude>8.575833</latitude>
    <longitude>-75.693333</longitude>
  </city>
  <city name="Banquetas">
    <latitude>4.983333</latitude>
    <longitude>-72.133333</longitude>
  </city>
  <city name="Barabaca">
    <latitude>4.466667</latitude>
    <longitude>-69.716667</longitude>
  </city>
  <city name="Barahona">
    <latitude>9.34</latitude>
    <longitude>-73.546389</longitude>
  </city>
  <city name="Baramona">
    <latitude>9.34</latitude>
    <longitude>-73.546389</longitude>
  </city>
  <city name="Barandilla">
    <latitude>8.403511</latitude>
    <longitude>-74.983865</longitude>
  </city>
  <city name="Barandillas">
    <latitude>3.466667</latitude>
    <longitude>-75.116667</longitude>
  </city>
  <city name="Barandillo">
    <latitude>3.466667</latitude>
    <longitude>-75.116667</longitude>
  </city>
  <city name="Baranoa">
    <latitude>10.794084</latitude>
    <longitude>-74.9164</longitude>
  </city>
  <city name="Baraya">
    <latitude>2.378313</latitude>
    <longitude>-76.963487</longitude>
  </city>
  <city name="Barbacoa">
    <latitude>9.251285</latitude>
    <longitude>-75.593463</longitude>
  </city>
  <city name="Barbacoas">
    <latitude>6.926111</latitude>
    <longitude>-75.828333</longitude>
  </city>
  <city name="Bárbara">
    <latitude>-0.883387</latitude>
    <longitude>-72.501295</longitude>
  </city>
  <city name="Barbascal">
    <latitude>3.683333</latitude>
    <longitude>-73.433333</longitude>
  </city>
  <city name="Barbascales">
    <latitude>5.162193</latitude>
    <longitude>-74.549236</longitude>
  </city>
  <city name="Barbascalito">
    <latitude>7.233333</latitude>
    <longitude>-74.45</longitude>
  </city>
  <city name="Barbascalito Mina">
    <latitude>7.233333</latitude>
    <longitude>-74.45</longitude>
  </city>
  <city name="Barbasco">
    <latitude>4.483757</latitude>
    <longitude>-73.257978</longitude>
  </city>
  <city name="Barbería">
    <latitude>7.932622</latitude>
    <longitude>-74.842934</longitude>
  </city>
  <city name="Barbillas">
    <latitude>2.007067</latitude>
    <longitude>-76.679261</longitude>
  </city>
  <city name="Barbosa">
    <latitude>6.438088</latitude>
    <longitude>-75.331355</longitude>
  </city>
  <city name="Barboza">
    <latitude>9.026871</latitude>
    <longitude>-74.641227</longitude>
  </city>
  <city name="Barbua">
    <latitude>8.573473</latitude>
    <longitude>-77.296121</longitude>
  </city>
  <city name="Barbú">
    <latitude>9.635204</latitude>
    <longitude>-74.769037</longitude>
  </city>
  <city name="Barbudo">
    <latitude>9.635204</latitude>
    <longitude>-74.769037</longitude>
  </city>
  <city name="Barbur">
    <latitude>5.660339</latitude>
    <longitude>-74.062116</longitude>
  </city>
  <city name="Barcelona Baja">
    <latitude>4.606389</latitude>
    <longitude>-75.690556</longitude>
  </city>
  <city name="Barcelona">
    <latitude>6.233333</latitude>
    <longitude>-75.583333</longitude>
  </city>
  <city name="Barcino">
    <latitude>5.981389</latitude>
    <longitude>-75.538333</longitude>
  </city>
  <city name="Barco">
    <latitude>8.348889</latitude>
    <longitude>-72.442222</longitude>
  </city>
  <city name="Barcos">
    <latitude>3.379811</latitude>
    <longitude>-77.133003</longitude>
  </city>
  <city name="Barcu">
    <latitude>3.379811</latitude>
    <longitude>-77.133003</longitude>
  </city>
  <city name="Barichara">
    <latitude>6.635725</latitude>
    <longitude>-73.222824</longitude>
  </city>
  <city name="Baritalia">
    <latitude>6.55</latitude>
    <longitude>-71.633333</longitude>
  </city>
  <city name="Barley">
    <latitude>4.8</latitude>
    <longitude>-72.566667</longitude>
  </city>
  <city name="Barlovento">
    <latitude>9.494155</latitude>
    <longitude>-73.687546</longitude>
  </city>
  <city name="Barqueña">
    <latitude>8.887222</latitude>
    <longitude>-76.006389</longitude>
  </city>
  <city name="Barquereña">
    <latitude>6.4501</latitude>
    <longitude>-71.12154</longitude>
  </city>
  <city name="Barracón">
    <latitude>6.822909</latitude>
    <longitude>-76.047829</longitude>
  </city>
  <city name="Barragán">
    <latitude>3.005833</latitude>
    <longitude>-75.188611</longitude>
  </city>
  <city name="Barranca">
    <latitude>8.011447</latitude>
    <longitude>-73.720415</longitude>
  </city>
  <city name="Barrancabermeja">
    <latitude>7.065278</latitude>
    <longitude>-73.854722</longitude>
  </city>
  <city name="Barranca de Lebrija">
    <latitude>8.011447</latitude>
    <longitude>-73.720415</longitude>
  </city>
  <city name="Barranca de Upía">
    <latitude>4.569634</latitude>
    <longitude>-72.966758</longitude>
  </city>
  <city name="Barranca de Upta">
    <latitude>4.569634</latitude>
    <longitude>-72.966758</longitude>
  </city>
  <city name="Barranca Lebrija">
    <latitude>8.011447</latitude>
    <longitude>-73.720415</longitude>
  </city>
  <city name="Barranca Nueva">
    <latitude>10.195587</latitude>
    <longitude>-74.935815</longitude>
  </city>
  <city name="Barrancas">
    <latitude>2.12597</latitude>
    <longitude>-75.798065</longitude>
  </city>
  <city name="Barrancas de San Nicolás">
    <latitude>10.963889</latitude>
    <longitude>-74.796389</longitude>
  </city>
  <city name="Barranca Vieja">
    <latitude>10.15</latitude>
    <longitude>-74.933333</longitude>
  </city>
