<?xml version="1.0" encoding="UTF-8"?>
<country code="cz" name="République tchèque">
  <city name="Abaschin">
    <latitude>49.976012</latitude>
    <longitude>12.747483</longitude>
  </city>
  <city name="Abertamy">
    <latitude>50.369718</latitude>
    <longitude>12.819946</longitude>
  </city>
  <city name="Abertham">
    <latitude>50.369718</latitude>
    <longitude>12.819946</longitude>
  </city>
  <city name="Abtsdorf">
    <latitude>49.823053</latitude>
    <longitude>16.506069</longitude>
  </city>
  <city name="Abtsroth">
    <latitude>50.254499</latitude>
    <longitude>12.423936</longitude>
  </city>
  <city name="Adamov">
    <latitude>49.301409</latitude>
    <longitude>16.655487</longitude>
  </city>
  <city name="Adamsfreiheit">
    <latitude>49.052206</latitude>
    <longitude>15.139484</longitude>
  </city>
  <city name="Adamsthal">
    <latitude>49.301409</latitude>
    <longitude>16.655487</longitude>
  </city>
  <city name="Adelsdorf">
    <latitude>50.196681</latitude>
    <longitude>17.194218</longitude>
  </city>
  <city name="Adersbach">
    <latitude>50.623073</latitude>
    <longitude>16.095756</longitude>
  </city>
  <city name="Adler-Kosteletz">
    <latitude>50.123826</latitude>
    <longitude>16.211445</longitude>
  </city>
  <city name="Adlerova Hut'">
    <latitude>48.934327</latitude>
    <longitude>13.70772</longitude>
  </city>
  <city name="Adolfov">
    <latitude>50.735427</latitude>
    <longitude>13.903789</longitude>
  </city>
  <city name="Adolfovice">
    <latitude>50.196681</latitude>
    <longitude>17.194218</longitude>
  </city>
  <city name="Adolfsgrun">
    <latitude>50.735427</latitude>
    <longitude>13.903789</longitude>
  </city>
  <city name="Adrspach">
    <latitude>50.623073</latitude>
    <longitude>16.095756</longitude>
  </city>
  <city name="Ahnikov">
    <latitude>50.440237</latitude>
    <longitude>13.321155</longitude>
  </city>
  <city name="Ahorn">
    <latitude>48.802637</latitude>
    <longitude>14.265941</longitude>
  </city>
  <city name="Ahornhutte">
    <latitude>48.666667</latitude>
    <longitude>14.683333</longitude>
  </city>
  <city name="Ahrendorf">
    <latitude>50.421895</latitude>
    <longitude>13.226114</longitude>
  </city>
  <city name="Aich">
    <latitude>50.21137</latitude>
    <longitude>12.828661</longitude>
  </city>
  <city name="Aichelburk">
    <latitude>50.132792</latitude>
    <longitude>14.967285</longitude>
  </city>
  <city name="Aichen">
    <latitude>49.803212</latitude>
    <longitude>17.137735</longitude>
  </city>
  <city name="Alber">
    <latitude>49.027523</latitude>
    <longitude>15.135024</longitude>
  </city>
  <city name="Alberice">
    <latitude>50.165244</latitude>
    <longitude>13.166288</longitude>
  </city>
  <city name="Alberitz">
    <latitude>50.116541</latitude>
    <longitude>13.38485</longitude>
  </city>
  <city name="Albern">
    <latitude>49.027523</latitude>
    <longitude>15.135024</longitude>
  </city>
  <city name="Albernhof">
    <latitude>50.216667</latitude>
    <longitude>12.7</longitude>
  </city>
  <city name="Alberov">
    <latitude>50.216667</latitude>
    <longitude>12.7</longitude>
  </city>
  <city name="Alberovice">
    <latitude>49.646029</latitude>
    <longitude>15.10603</longitude>
  </city>
  <city name="Albersdorf">
    <latitude>49.772961</latitude>
    <longitude>12.564151</longitude>
  </city>
  <city name="Albertice">
    <latitude>50.857945</latitude>
    <longitude>15.033725</longitude>
  </city>
  <city name="Albertsthal">
    <latitude>50.461449</latitude>
    <longitude>14.598024</longitude>
  </city>
  <city name="Albrechtice">
    <latitude>49.197513</latitude>
    <longitude>14.099763</longitude>
  </city>
  <city name="Albrechtice nad Orlici">
    <latitude>50.139524</latitude>
    <longitude>16.063946</longitude>
  </city>
  <city name="Albrechtice nad Vltavou">
    <latitude>49.254501</latitude>
    <longitude>14.306277</longitude>
  </city>
  <city name="Albrechtice u Rymarova">
    <latitude>49.902628</latitude>
    <longitude>17.336426</longitude>
  </city>
  <city name="Albrechtice u Susice">
    <latitude>49.203004</latitude>
    <longitude>13.566053</longitude>
  </city>
  <city name="Albrechticky">
    <latitude>49.699881</latitude>
    <longitude>18.096907</longitude>
  </city>
  <city name="Albrechtitz">
    <latitude>49.254501</latitude>
    <longitude>14.306277</longitude>
  </city>
  <city name="Albrechtovice">
    <latitude>48.966667</latitude>
    <longitude>13.966667</longitude>
  </city>
  <city name="Albrechtschlag">
    <latitude>48.966667</latitude>
    <longitude>13.966667</longitude>
  </city>
  <city name="Albrechtsdorf">
    <latitude>50.760084</latitude>
    <longitude>15.286178</longitude>
  </city>
  <city name="Albrechtsried">
    <latitude>49.203004</latitude>
    <longitude>13.566053</longitude>
  </city>
  <city name="Alenina Lhota">
    <latitude>49.526963</latitude>
    <longitude>14.521742</longitude>
  </city>
  <city name="Alexovice">
    <latitude>49.092507</latitude>
    <longitude>16.359471</longitude>
  </city>
  <city name="Alfredov">
    <latitude>49.683333</latitude>
    <longitude>13.033333</longitude>
  </city>
  <city name="Algersdorf">
    <latitude>50.698766</latitude>
    <longitude>14.319003</longitude>
  </city>
  <city name="Allenkowitz">
    <latitude>49.171534</latitude>
    <longitude>17.473639</longitude>
  </city>
  <city name="Allerheiligen">
    <latitude>49.769166</latitude>
    <longitude>16.875481</longitude>
  </city>
  <city name="Allhutten">
    <latitude>49.716667</latitude>
    <longitude>17.283333</longitude>
  </city>
  <city name="Alodialna Ligota">
    <latitude>49.762384</latitude>
    <longitude>18.609503</longitude>
  </city>
  <city name="Aloisov">
    <latitude>50.106804</latitude>
    <longitude>14.55948</longitude>
  </city>
  <city name="Alojzov">
    <latitude>49.424638</latitude>
    <longitude>17.040958</longitude>
  </city>
  <city name="Alsching">
    <latitude>48.720931</latitude>
    <longitude>14.302843</longitude>
  </city>
  <city name="Alsovice">
    <latitude>50.676997</latitude>
    <longitude>15.232328</longitude>
  </city>
  <city name="Alstadt">
    <latitude>50.001343</latitude>
    <longitude>17.43695</longitude>
  </city>
  <city name="Alt-Albenreuth">
    <latitude>50.002628</latitude>
    <longitude>12.444369</longitude>
  </city>
  <city name="Alt Benatek">
    <latitude>50.283333</latitude>
    <longitude>14.816667</longitude>
  </city>
  <city name="Alt Bidschow">
    <latitude>50.257774</latitude>
    <longitude>15.455574</longitude>
  </city>
  <city name="Altbiela">
    <latitude>49.762979</latitude>
    <longitude>18.205255</longitude>
  </city>
  <city name="Alt Bohmen">
    <latitude>50.741043</latitude>
    <longitude>14.146146</longitude>
  </city>
  <city name="Alt Bunzlau">
    <latitude>50.196144</latitude>
    <longitude>14.681772</longitude>
  </city>
  <city name="Alt-Burgersdorf">
    <latitude>50.125909</latitude>
    <longitude>17.527408</longitude>
  </city>
  <city name="Alt Ciwitz">
    <latitude>50.015987</latitude>
    <longitude>15.687006</longitude>
  </city>
  <city name="Alt-Daubitz">
    <latitude>50.890001</latitude>
    <longitude>14.457048</longitude>
  </city>
  <city name="Altdorf">
    <latitude>50.240309</latitude>
    <longitude>13.035298</longitude>
  </city>
  <city name="Alt-Ehrenberg">
    <latitude>50.951044</latitude>
    <longitude>14.493808</longitude>
  </city>
  <city name="Altenberg">
    <latitude>50.183333</latitude>
    <longitude>16.966667</longitude>
  </city>
  <city name="Altenbuch">
    <latitude>50.52672</latitude>
    <longitude>15.865874</longitude>
  </city>
  <city name="Altenbuch Dobernei">
    <latitude>50.477255</latitude>
    <longitude>15.753371</longitude>
  </city>
  <city name="Altendorf">
    <latitude>49.726075</latitude>
    <longitude>18.19404</longitude>
  </city>
  <city name="Altengruen">
    <latitude>50.25</latitude>
    <longitude>12.633333</longitude>
  </city>
  <city name="Altengrun">
    <latitude>50.25</latitude>
    <longitude>12.633333</longitude>
  </city>
  <city name="Altenteich">
    <latitude>50.162963</latitude>
    <longitude>12.352653</longitude>
  </city>
  <city name="Alt Erbersdorf">
    <latitude>49.933452</latitude>
    <longitude>17.626789</longitude>
  </city>
  <city name="Alt Furstenhutte">
    <latitude>49.721843</latitude>
    <longitude>12.469006</longitude>
  </city>
  <city name="Alt Georgswalde">
    <latitude>51.001153</latitude>
    <longitude>14.564136</longitude>
  </city>
  <city name="Alt Grafenwalde">
    <latitude>50.974329</latitude>
    <longitude>14.402016</longitude>
  </city>
  <city name="Alt Gramatin">
    <latitude>49.554685</latitude>
    <longitude>12.741823</longitude>
  </city>
  <city name="Alt-Habendorf">
    <latitude>50.794843</latitude>
    <longitude>15.028621</longitude>
  </city>
  <city name="Althammer">
    <latitude>49.533333</latitude>
    <longitude>18.4</longitude>
  </city>
  <city name="Alt-Hart">
    <latitude>49.011241</latitude>
    <longitude>15.45296</longitude>
  </city>
  <city name="Alt-Harzdorf">
    <latitude>50.770724</latitude>
    <longitude>15.088583</longitude>
  </city>
  <city name="Althhutten">
    <latitude>49.533333</latitude>
    <longitude>12.666667</longitude>
  </city>
  <city name="Alt Hummel">
    <latitude>50.666667</latitude>
    <longitude>14.216667</longitude>
  </city>
  <city name="Althutte">
    <latitude>49.038457</latitude>
    <longitude>13.646334</longitude>
  </city>
  <city name="Althutten">
    <latitude>48.719609</latitude>
    <longitude>14.713284</longitude>
  </city>
  <city name="Alt-Hwiezdlitz">
    <latitude>49.203453</latitude>
    <longitude>17.075539</longitude>
  </city>
  <city name="Alt Kalken">
    <latitude>50.563728</latitude>
    <longitude>14.618593</longitude>
  </city>
  <city name="Alt-Kaltenstein">
    <latitude>50.29205</latitude>
    <longitude>17.149562</longitude>
  </city>
  <city name="Alt-Kammer">
    <latitude>50.166667</latitude>
    <longitude>17.466667</longitude>
  </city>
  <city name="Alt Karlsthal">
    <latitude>50.105722</latitude>
    <longitude>17.448171</longitude>
  </city>
  <city name="Alt-Kinsberg">
    <latitude>50.024494</latitude>
    <longitude>12.389414</longitude>
  </city>
  <city name="Alt Knin">
    <latitude>49.78736</latitude>
    <longitude>14.283451</longitude>
  </city>
  <city name="Alt Kolin">
    <latitude>50.008776</latitude>
    <longitude>15.287619</longitude>
  </city>
  <city name="Alt-Langendorf">
    <latitude>49.199301</latitude>
    <longitude>13.509922</longitude>
  </city>
  <city name="Alt-Langwasser">
    <latitude>50.2</latitude>
    <longitude>17.483333</longitude>
  </city>
  <city name="Altliebe">
    <latitude>49.77786</latitude>
    <longitude>17.497977</longitude>
  </city>
  <city name="Alt Lipa">
    <latitude>50.683257</latitude>
    <longitude>14.561648</longitude>
  </city>
  <city name="Alt Lublitz">
    <latitude>49.841791</latitude>
    <longitude>17.677265</longitude>
  </city>
  <city name="Alt-Moletein">
    <latitude>49.799286</latitude>
    <longitude>16.789133</longitude>
  </city>
  <city name="Alt Olisch">
    <latitude>50.800698</latitude>
    <longitude>14.334467</longitude>
  </city>
  <city name="Alt Paka">
    <latitude>50.510833</latitude>
    <longitude>15.49</longitude>
  </city>
  <city name="Alt Parisau">
    <latitude>49.4715</latitude>
    <longitude>12.838766</longitude>
  </city>
  <city name="Alt-Paulsdorf">
    <latitude>50.787008</latitude>
    <longitude>15.044066</longitude>
  </city>
  <city name="Alt Petrein">
    <latitude>48.890036</latitude>
    <longitude>15.734517</longitude>
  </city>
  <city name="Alt Pfauendorf">
    <latitude>49.44272</latitude>
    <longitude>15.603537</longitude>
  </city>
  <city name="Alt Pilsenetz">
    <latitude>49.694596</latitude>
    <longitude>13.474666</longitude>
  </city>
  <city name="Altplatz">
    <latitude>49.084289</latitude>
    <longitude>14.904854</longitude>
  </city>
  <city name="Alt Pocher">
    <latitude>49.716667</latitude>
    <longitude>12.45</longitude>
  </city>
  <city name="Alt Possigkau">
    <latitude>49.45</latitude>
    <longitude>12.816667</longitude>
  </city>
  <city name="Alt-Prerow">
    <latitude>50.160952</latitude>
    <longitude>14.827463</longitude>
  </city>
  <city name="Alt-Reihwiesen">
    <latitude>50.224124</latitude>
    <longitude>17.319879</longitude>
  </city>
  <city name="Altreisch">
    <latitude>49.179485</latitude>
    <longitude>15.595067</longitude>
  </city>
  <city name="Alt Rognitz">
    <latitude>50.537432</latitude>
    <longitude>15.946572</longitude>
  </city>
  <city name="Alt-Rohlau">
    <latitude>50.24621</latitude>
    <longitude>12.830375</longitude>
  </city>
  <city name="Alt-Rothwasser">
    <latitude>50.328621</latitude>
    <longitude>17.201071</longitude>
  </city>
  <city name="Altsattel">
    <latitude>49.50379</latitude>
    <longitude>14.166667</longitude>
  </city>
  <city name="Alt-Sattel">
    <latitude>49.664628</latitude>
    <longitude>12.864377</longitude>
  </city>
  <city name="Alt Sattl">
    <latitude>49.941286</latitude>
    <longitude>12.941843</longitude>
  </city>
  <city name="Alt-Sattl">
    <latitude>50.180929</latitude>
    <longitude>12.717499</longitude>
  </city>
  <city name="Alt-Schallersdorf">
    <latitude>48.85</latitude>
    <longitude>16.066667</longitude>
  </city>
  <city name="Alt-Schiedel">
    <latitude>50.715138</latitude>
    <longitude>14.619895</longitude>
  </city>
  <city name="Alt Schokau">
    <latitude>50.715685</latitude>
    <longitude>14.360214</longitude>
  </city>
  <city name="Alt-Sedlowitz">
    <latitude>50.549013</latitude>
    <longitude>16.007095</longitude>
  </city>
  <city name="Alt-Spitzenberg">
    <latitude>48.833333</latitude>
    <longitude>14.05</longitude>
  </city>
  <city name="Altstadt">
    <latitude>49.003941</latitude>
    <longitude>15.254538</longitude>
  </city>
  <city name="Alt-Straschnitz">
    <latitude>50.076494</latitude>
    <longitude>14.510369</longitude>
  </city>
  <city name="Alt Tabor">
    <latitude>49.377523</latitude>
    <longitude>14.702868</longitude>
  </city>
  <city name="Alt Thein">
    <latitude>50.606346</latitude>
    <longitude>14.328514</longitude>
  </city>
  <city name="Alttitschein">
    <latitude>49.577494</latitude>
    <longitude>17.961908</longitude>
  </city>
  <city name="Altusch">
    <latitude>48.75885</latitude>
    <longitude>14.355804</longitude>
  </city>
  <city name="Alt Valdek">
    <latitude>49.805325</latitude>
    <longitude>16.462828</longitude>
  </city>
  <city name="Alt-Vogelseifen">
    <latitude>50.026946</latitude>
    <longitude>17.387402</longitude>
  </city>
  <city name="Alt-Wasser">
    <latitude>49.992407</latitude>
    <longitude>12.59367</longitude>
  </city>
  <city name="Altwasser">
    <latitude>50.149452</latitude>
    <longitude>15.528945</longitude>
  </city>
  <city name="Alt Wraz">
    <latitude>49.383096</latitude>
    <longitude>14.128003</longitude>
  </city>
  <city name="Alt-Zechsdorf">
    <latitude>49.818452</latitude>
    <longitude>17.69417</longitude>
  </city>
  <city name="Alt-Zedlisch">
    <latitude>49.744611</latitude>
    <longitude>12.693492</longitude>
  </city>
  <city name="Alzbetin">
    <latitude>49.126679</latitude>
    <longitude>13.210324</longitude>
  </city>
  <city name="Amalie">
    <latitude>50.105925</latitude>
    <longitude>13.845717</longitude>
  </city>
  <city name="Amerika">
    <latitude>48.9</latitude>
    <longitude>14.9</longitude>
  </city>
  <city name="Amongsgruen">
    <latitude>50.028378</latitude>
    <longitude>12.566292</longitude>
  </city>
  <city name="Amonsgrun">
    <latitude>50.028378</latitude>
    <longitude>12.566292</longitude>
  </city>
  <city name="Amplatz">
    <latitude>49.579866</latitude>
    <longitude>12.82956</longitude>
  </city>
  <city name="Amschelberg">
    <latitude>49.655074</latitude>
    <longitude>14.472816</longitude>
  </city>
  <city name="Andelka">
    <latitude>51.002317</latitude>
    <longitude>14.993569</longitude>
  </city>
  <city name="Andelska Hora">
    <latitude>50.204714</latitude>
    <longitude>12.961768</longitude>
  </city>
  <city name="Andelske Zleby">
    <latitude>50.102023</latitude>
    <longitude>17.10822</longitude>
  </city>
  <city name="Andersdorf">
    <latitude>49.788757</latitude>
    <longitude>17.427444</longitude>
  </city>
  <city name="Andlerka">
    <latitude>49.55</latitude>
    <longitude>17.1</longitude>
  </city>
  <city name="Andreasberg">
    <latitude>48.866667</latitude>
    <longitude>14.088899</longitude>
  </city>
  <city name="Anenska Hut'">
    <latitude>50.283333</latitude>
    <longitude>16.4</longitude>
  </city>
  <city name="Anenska Studanka">
    <latitude>49.849628</latitude>
    <longitude>16.540061</longitude>
  </city>
  <city name="Anenska Ves">
    <latitude>50.203235</latitude>
    <longitude>12.549353</longitude>
  </city>
  <city name="Angern">
    <latitude>48.702864</latitude>
    <longitude>14.428734</longitude>
  </city>
  <city name="Anischau">
    <latitude>49.882109</latitude>
    <longitude>13.149286</longitude>
  </city>
  <city name="Annaberk">
    <latitude>50.107971</latitude>
    <longitude>17.107387</longitude>
  </city>
  <city name="Annadorf">
    <latitude>50.203235</latitude>
    <longitude>12.549353</longitude>
  </city>
  <city name="Annath">
    <latitude>49.174468</latitude>
    <longitude>13.512924</longitude>
  </city>
  <city name="Annin">
    <latitude>49.419879</latitude>
    <longitude>17.284404</longitude>
  </city>
  <city name="Annovice">
    <latitude>49.300441</latitude>
    <longitude>14.937157</longitude>
  </city>
  <city name="Anseith">
    <latitude>50.473665</latitude>
    <longitude>15.712154</longitude>
  </city>
  <city name="Antigel">
    <latitude>49.057643</latitude>
    <longitude>13.51162</longitude>
  </city>
  <city name="Antoninov">
    <latitude>50.782433</latitude>
    <longitude>15.23124</longitude>
  </city>
  <city name="Antoninovo Udoli">
    <latitude>50.622318</latitude>
    <longitude>15.83568</longitude>
  </city>
  <city name="Antoniwald">
    <latitude>50.782433</latitude>
    <longitude>15.23124</longitude>
  </city>
  <city name="Antonka">
    <latitude>49.308872</latitude>
    <longitude>15.102942</longitude>
  </city>
  <city name="Antonsthal">
    <latitude>50.784706</latitude>
    <longitude>14.013112</longitude>
  </city>
  <city name="Antosovice">
    <latitude>49.903688</latitude>
    <longitude>18.314526</longitude>
  </city>
  <city name="Arbesau">
    <latitude>50.712545</latitude>
    <longitude>13.956484</longitude>
  </city>
  <city name="Archlebau">
    <latitude>49.044673</latitude>
    <longitude>17.003152</longitude>
  </city>
  <city name="Archlebov">
    <latitude>49.044673</latitude>
    <longitude>17.003152</longitude>
  </city>
  <city name="Arletzgruen">
    <latitude>50.349532</latitude>
    <longitude>12.950364</longitude>
  </city>
  <city name="Arletzgrun">
    <latitude>50.349532</latitude>
    <longitude>12.950364</longitude>
  </city>
  <city name="Arnau">
    <latitude>50.540171</latitude>
    <longitude>15.730411</longitude>
  </city>
  <city name="Arnestovice">
    <latitude>49.532156</latitude>
    <longitude>15.119977</longitude>
  </city>
  <city name="Arnitzgrun">
    <latitude>50.116968</latitude>
    <longitude>12.592717</longitude>
  </city>
  <city name="Arnoldov">
    <latitude>50.349532</latitude>
    <longitude>12.950364</longitude>
  </city>
  <city name="Arnolec">
    <latitude>48.983333</latitude>
    <longitude>15.216667</longitude>
  </city>
  <city name="Arnoltice">
    <latitude>50.83629</latitude>
    <longitude>14.263402</longitude>
  </city>
  <city name="Arnolticky Bor">
    <latitude>50.85</latitude>
    <longitude>14.25</longitude>
  </city>
  <city name="Arnoltov">
    <latitude>50.116968</latitude>
    <longitude>12.592717</longitude>
  </city>
  <city name="Arnolzhof">
    <latitude>48.983333</latitude>
    <longitude>15.216667</longitude>
  </city>
  <city name="Arnostka">
    <latitude>49.004053</latitude>
    <longitude>13.775997</longitude>
  </city>
  <city name="Arnostov">
    <latitude>48.892132</latitude>
    <longitude>13.991746</longitude>
  </city>
  <city name="Arnostovice">
    <latitude>49.614608</latitude>
    <longitude>14.604045</longitude>
  </city>
  <city name="Arnsdorf">
    <latitude>50.552121</latitude>
    <longitude>15.722057</longitude>
  </city>
  <city name="Arnultovice">
    <latitude>50.552121</latitude>
    <longitude>15.722057</longitude>
  </city>
  <city name="Artholz">
    <latitude>49.007207</latitude>
    <longitude>15.129509</longitude>
  </city>
  <city name="Artmanov">
    <latitude>50.213431</latitude>
    <longitude>17.536283</longitude>
  </city>
  <city name="Artolec">
    <latitude>49.007207</latitude>
    <longitude>15.129509</longitude>
  </city>
  <city name="Asang">
    <latitude>48.616667</latitude>
    <longitude>14.066667</longitude>
  </city>
  <city name="As">
    <latitude>50.221568</latitude>
    <longitude>12.192046</longitude>
  </city>
  <city name="Asch">
    <latitude>50.221568</latitude>
    <longitude>12.192046</longitude>
  </city>
  <city name="Aschendorf">
    <latitude>50.657488</latitude>
    <longitude>14.555143</longitude>
  </city>
  <city name="Ascherwinkel">
    <latitude>49.666667</latitude>
    <longitude>17.566667</longitude>
  </city>
  <city name="Aspendorf">
    <latitude>50.033333</latitude>
    <longitude>16.966667</longitude>
  </city>
  <city name="Atschau">
    <latitude>50.353914</latitude>
    <longitude>13.259286</longitude>
  </city>
  <city name="Attes">
    <latitude>48.766667</latitude>
    <longitude>14.333333</longitude>
  </city>
  <city name="Au">
    <latitude>50.1</latitude>
    <longitude>12.45</longitude>
  </city>
  <city name="Aubach">
    <latitude>50.37019</latitude>
    <longitude>13.114319</longitude>
  </city>
  <city name="Aubeln">
    <latitude>50.023425</latitude>
    <longitude>17.703997</longitude>
  </city>
  <city name="Audelen">
    <latitude>49.660447</latitude>
    <longitude>15.756422</longitude>
  </city>
  <city name="Audishorn">
    <latitude>50.709621</latitude>
    <longitude>14.839732</longitude>
  </city>
  <city name="Auern">
    <latitude>48.978185</latitude>
    <longitude>15.212549</longitude>
  </city>
  <city name="Augezd">
    <latitude>49.764169</latitude>
    <longitude>17.180953</longitude>
  </city>
  <city name="Auherzen">
    <latitude>49.700306</latitude>
    <longitude>13.214118</longitude>
  </city>
  <city name="Auholicky">
    <latitude>50.161159</latitude>
    <longitude>14.334965</longitude>
  </city>
  <city name="Aujezd an der Mies">
    <latitude>49.789145</latitude>
    <longitude>13.195513</longitude>
  </city>
  <city name="Aujezd">
    <latitude>49.1</latitude>
    <longitude>16.75</longitude>
  </city>
  <city name="Aurinowes">
    <latitude>50.028847</latitude>
    <longitude>14.599485</longitude>
  </city>
  <city name="Aurotschnitz">
    <latitude>49.805957</latitude>
    <longitude>14.627008</longitude>
  </city>
  <city name="Auscha">
    <latitude>50.58494</latitude>
    <longitude>14.345113</longitude>
  </city>
  <city name="Auschina">
    <latitude>50.7</latitude>
    <longitude>13.966667</longitude>
  </city>
  <city name="Auschowitz">
    <latitude>49.951932</latitude>
    <longitude>12.719006</longitude>
  </city>
  <city name="Auschtitz">
    <latitude>49.783112</latitude>
    <longitude>14.539657</longitude>
  </city>
  <city name="Auslauf">
    <latitude>50.472951</latitude>
    <longitude>15.469082</longitude>
  </city>
  <city name="Auspitz">
    <latitude>48.941028</latitude>
    <longitude>16.73353</longitude>
  </city>
  <city name="Aussergefild">
    <latitude>49.017585</latitude>
    <longitude>13.580044</longitude>
  </city>
  <city name="Aussig">
    <latitude>50.666667</latitude>
    <longitude>14.033333</longitude>
  </city>
  <city name="Austerlitz">
    <latitude>49.153157</latitude>
    <longitude>16.879558</longitude>
  </city>
  <city name="Auszig">
    <latitude>50.666667</latitude>
    <longitude>14.033333</longitude>
  </city>
  <city name="Autschowa">
    <latitude>49.570746</latitude>
    <longitude>13.079764</longitude>
  </city>
  <city name="Auwal">
    <latitude>50.073111</latitude>
    <longitude>14.725905</longitude>
  </city>
  <city name="Ava">
    <latitude>50.1</latitude>
    <longitude>12.45</longitude>
  </city>
  <city name="Ave">
    <latitude>49.983333</latitude>
    <longitude>17.6</longitude>
  </city>
  <city name="Azbreh">
    <latitude>49.884404</latitude>
    <longitude>16.873092</longitude>
  </city>
  <city name="Babcice">
    <latitude>49.468432</latitude>
    <longitude>14.895735</longitude>
  </city>
  <city name="Babetin">
    <latitude>50.70636</latitude>
    <longitude>14.220879</longitude>
  </city>
  <city name="Babi">
    <latitude>50.430425</latitude>
    <longitude>16.173307</longitude>
  </city>
  <city name="Babice">
    <latitude>48.983333</latitude>
    <longitude>16.4</longitude>
  </city>
  <city name="Babice nad Svitavou">
    <latitude>49.28353</latitude>
    <longitude>16.696054</longitude>
  </city>
  <city name="Babicky">
    <latitude>50.009166</latitude>
    <longitude>14.725832</longitude>
  </city>
  <city name="Babina">
    <latitude>49.936315</latitude>
    <longitude>13.429127</longitude>
  </city>
  <city name="Babin">
    <latitude>49.341322</latitude>
    <longitude>15.080685</longitude>
  </city>
  <city name="Babiny Druhe">
    <latitude>50.641861</latitude>
    <longitude>14.181355</longitude>
  </city>
  <city name="Babiny I.">
    <latitude>50.601572</latitude>
    <longitude>14.131351</longitude>
  </city>
  <city name="Babiny II">
    <latitude>50.641861</latitude>
    <longitude>14.181355</longitude>
  </city>
  <city name="Babiny Predni">
    <latitude>50.601572</latitude>
    <longitude>14.131351</longitude>
  </city>
  <city name="Babitz">
    <latitude>49.28353</latitude>
    <longitude>16.696054</longitude>
  </city>
  <city name="Babolky">
    <latitude>49.590352</latitude>
    <longitude>16.579883</longitude>
  </city>
  <city name="Baby">
    <latitude>50.430425</latitude>
    <longitude>16.173307</longitude>
  </city>
  <city name="Babylon">
    <latitude>49.397629</latitude>
    <longitude>12.861161</longitude>
  </city>
  <city name="Bacalky">
    <latitude>50.384582</latitude>
    <longitude>15.155758</longitude>
  </city>
  <city name="Bacetin">
    <latitude>50.3</latitude>
    <longitude>16.233333</longitude>
  </city>
  <city name="Bachelsdorf">
    <latitude>50.753059</latitude>
    <longitude>14.24013</longitude>
  </city>
  <city name="Bacice">
    <latitude>49.082807</latitude>
    <longitude>16.028598</longitude>
  </city>
  <city name="Backenhain">
    <latitude>50.833125</latitude>
    <longitude>14.920677</longitude>
  </city>
  <city name="Backov">
    <latitude>49.733571</latitude>
    <longitude>15.460236</longitude>
  </city>
  <city name="Backovice">
    <latitude>48.967062</latitude>
    <longitude>15.589252</longitude>
  </city>
  <city name="Bacov">
    <latitude>49.526551</latitude>
    <longitude>16.642613</longitude>
  </city>
  <city name="Bacovice">
    <latitude>49.477008</latitude>
    <longitude>15.168183</longitude>
  </city>
  <city name="Bad Belohrad">
    <latitude>50.428875</latitude>
    <longitude>15.582745</longitude>
  </city>
  <city name="Baderwinkel">
    <latitude>49.816496</latitude>
    <longitude>12.473853</longitude>
  </city>
  <city name="Bad Konigswart">
    <latitude>50.007958</latitude>
    <longitude>12.6259</longitude>
  </city>
  <city name="Bad Kunnersdorf">
    <latitude>50.698201</latitude>
    <longitude>14.912501</longitude>
  </city>
  <city name="Bad Licbwerda">
    <latitude>50.891031</latitude>
    <longitude>15.20255</longitude>
  </city>
  <city name="Bad Luhatschowitz">
    <latitude>49.1</latitude>
    <longitude>17.766667</longitude>
  </city>
  <city name="Bad Neudorf">
    <latitude>49.88578</latitude>
    <longitude>12.972887</longitude>
  </city>
  <city name="Badstubl">
    <latitude>50.118185</latitude>
    <longitude>13.265055</longitude>
  </city>
  <city name="Baeckenheim">
    <latitude>50.833125</latitude>
    <longitude>14.920677</longitude>
  </city>
  <city name="Bahenec">
    <latitude>49.58244</latitude>
    <longitude>18.824876</longitude>
  </city>
  <city name="Bahna">
    <latitude>49.596312</latitude>
    <longitude>16.566429</longitude>
  </city>
  <city name="Bahno">
    <latitude>49.656673</latitude>
    <longitude>18.353093</longitude>
  </city>
  <city name="Bajervek">
    <latitude>50.067256</latitude>
    <longitude>15.109119</longitude>
  </city>
  <city name="Bakov">
    <latitude>50.435374</latitude>
    <longitude>16.086394</longitude>
  </city>
  <city name="Bakov nad Jizerou">
    <latitude>50.478355</latitude>
    <longitude>14.939416</longitude>
  </city>
  <city name="Bakow">
    <latitude>50.478355</latitude>
    <longitude>14.939416</longitude>
  </city>
  <city name="Balda">
    <latitude>49.677018</latitude>
    <longitude>16.335831</longitude>
  </city>
  <city name="Baldovec">
    <latitude>49.4106</latitude>
    <longitude>16.821554</longitude>
  </city>
  <city name="Baliny">
    <latitude>49.333925</latitude>
    <longitude>15.955426</longitude>
  </city>
  <city name="Balkova">
    <latitude>50.084352</latitude>
    <longitude>13.299694</longitude>
  </city>
  <city name="Balkova Lhota">
    <latitude>49.445808</latitude>
    <longitude>14.602868</longitude>
  </city>
  <city name="Balkovy">
    <latitude>49.444341</latitude>
    <longitude>13.218503</longitude>
  </city>
  <city name="Bambousek">
    <latitude>49.667585</latitude>
    <longitude>13.460957</longitude>
  </city>
  <city name="Banin">
    <latitude>49.668452</latitude>
    <longitude>16.464288</longitude>
  </city>
  <city name="Banov">
    <latitude>48.988364</latitude>
    <longitude>17.721403</longitude>
  </city>
  <city name="Banovice">
    <latitude>49.011636</latitude>
    <longitude>15.490041</longitude>
  </city>
  <city name="Bantice">
    <latitude>48.866667</latitude>
    <longitude>16.183333</longitude>
  </city>
  <city name="Barau">
    <latitude>49.123251</latitude>
    <longitude>14.078584</longitude>
  </city>
  <city name="Barbora">
    <latitude>50.65</latitude>
    <longitude>13.733333</longitude>
  </city>
  <city name="Barborka">
    <latitude>49.325695</latitude>
    <longitude>15.193861</longitude>
  </city>
  <city name="Barchov">
    <latitude>50.198931</latitude>
    <longitude>15.568477</longitude>
  </city>
  <city name="Barchovice">
    <latitude>49.943234</latitude>
    <longitude>14.969388</longitude>
  </city>
  <city name="Barchuvek">
    <latitude>50.207783</latitude>
    <longitude>15.546463</longitude>
  </city>
  <city name="Barcov">
    <latitude>49.594999</latitude>
    <longitude>14.708457</longitude>
  </city>
  <city name="Barice">
    <latitude>49.24418</latitude>
    <longitude>17.42692</longitude>
  </city>
  <city name="Bariny">
    <latitude>49.3106</latitude>
    <longitude>18.117262</longitude>
  </city>
  <city name="Barken">
    <latitude>50.719633</latitude>
    <longitude>14.173992</longitude>
  </city>
  <city name="Barn">
    <latitude>49.796431</latitude>
    <longitude>17.444735</longitude>
  </city>
  <city name="Barnov">
    <latitude>49.714131</latitude>
    <longitude>17.662917</longitude>
  </city>
  <city name="Barnwald">
    <latitude>50.21432</latitude>
    <longitude>16.540734</longitude>
  </city>
  <city name="Barochov">
    <latitude>49.861593</latitude>
    <longitude>14.629509</longitude>
  </city>
  <city name="Barochow">
    <latitude>49.861593</latitude>
    <longitude>14.629509</longitude>
  </city>
  <city name="Barovice">
    <latitude>49.760409</latitude>
    <longitude>15.750816</longitude>
  </city>
  <city name="Barrandov">
    <latitude>50.030372</latitude>
    <longitude>14.391473</longitude>
  </city>
  <city name="Barringen">
    <latitude>50.366057</latitude>
    <longitude>12.783562</longitude>
  </city>
  <city name="Bartelsdorf">
    <latitude>49.797966</latitude>
    <longitude>18.34536</longitude>
  </city>
  <city name="Bartonov">
    <latitude>49.967143</latitude>
    <longitude>16.877979</longitude>
  </city>
  <city name="Bartosovice">
    <latitude>50.164271</latitude>
    <longitude>16.546815</longitude>
  </city>
  <city name="Bartousov">
    <latitude>49.581292</latitude>
    <longitude>15.645782</longitude>
  </city>
  <city name="Bartovice">
    <latitude>49.797966</latitude>
    <longitude>18.34536</longitude>
  </city>
  <city name="Bartultovice">
    <latitude>50.274186</latitude>
    <longitude>17.588388</longitude>
  </city>
  <city name="Barwinkel">
    <latitude>49.866667</latitude>
    <longitude>17.533333</longitude>
  </city>
  <city name="Barzdorf am Rollberge">
    <latitude>50.681324</latitude>
    <longitude>14.720239</longitude>
  </city>
  <city name="Barzdorf">
    <latitude>50.52575</latitude>
    <longitude>16.359751</longitude>
  </city>
  <city name="Baska">
    <latitude>49.64417</latitude>
    <longitude>18.371902</longitude>
  </city>
  <city name="Basnice">
    <latitude>50.335566</latitude>
    <longitude>15.606277</longitude>
  </city>
  <city name="Bast'">
    <latitude>50.204338</latitude>
    <longitude>14.476875</longitude>
  </city>
  <city name="Bastek">
    <latitude>50.204916</latitude>
    <longitude>14.462812</longitude>
  </city>
  <city name="Basty">
    <latitude>50.00974</latitude>
    <longitude>15.295979</longitude>
  </city>
  <city name="Batelau">
    <latitude>49.313905</latitude>
    <longitude>15.396317</longitude>
  </city>
  <city name="Batelov">
    <latitude>49.313905</latitude>
    <longitude>15.396317</longitude>
  </city>
  <city name="Batin">
    <latitude>50.419981</latitude>
    <longitude>15.230019</longitude>
  </city>
  <city name="Batnovice">
    <latitude>50.514505</latitude>
    <longitude>16.05016</longitude>
  </city>
  <city name="Batouchovice">
    <latitude>49.311833</latitude>
    <longitude>15.903354</longitude>
  </city>
  <city name="Batov">
    <latitude>49.207366</latitude>
    <longitude>17.523862</longitude>
  </city>
  <city name="Battelau">
    <latitude>49.313905</latitude>
    <longitude>15.396317</longitude>
  </city>
  <city name="Batzdorf">
    <latitude>50.164271</latitude>
    <longitude>16.546815</longitude>
  </city>
  <city name="Baudenmuhle">
    <latitude>50.462741</latitude>
    <longitude>14.570879</longitude>
  </city>
  <city name="Baumohl">
    <latitude>48.851184</latitude>
    <longitude>15.94083</longitude>
  </city>
  <city name="Baurowitz">
    <latitude>49.024095</latitude>
    <longitude>14.441268</longitude>
  </city>
  <city name="Bauschowitz">
    <latitude>50.494477</latitude>
    <longitude>14.149776</longitude>
  </city>
  <city name="Bausnitz">
    <latitude>50.550811</latitude>
    <longitude>15.976205</longitude>
  </city>
  <city name="Bautsch">
    <latitude>49.794289</latitude>
    <longitude>17.628931</longitude>
  </city>
  <city name="Bavorov">
    <latitude>49.123251</latitude>
    <longitude>14.078584</longitude>
  </city>
  <city name="Bavorovice">
    <latitude>49.024095</latitude>
    <longitude>14.441268</longitude>
  </city>
  <city name="Bavorovske Svobodne Hory">
    <latitude>49.111219</latitude>
    <longitude>14.099289</longitude>
  </city>
  <city name="Bavory">
    <latitude>48.833333</latitude>
    <longitude>16.616667</longitude>
  </city>
  <city name="Bavoryne">
    <latitude>49.895377</latitude>
    <longitude>13.960617</longitude>
  </city>
  <city name="Bayorovice">
    <latitude>49.024095</latitude>
    <longitude>14.441268</longitude>
  </city>
  <city name="Bazantnice">
    <latitude>48.914936</latitude>
    <longitude>15.872008</longitude>
  </city>
  <city name="Bazantov">
    <latitude>49.744357</latitude>
    <longitude>12.570709</longitude>
  </city>
  <city name="Bdeneves">
    <latitude>49.768095</latitude>
    <longitude>13.232517</longitude>
  </city>
  <city name="Bdin">
    <latitude>50.214004</latitude>
    <longitude>13.858981</longitude>
  </city>
  <city name="Becharky">
    <latitude>50.3</latitude>
    <longitude>15.3</longitude>
  </city>
  <city name="Bechary">
    <latitude>50.314712</latitude>
    <longitude>15.292821</longitude>
  </city>
  <city name="Bechlejovice">
    <latitude>50.753059</latitude>
    <longitude>14.24013</longitude>
  </city>
  <city name="Bechlin">
    <latitude>50.416903</latitude>
    <longitude>14.339821</longitude>
  </city>
  <city name="Bechov">
    <latitude>50.440005</latitude>
    <longitude>15.088041</longitude>
  </city>
  <city name="Bechovice">
    <latitude>50.081347</latitude>
    <longitude>14.623212</longitude>
  </city>
  <city name="Bechowitz">
    <latitude>50.081347</latitude>
    <longitude>14.623212</longitude>
  </city>
  <city name="Bechyn">
    <latitude>49.299118</latitude>
    <longitude>14.469875</longitude>
  </city>
  <city name="Bechyne">
    <latitude>49.299118</latitude>
    <longitude>14.469875</longitude>
  </city>
  <city name="Bechynska Smolec">
    <latitude>49.30946</latitude>
    <longitude>14.547205</longitude>
  </city>
  <city name="Becice">
    <latitude>49.21527</latitude>
    <longitude>14.502353</longitude>
  </city>
  <city name="Becitz">
    <latitude>49.21527</latitude>
    <longitude>14.502353</longitude>
  </city>
  <city name="Beckengrund">
    <latitude>50.075719</latitude>
    <longitude>17.022268</longitude>
  </city>
  <city name="Beckov">
    <latitude>50.631806</latitude>
    <longitude>16.001319</longitude>
  </city>
  <city name="Becov">
    <latitude>50.44922</latitude>
    <longitude>13.717491</longitude>
  </city>
  <city name="Becov nad Teplou">
    <latitude>50.083843</latitude>
    <longitude>12.836551</longitude>
  </city>
  <city name="Becvary">
    <latitude>49.95956</latitude>
    <longitude>15.08223</longitude>
  </city>
  <city name="Becvice">
    <latitude>49.417857</latitude>
    <longitude>18.358804</longitude>
  </city>
  <city name="Becwar">
    <latitude>49.95956</latitude>
    <longitude>15.08223</longitude>
  </city>
  <city name="Bedertsch">
    <latitude>49.808578</latitude>
    <longitude>14.718359</longitude>
  </city>
  <city name="Bedihoscht">
    <latitude>49.448453</latitude>
    <longitude>17.167143</longitude>
  </city>
  <city name="Bedihost'">
    <latitude>49.448453</latitude>
    <longitude>17.167143</longitude>
  </city>
  <city name="Bedlno">
    <latitude>50.122775</latitude>
    <longitude>13.506001</longitude>
  </city>
  <city name="Bednare">
    <latitude>48.73845</latitude>
    <longitude>14.162703</longitude>
  </city>
  <city name="Bednarec">
    <latitude>49.195614</latitude>
    <longitude>15.094264</longitude>
  </city>
  <city name="Bednarecek">
    <latitude>49.211005</latitude>
    <longitude>15.143161</longitude>
  </city>
  <city name="Bedovice">
    <latitude>50.199445</latitude>
    <longitude>16.018895</longitude>
  </city>
  <city name="Bedrc">
    <latitude>49.808578</latitude>
    <longitude>14.718359</longitude>
  </city>
  <city name="Bedrichau">
    <latitude>49.461551</latitude>
    <longitude>16.465359</longitude>
  </city>
  <city name="Bedrichov">
    <latitude>49.461551</latitude>
    <longitude>16.465359</longitude>
  </city>
  <city name="Bedrichovice">
    <latitude>49.180176</latitude>
    <longitude>16.720745</longitude>
  </city>
  <city name="Bedrichovka">
    <latitude>50.299095</latitude>
    <longitude>16.440902</longitude>
  </city>
  <city name="Bedrichowitz">
    <latitude>50.303892</latitude>
    <longitude>13.88058</longitude>
  </city>
  <city name="Bedrichuv Svetec">
    <latitude>50.452846</latitude>
    <longitude>13.752277</longitude>
  </city>
  <city name="Beerhof">
    <latitude>49.816667</latitude>
    <longitude>16.783333</longitude>
  </city>
  <city name="Behanky">
    <latitude>50.680012</latitude>
    <longitude>13.805913</longitude>
  </city>
  <city name="Beharov">
    <latitude>49.345106</latitude>
    <longitude>13.160549</longitude>
  </city>
  <city name="Beharovice">
    <latitude>49.004472</latitude>
    <longitude>16.07794</longitude>
  </city>
  <city name="Bejscht">
    <latitude>50.131957</latitude>
    <longitude>15.911315</longitude>
  </city>
  <city name="Bela">
    <latitude>48.65696</latitude>
    <longitude>14.585907</longitude>
  </city>
  <city name="Bela nad Radbuzou">
    <latitude>49.591264</latitude>
    <longitude>12.71637</longitude>
  </city>
  <city name="Bela pod Bezdezem">
    <latitude>50.503175</latitude>
    <longitude>14.799517</longitude>
  </city>
  <city name="Bela pri Bedez">
    <latitude>50.503175</latitude>
    <longitude>14.799517</longitude>
  </city>
  <city name="Belaun">
    <latitude>50.4551</latitude>
    <longitude>15.936381</longitude>
  </city>
  <city name="Bela u Pecky">
    <latitude>50.474152</latitude>
    <longitude>15.583091</longitude>
  </city>
  <city name="Belbozice">
    <latitude>50.018401</latitude>
    <longitude>13.601224</longitude>
  </city>
  <city name="Belcice">
    <latitude>49.502785</latitude>
    <longitude>13.874678</longitude>
  </city>
  <city name="Belcitz">
    <latitude>49.502785</latitude>
    <longitude>13.874678</longitude>
  </city>
  <city name="Belcovice">
    <latitude>48.985503</latitude>
    <longitude>15.509268</longitude>
  </city>
  <city name="Belec">
    <latitude>49.048816</latitude>
    <longitude>14.036649</longitude>
  </city>
  <city name="Belecko">
    <latitude>50.15368</latitude>
    <longitude>15.95356</longitude>
  </city>
  <city name="Belec nad Orlici">
    <latitude>50.194159</latitude>
    <longitude>15.946545</longitude>
  </city>
  <city name="Belecska Lhota">
    <latitude>49.037715</latitude>
    <longitude>14.032148</longitude>
  </city>
  <city name="Belen">
    <latitude>48.687952</latitude>
    <longitude>14.328595</longitude>
  </city>
  <city name="Belesovice">
    <latitude>49.983877</latitude>
    <longitude>15.954626</longitude>
  </city>
  <city name="Belice">
    <latitude>49.766193</latitude>
    <longitude>14.47176</longitude>
  </city>
  <city name="Belidlo">
    <latitude>49.948095</latitude>
    <longitude>15.284965</longitude>
  </city>
  <city name="Belkovice">
    <latitude>49.670593</latitude>
    <longitude>17.3175</longitude>
  </city>
  <city name="Belohrad">
    <latitude>49.706514</latitude>
    <longitude>14.201421</longitude>
  </city>
  <city name="Belokozly">
    <latitude>49.85</latitude>
    <longitude>14.9</longitude>
  </city>
  <city name="Beloky">
    <latitude>50.132611</latitude>
    <longitude>14.221426</longitude>
  </city>
  <city name="Belotin">
    <latitude>49.593683</latitude>
    <longitude>17.805603</longitude>
  </city>
  <city name="Belov">
    <latitude>49.213642</latitude>
    <longitude>17.481886</longitude>
  </city>
  <city name="Beloves">
    <latitude>50.423249</latitude>
    <longitude>16.182934</longitude>
  </city>
  <city name="Belowes">
    <latitude>50.423249</latitude>
    <longitude>16.182934</longitude>
  </city>
  <city name="Belun">
    <latitude>50.38766</latitude>
    <longitude>15.931169</longitude>
  </city>
  <city name="Belusice">
    <latitude>50.069285</latitude>
    <longitude>15.322216</longitude>
  </city>
  <city name="Belvedere">
    <latitude>48.75</latitude>
    <longitude>16.766667</longitude>
  </city>
  <city name="Bely">
    <latitude>50.514135</latitude>
    <longitude>16.273969</longitude>
  </city>
  <city name="Benatecka Vrutice">
    <latitude>50.229935</latitude>
    <longitude>14.837272</longitude>
  </city>
  <city name="Benatek">
    <latitude>50.221072</latitude>
    <longitude>16.33197</longitude>
  </city>
  <city name="Benatky">
    <latitude>49.34415</latitude>
    <longitude>15.247959</longitude>
  </city>
  <city name="Benatky nad Jizerou">
    <latitude>50.28619</latitude>
    <longitude>14.834337</longitude>
  </city>
  <city name="Bencice">
    <latitude>48.704422</latitude>
    <longitude>14.49659</longitude>
  </city>
  <city name="Bendovo Zahori">
    <latitude>49.5</latitude>
    <longitude>14.8</longitude>
  </city>
  <city name="Benecko">
    <latitude>50.66784</latitude>
    <longitude>15.551604</longitude>
  </city>
  <city name="Beneschau">
    <latitude>49.509161</latitude>
    <longitude>16.769879</longitude>
  </city>
  <city name="Benesova Hora">
    <latitude>49.125003</latitude>
    <longitude>13.698165</longitude>
  </city>
  <city name="Benesov">
    <latitude>49.509161</latitude>
    <longitude>16.769879</longitude>
  </city>
  <city name="Benesovice">
    <latitude>50.609097</latitude>
    <longitude>14.964813</longitude>
  </city>
  <city name="Benesov nad Cernou">
    <latitude>48.7287</latitude>
    <longitude>14.62642</longitude>
  </city>
  <city name="Benesov nad Ploucnici">
    <latitude>50.738658</latitude>
    <longitude>14.311497</longitude>
  </city>
  <city name="Benesov u Semil">
    <latitude>50.604346</latitude>
    <longitude>15.364595</longitude>
  </city>
  <city name="Benetice">
    <latitude>49.297435</latitude>
    <longitude>15.866075</longitude>
  </city>
  <city name="Benetschlag">
    <latitude>48.816667</latitude>
    <longitude>14.133333</longitude>
  </city>
  <city name="Benice">
    <latitude>49.794117</latitude>
    <longitude>14.558384</longitude>
  </city>
  <city name="Benikovice">
    <latitude>48.82978</latitude>
    <longitude>14.188425</longitude>
  </city>
  <city name="Benisch">
    <latitude>49.967143</latitude>
    <longitude>17.603331</longitude>
  </city>
  <city name="Benitz">
    <latitude>49.794117</latitude>
    <longitude>14.558384</longitude>
  </city>
  <city name="Benkov">
    <latitude>49.767857</latitude>
    <longitude>17.073458</longitude>
  </city>
  <city name="Benkovice">
    <latitude>49.868571</latitude>
    <longitude>17.837389</longitude>
  </city>
  <city name="Bennisch">
    <latitude>49.967143</latitude>
    <longitude>17.603331</longitude>
  </city>
  <city name="Benov">
    <latitude>49.418452</latitude>
    <longitude>17.500476</longitude>
  </city>
  <city name="Benovy">
    <latitude>49.390216</latitude>
    <longitude>13.262461</longitude>
  </city>
  <city name="Bensen">
    <latitude>50.738658</latitude>
    <longitude>14.311497</longitude>
  </city>
  <city name="Berani Dvur">
    <latitude>49.7</latitude>
    <longitude>13.033333</longitude>
  </city>
  <city name="Beranova Lhota">
    <latitude>49.35</latitude>
    <longitude>14.716667</longitude>
  </city>
  <city name="Beranov">
    <latitude>49.404626</latitude>
    <longitude>15.667805</longitude>
  </city>
  <city name="Beranovec">
    <latitude>49.318048</latitude>
    <longitude>15.571403</longitude>
  </city>
  <city name="Beranovka">
    <latitude>49.941537</latitude>
    <longitude>12.843474</longitude>
  </city>
  <city name="Beraun">
    <latitude>49.966171</latitude>
    <longitude>14.060086</longitude>
  </city>
  <city name="Bergau">
    <latitude>50.337247</latitude>
    <longitude>17.052665</longitude>
  </city>
  <city name="Berg">
    <latitude>50.181531</latitude>
    <longitude>12.482932</longitude>
  </city>
  <city name="Bergersdorf">
    <latitude>49.510137</latitude>
    <longitude>15.651497</longitude>
  </city>
  <city name="Bergesgrun">
    <latitude>50.597025</latitude>
    <longitude>13.593277</longitude>
  </city>
  <city name="Berggraben">
    <latitude>50.666667</latitude>
    <longitude>15.983333</longitude>
  </city>
  <city name="Berghauseln">
    <latitude>50.219995</latitude>
    <longitude>12.901693</longitude>
  </city>
  <city name="Bergles">
    <latitude>50.176248</latitude>
    <longitude>13.047723</longitude>
  </city>
  <city name="Bergov">
    <latitude>50.337247</latitude>
    <longitude>17.052665</longitude>
  </city>
  <city name="Bergreichenstein">
    <latitude>49.143041</latitude>
    <longitude>13.555578</longitude>
  </city>
  <city name="Bergstadt">
    <latitude>49.908547</latitude>
    <longitude>17.212741</longitude>
  </city>
  <city name="Bergstadtl">
    <latitude>49.267668</latitude>
    <longitude>13.435153</longitude>
  </city>
  <city name="Bergstadtl-Ratiboritz">
    <latitude>49.465049</latitude>
    <longitude>14.771742</longitude>
  </city>
  <city name="Bergstadt Platten">
    <latitude>50.390755</latitude>
    <longitude>12.769616</longitude>
  </city>
  <city name="Berin">
    <latitude>49.788899</latitude>
    <longitude>13.992539</longitude>
  </city>
  <city name="Berlau">
    <latitude>48.928508</latitude>
    <longitude>14.220394</longitude>
  </city>
  <city name="Bernaditz">
    <latitude>49.367906</latitude>
    <longitude>14.380688</longitude>
  </city>
  <city name="Bernardov">
    <latitude>50.01436</latitude>
    <longitude>15.399015</longitude>
  </city>
  <city name="Bernartice">
    <latitude>49.367906</latitude>
    <longitude>14.380688</longitude>
  </city>
  <city name="Bernartice nad Odrou">
    <latitude>49.611194</latitude>
    <longitude>17.947977</longitude>
  </city>
  <city name="Bernau">
    <latitude>50.320688</latitude>
    <longitude>12.673003</longitude>
  </city>
  <city name="Bernetzreith">
    <latitude>49.773683</latitude>
    <longitude>12.679774</longitude>
  </city>
  <city name="Bernhau">
    <latitude>49.714131</latitude>
    <longitude>17.662917</longitude>
  </city>
  <city name="Bernklau">
    <latitude>49.994596</latitude>
    <longitude>13.060243</longitude>
  </city>
  <city name="Berno">
    <latitude>49.2</latitude>
    <longitude>16.633333</longitude>
  </city>
  <city name="Bernov">
    <latitude>50.233818</latitude>
    <longitude>12.510081</longitude>
  </city>
  <city name="Bernschlag Deutsch">
    <latitude>49.004538</latitude>
    <longitude>15.237377</longitude>
  </city>
  <city name="Bernsdorf">
    <latitude>50.645798</latitude>
    <longitude>15.965213</longitude>
  </city>
  <city name="Bernsdorf pod Smrkem">
    <latitude>50.964465</latitude>
    <longitude>15.199942</longitude>
  </city>
  <city name="Beroun">
    <latitude>49.950816</latitude>
    <longitude>12.924054</longitude>
  </city>
  <city name="Berovice">
    <latitude>50.269094</latitude>
    <longitude>14.123238</longitude>
  </city>
  <city name="Berunice">
    <latitude>50.186082</latitude>
    <longitude>15.332337</longitude>
  </city>
  <city name="Berunicky">
    <latitude>50.196138</latitude>
    <longitude>15.331324</longitude>
  </city>
  <city name="Berzdorf">
    <latitude>50.770028</latitude>
    <longitude>15.013847</longitude>
  </city>
  <city name="Beschin">
    <latitude>49.300535</latitude>
    <longitude>13.313302</longitude>
  </city>
  <city name="Beschkaben">
    <latitude>50.516317</latitude>
    <longitude>14.579563</longitude>
  </city>
  <city name="Besdiekow">
    <latitude>49.864387</latitude>
    <longitude>14.752253</longitude>
  </city>
  <city name="Besedice">
    <latitude>50.627229</latitude>
    <longitude>15.210177</longitude>
  </city>
  <city name="Besednice">
    <latitude>48.78971</latitude>
    <longitude>14.556441</longitude>
  </city>
  <city name="Besetin">
    <latitude>49.240228</latitude>
    <longitude>13.626711</longitude>
  </city>
  <city name="Besidka">
    <latitude>49.765913</latitude>
    <longitude>14.262513</longitude>
  </city>
  <city name="Besikau">
    <latitude>50.006526</latitude>
    <longitude>12.976399</longitude>
  </city>
  <city name="Besiny">
    <latitude>49.300535</latitude>
    <longitude>13.313302</longitude>
  </city>
  <city name="Beskov">
    <latitude>50.516317</latitude>
    <longitude>14.579563</longitude>
  </city>
  <city name="Besno">
    <latitude>50.179856</latitude>
    <longitude>13.5118</longitude>
  </city>
  <city name="Bestin">
    <latitude>49.807816</latitude>
    <longitude>14.016667</longitude>
  </city>
  <city name="Bestovice">
    <latitude>50.017347</latitude>
    <longitude>16.21245</longitude>
  </city>
  <city name="Bestvina">
    <latitude>49.83699</latitude>
    <longitude>15.597045</longitude>
  </city>
  <city name="Bestviny">
    <latitude>50.320749</latitude>
    <longitude>16.146054</longitude>
  </city>
  <city name="Bestwin">
    <latitude>49.83699</latitude>
    <longitude>15.597045</longitude>
  </city>
  <city name="Betlem">
    <latitude>49.716667</latitude>
    <longitude>16.05</longitude>
  </city>
  <city name="Bettlern">
    <latitude>50.413061</latitude>
    <longitude>13.161048</longitude>
  </city>
  <city name="Bevorovice">
    <latitude>49.024095</latitude>
    <longitude>14.441268</longitude>
  </city>
  <city name="Bezdecin">
    <latitude>49.332597</latitude>
    <longitude>14.616888</longitude>
  </city>
  <city name="Bezdeci u Trnavky">
    <latitude>49.692851</latitude>
    <longitude>16.762849</longitude>
  </city>
  <city name="Bezdeci u Velkych Opatovic">
    <latitude>49.607149</latitude>
    <longitude>16.616191</longitude>
  </city>
  <city name="Bezdedice">
    <latitude>50.483119</latitude>
    <longitude>14.697287</longitude>
  </city>
  <city name="Bezdedicky">
    <latitude>49.816667</latitude>
    <longitude>14.016667</longitude>
  </city>
  <city name="Bezdedovice">
    <latitude>49.444529</latitude>
    <longitude>13.881642</longitude>
  </city>
  <city name="Bezdek">
    <latitude>50.326166</latitude>
    <longitude>13.583884</longitude>
  </city>
  <city name="Bezdekov">
    <latitude>48.833333</latitude>
    <longitude>14.15</longitude>
  </city>
  <city name="Bezdekovec">
    <latitude>49.461059</latitude>
    <longitude>13.641898</longitude>
  </city>
  <city name="Bezdekov nad Metuji">
    <latitude>50.509074</latitude>
    <longitude>16.228727</longitude>
  </city>
  <city name="Bezdekov nad Trebuvkou">
    <latitude>49.713098</latitude>
    <longitude>16.869642</longitude>
  </city>
  <city name="Bezdekov pod Tremsinem">
    <latitude>49.577265</latitude>
    <longitude>13.878657</longitude>
  </city>
  <city name="Bezdekov u Usova">
    <latitude>49.837854</latitude>
    <longitude>16.996312</longitude>
  </city>
  <city name="Bezdez">
    <latitude>50.535157</latitude>
    <longitude>14.719251</longitude>
  </city>
  <city name="Bezdruzice">
    <latitude>49.907036</latitude>
    <longitude>12.971154</longitude>
  </city>
  <city name="Bezemin">
    <latitude>49.842306</latitude>
    <longitude>12.996227</longitude>
  </city>
  <city name="Bezerovice">
    <latitude>49.298088</latitude>
    <longitude>14.516667</longitude>
  </city>
  <city name="Bezkov">
    <latitude>48.871797</latitude>
    <longitude>15.950395</longitude>
  </city>
  <city name="Bezkyd">
    <latitude>49.4</latitude>
    <longitude>18.45</longitude>
  </city>
  <city name="Bezmerov">
    <latitude>49.329288</latitude>
    <longitude>17.334813</longitude>
  </city>
  <city name="Bezmir">
    <latitude>49.65228</latitude>
    <longitude>14.538701</longitude>
  </city>
  <city name="Beznik">
    <latitude>50.446741</latitude>
    <longitude>15.645594</longitude>
  </city>
  <city name="Bezno">
    <latitude>50.367469</latitude>
    <longitude>14.79398</longitude>
  </city>
  <city name="Bezpravi">
    <latitude>50.0</latitude>
    <longitude>16.333333</longitude>
  </city>
  <city name="Bezpravovice">
    <latitude>49.448088</latitude>
    <longitude>13.14327</longitude>
  </city>
  <city name="Beztahov">
    <latitude>49.640099</latitude>
    <longitude>14.610931</longitude>
  </city>
  <city name="Bezuchov">
    <latitude>49.462622</latitude>
    <longitude>17.607744</longitude>
  </city>
  <city name="Bezverov">
    <latitude>49.946533</latitude>
    <longitude>12.823952</longitude>
  </city>
  <city name="Biberteich">
    <latitude>50.220629</latitude>
    <longitude>17.171807</longitude>
  </city>
  <city name="Biebersdorf">
    <latitude>50.670146</latitude>
    <longitude>14.253706</longitude>
  </city>
  <city name="Bielai">
    <latitude>50.186305</latitude>
    <longitude>16.380237</longitude>
  </city>
  <city name="Bielau">
    <latitude>49.734998</latitude>
    <longitude>18.001666</longitude>
  </city>
  <city name="Bielitz">
    <latitude>49.766193</latitude>
    <longitude>14.47176</longitude>
  </city>
  <city name="Bielowiec">
    <latitude>49.75703</latitude>
    <longitude>18.016558</longitude>
  </city>
  <city name="Bieltschitz">
    <latitude>49.843528</latitude>
    <longitude>14.808357</longitude>
  </city>
  <city name="Bierbruck">
    <latitude>48.95</latitude>
    <longitude>13.933333</longitude>
  </city>
  <city name="Biharzowitz">
    <latitude>49.004472</latitude>
    <longitude>16.07794</longitude>
  </city>
  <city name="Bila">
    <latitude>50.665926</latitude>
    <longitude>15.036121</longitude>
  </city>
  <city name="Bila Hlina">
    <latitude>50.531093</latitude>
    <longitude>14.923273</longitude>
  </city>
  <city name="Bila Hora">
    <latitude>49.773703</latitude>
    <longitude>13.409835</longitude>
  </city>
  <city name="Bila Hurka">
    <latitude>49.154027</latitude>
    <longitude>14.303908</longitude>
  </city>
  <city name="Bila Lhota">
    <latitude>49.709886</latitude>
    <longitude>16.973687</longitude>
  </city>
  <city name="Bilan">
    <latitude>49.957552</latitude>
    <longitude>15.735238</longitude>
  </city>
  <city name="Bilantova Lhota">
    <latitude>49.659729</latitude>
    <longitude>15.327346</longitude>
  </city>
  <city name="Bilany">
    <latitude>49.310945</latitude>
    <longitude>17.426427</longitude>
  </city>
  <city name="Bila Skala">
    <latitude>49.885092</latitude>
    <longitude>13.677756</longitude>
  </city>
  <city name="Bila Studne">
    <latitude>49.783511</latitude>
    <longitude>16.6884</longitude>
  </city>
  <city name="Bila Tremesna">
    <latitude>50.444698</latitude>
    <longitude>15.744118</longitude>
  </city>
  <city name="Bila Voda">
    <latitude>50.023003</latitude>
    <longitude>16.745092</longitude>
  </city>
  <city name="Bilavsko">
    <latitude>49.384641</latitude>
    <longitude>17.644646</longitude>
  </city>
  <city name="Bilcice">
    <latitude>49.869879</latitude>
    <longitude>17.565596</longitude>
  </city>
  <city name="Bilek">
    <latitude>49.702891</latitude>
    <longitude>15.731875</longitude>
  </city>
  <city name="Bilence">
    <latitude>50.424143</latitude>
    <longitude>13.50504</longitude>
  </city>
  <city name="Bilenec">
    <latitude>50.136547</latitude>
    <longitude>13.463453</longitude>
  </city>
  <city name="Bilenice">
    <latitude>49.238726</latitude>
    <longitude>13.64092</longitude>
  </city>
  <city name="Bile Podoli">
    <latitude>49.955714</latitude>
    <longitude>15.490135</longitude>
  </city>
  <city name="Bile Policany">
    <latitude>50.390264</latitude>
    <longitude>15.731092</longitude>
  </city>
  <city name="Biletin">
    <latitude>49.811787</latitude>
    <longitude>12.678859</longitude>
  </city>
  <city name="Biletitz">
    <latitude>48.834043</latitude>
    <longitude>14.183333</longitude>
  </city>
  <city name="Bile Vchynice">
    <latitude>50.097806</latitude>
    <longitude>15.436185</longitude>
  </city>
  <city name="Bilichov">
    <latitude>50.261188</latitude>
    <longitude>13.916439</longitude>
  </city>
  <city name="Bilina">
    <latitude>49.381438</latitude>
    <longitude>14.365838</longitude>
  </city>
  <city name="Bilina Kyselka">
    <latitude>50.55</latitude>
    <longitude>13.766667</longitude>
  </city>
  <city name="Bilin">
    <latitude>50.548752</latitude>
    <longitude>13.775444</longitude>
  </city>
  <city name="Bilinka">
    <latitude>49.357903</latitude>
    <longitude>14.3767</longitude>
  </city>
  <city name="Bilka">
    <latitude>50.5684</latitude>
    <longitude>13.934295</longitude>
  </city>
  <city name="Bilkau">
    <latitude>49.084873</latitude>
    <longitude>15.478861</longitude>
  </city>
  <city name="Bilkov">
    <latitude>49.084873</latitude>
    <longitude>15.478861</longitude>
  </city>
  <city name="Bilkovice">
    <latitude>49.760343</latitude>
    <longitude>14.861372</longitude>
  </city>
  <city name="Bilnitz">
    <latitude>49.074291</latitude>
    <longitude>18.011432</longitude>
  </city>
  <city name="Bilova">
    <latitude>49.410243</latitude>
    <longitude>17.846907</longitude>
  </city>
  <city name="Bilov">
    <latitude>49.734998</latitude>
    <longitude>18.001666</longitude>
  </city>
  <city name="Bilovec">
    <latitude>49.75703</latitude>
    <longitude>18.016558</longitude>
  </city>
  <city name="Bilovice">
    <latitude>48.834043</latitude>
    <longitude>14.183333</longitude>
  </city>
  <city name="Bilovice nad Svitavou">
    <latitude>49.245536</latitude>
    <longitude>16.671772</longitude>
  </city>
  <city name="Bilowitz">
    <latitude>49.245536</latitude>
    <longitude>16.671772</longitude>
  </city>
  <city name="Bilsko">
    <latitude>49.159088</latitude>
    <longitude>14.061456</longitude>
  </city>
  <city name="Biluky">
    <latitude>49.469216</latitude>
    <longitude>13.422479</longitude>
  </city>
  <city name="Bily Dvur">
    <latitude>49.054439</latitude>
    <longitude>15.308188</longitude>
  </city>
  <city name="Bily Kamen">
    <latitude>49.436685</latitude>
    <longitude>15.507372</longitude>
  </city>
  <city name="Bily Kostel">
    <latitude>50.824064</latitude>
    <longitude>14.925302</longitude>
  </city>
  <city name="Bily Kostelec">
    <latitude>50.635372</latitude>
    <longitude>14.336801</longitude>
  </city>
  <city name="Bily Kostel nad Nisou">
    <latitude>50.824064</latitude>
    <longitude>14.925302</longitude>
  </city>
  <city name="Bily Kun">
    <latitude>49.882558</latitude>
    <longitude>16.067802</longitude>
  </city>
  <city name="Bily Potok">
    <latitude>50.872984</latitude>
    <longitude>15.231097</longitude>
  </city>
  <city name="Bily Ujezd">
    <latitude>50.238163</latitude>
    <longitude>16.22454</longitude>
  </city>
  <city name="Binai">
    <latitude>50.554116</latitude>
    <longitude>14.61633</longitude>
  </city>
  <city name="Binsdorf">
    <latitude>50.820232</latitude>
    <longitude>14.265391</longitude>
  </city>
  <city name="Birkau">
    <latitude>49.275079</latitude>
    <longitude>13.290364</longitude>
  </city>
  <city name="Birkenberg">
    <latitude>49.679898</latitude>
    <longitude>13.98203</longitude>
  </city>
  <city name="Birkigt">
    <latitude>50.609381</latitude>
    <longitude>16.23061</longitude>
  </city>
  <city name="Birkov">
    <latitude>49.517891</latitude>
    <longitude>13.231191</longitude>
  </city>
  <city name="Birnai">
    <latitude>50.619332</latitude>
    <longitude>14.079506</longitude>
  </city>
  <city name="Birnbaum">
    <latitude>49.128992</latitude>
    <longitude>16.833727</longitude>
  </city>
  <city name="Birnbaumhof">
    <latitude>49.407682</latitude>
    <longitude>15.607498</longitude>
  </city>
  <city name="Birndorf">
    <latitude>50.154992</latitude>
    <longitude>12.711029</longitude>
  </city>
  <city name="Bischitz">
    <latitude>50.311153</latitude>
    <longitude>14.61104</longitude>
  </city>
  <city name="Bischkowitz">
    <latitude>49.468333</latitude>
    <longitude>17.716072</longitude>
  </city>
  <city name="Bischofstein">
    <latitude>50.572912</latitude>
    <longitude>16.137576</longitude>
  </city>
  <city name="Bischofswalde">
    <latitude>50.176004</latitude>
    <longitude>17.610957</longitude>
  </city>
  <city name="Bischofteinitz">
    <latitude>49.527415</latitude>
    <longitude>12.941255</longitude>
  </city>
  <city name="Bisenz">
    <latitude>48.970968</latitude>
    <longitude>17.269298</longitude>
  </city>
  <city name="Biskoupky">
    <latitude>49.097764</latitude>
    <longitude>16.281491</longitude>
  </city>
  <city name="Biskupice">
    <latitude>49.037476</latitude>
    <longitude>16.010058</longitude>
  </city>
  <city name="Biskupitz">
    <latitude>49.037476</latitude>
    <longitude>16.010058</longitude>
  </city>
  <city name="Bisterz">
    <latitude>49.222547</latitude>
    <longitude>16.525967</longitude>
  </city>
  <city name="Bistrau">
    <latitude>49.630834</latitude>
    <longitude>16.342375</longitude>
  </city>
  <city name="Bistritz">
    <latitude>50.39455</latitude>
    <longitude>15.246379</longitude>
  </city>
  <city name="Bitetice">
    <latitude>49.466667</latitude>
    <longitude>15.15</longitude>
  </city>
  <city name="Bitouchov">
    <latitude>50.532348</latitude>
    <longitude>15.303014</longitude>
  </city>
  <city name="Bitovanky">
    <latitude>49.145133</latitude>
    <longitude>15.690962</longitude>
  </city>
  <city name="Bitovany">
    <latitude>49.898008</latitude>
    <longitude>15.860401</longitude>
  </city>
  <city name="Bitov">
    <latitude>49.378994</latitude>
    <longitude>14.819021</longitude>
  </city>
  <city name="Bitozeves">
    <latitude>50.373698</latitude>
    <longitude>13.641965</longitude>
  </city>
  <city name="Bittischka">
    <latitude>49.275743</latitude>
    <longitude>16.436621</longitude>
  </city>
  <city name="Bladensdorf">
    <latitude>49.922497</latitude>
    <longitude>17.083809</longitude>
  </city>
  <city name="Bladowitz">
    <latitude>49.751666</latitude>
    <longitude>17.232738</longitude>
  </city>
  <city name="Blahonov">
    <latitude>49.335799</latitude>
    <longitude>16.313609</longitude>
  </city>
  <city name="Blahotice">
    <latitude>50.236948</latitude>
    <longitude>14.120716</longitude>
  </city>
  <city name="Blahousty">
    <latitude>49.8</latitude>
    <longitude>13.083333</longitude>
  </city>
  <city name="Blahova Lhota">
    <latitude>49.610508</latitude>
    <longitude>14.340794</longitude>
  </city>
  <city name="Blahov">
    <latitude>50.633408</latitude>
    <longitude>14.202799</longitude>
  </city>
  <city name="Blahunov">
    <latitude>50.447735</latitude>
    <longitude>13.291888</longitude>
  </city>
  <city name="Blahussen">
    <latitude>49.8</latitude>
    <longitude>13.083333</longitude>
  </city>
  <city name="Blahutovice">
    <latitude>49.586188</latitude>
    <longitude>17.871079</longitude>
  </city>
  <city name="Blanice">
    <latitude>49.100914</latitude>
    <longitude>14.072883</longitude>
  </city>
  <city name="Blanicka">
    <latitude>49.09447</latitude>
    <longitude>14.074987</longitude>
  </city>
  <city name="Blankartice">
    <latitude>50.699679</latitude>
    <longitude>14.298626</longitude>
  </city>
  <city name="Blankersdorf">
    <latitude>50.699679</latitude>
    <longitude>14.298626</longitude>
  </city>
  <city name="Blanne">
    <latitude>48.992014</latitude>
    <longitude>15.883333</longitude>
  </city>
  <city name="Blansko">
    <latitude>49.363931</latitude>
    <longitude>16.647513</longitude>
  </city>
  <city name="Blaschdorf">
    <latitude>49.776908</latitude>
    <longitude>18.068452</longitude>
  </city>
  <city name="Blaschenitz">
    <latitude>49.789572</latitude>
    <longitude>14.468897</longitude>
  </city>
  <city name="Blaschim">
    <latitude>49.762167</latitude>
    <longitude>14.453316</longitude>
  </city>
  <city name="Blaschke">
    <latitude>50.089579</latitude>
    <longitude>16.894557</longitude>
  </city>
  <city name="Blata">
    <latitude>50.470904</latitude>
    <longitude>15.263734</longitude>
  </city>
  <city name="Blatce">
    <latitude>50.505066</latitude>
    <longitude>14.600405</longitude>
  </city>
  <city name="Blatec">
    <latitude>49.261372</latitude>
    <longitude>14.533995</longitude>
  </city>
  <city name="Blatecky">
    <latitude>50.495282</latitude>
    <longitude>14.589695</longitude>
  </city>
  <city name="Blatenka">
    <latitude>49.400597</latitude>
    <longitude>13.855073</longitude>
  </city>
  <city name="Blatiny">
    <latitude>49.455148</latitude>
    <longitude>14.919977</longitude>
  </city>
  <city name="Blatky">
    <latitude>49.650136</latitude>
    <longitude>16.049728</longitude>
  </city>
  <city name="Blatna">
    <latitude>49.427165</latitude>
    <longitude>13.884526</longitude>
  </city>
  <city name="Blatnice">
    <latitude>48.947139</latitude>
    <longitude>17.464009</longitude>
  </city>
  <city name="Blatnicka">
    <latitude>48.935996</latitude>
    <longitude>17.529781</longitude>
  </city>
  <city name="Blatnikovska Lhotka">
    <latitude>50.055578</latitude>
    <longitude>15.711837</longitude>
  </city>
  <city name="Blatno">
    <latitude>49.75993</latitude>
    <longitude>15.923026</longitude>
  </city>
  <city name="Blato">
    <latitude>48.816667</latitude>
    <longitude>14.133333</longitude>
  </city>
  <city name="Blattendorf">
    <latitude>49.586188</latitude>
    <longitude>17.871079</longitude>
  </city>
  <city name="Blauda">
    <latitude>49.942862</latitude>
    <longitude>16.926266</longitude>
  </city>
  <city name="Blauendorf">
    <latitude>49.575709</latitude>
    <longitude>18.022863</longitude>
  </city>
  <city name="Blauenschlag">
    <latitude>49.141911</latitude>
    <longitude>15.097647</longitude>
  </city>
  <city name="Blazejov">
    <latitude>49.141911</latitude>
    <longitude>15.097647</longitude>
  </city>
  <city name="Blazejovice">
    <latitude>48.952842</latitude>
    <longitude>13.95</longitude>
  </city>
  <city name="Blazenice">
    <latitude>49.789572</latitude>
    <longitude>14.468897</longitude>
  </city>
  <city name="Blazice">
    <latitude>49.442981</latitude>
    <longitude>17.643456</longitude>
  </city>
  <city name="Blazim">
    <latitude>49.916565</latitude>
    <longitude>13.047655</longitude>
  </city>
  <city name="Blazkov">
    <latitude>48.741484</latitude>
    <longitude>14.450875</longitude>
  </city>
  <city name="Blaznov">
    <latitude>49.576908</latitude>
    <longitude>15.052819</longitude>
  </city>
  <city name="Blazov">
    <latitude>49.683333</latitude>
    <longitude>16.883333</longitude>
  </city>
  <city name="Blazovice">
    <latitude>49.165483</latitude>
    <longitude>16.787016</longitude>
  </city>
  <city name="Blehov">
    <latitude>49.493249</latitude>
    <longitude>14.398934</longitude>
  </city>
  <city name="Bleistadt">
    <latitude>50.244662</latitude>
    <longitude>12.55825</longitude>
  </city>
  <city name="Bleiswedel">
    <latitude>50.608444</latitude>
    <longitude>14.396754</longitude>
  </city>
  <city name="Blesno">
    <latitude>50.214035</latitude>
    <longitude>15.930207</longitude>
  </city>
  <city name="Blevice">
    <latitude>50.209273</latitude>
    <longitude>14.237075</longitude>
  </city>
  <city name="Blinka">
    <latitude>50.039584</latitude>
    <longitude>15.060637</longitude>
  </city>
  <city name="Blisice">
    <latitude>49.122586</latitude>
    <longitude>17.164826</longitude>
  </city>
  <city name="Blisowa">
    <latitude>49.499592</latitude>
    <longitude>12.989451</longitude>
  </city>
  <city name="Blizanovy">
    <latitude>49.424927</latitude>
    <longitude>13.507546</longitude>
  </city>
  <city name="Blizejov">
    <latitude>49.499592</latitude>
    <longitude>12.989451</longitude>
  </city>
  <city name="Blizevedly">
    <latitude>50.608444</latitude>
    <longitude>14.396754</longitude>
  </city>
  <city name="Blizkov">
    <latitude>49.400952</latitude>
    <longitude>15.907619</longitude>
  </city>
  <city name="Blizkovice">
    <latitude>48.998229</latitude>
    <longitude>15.835799</longitude>
  </city>
  <city name="Blizna">
    <latitude>48.722609</latitude>
    <longitude>14.095654</longitude>
  </city>
  <city name="Bliznaky">
    <latitude>49.35</latitude>
    <longitude>17.833333</longitude>
  </city>
  <city name="Bliznovice">
    <latitude>49.95</latitude>
    <longitude>15.95</longitude>
  </city>
  <city name="Blizsi Lhota">
    <latitude>48.757024</latitude>
    <longitude>14.012015</longitude>
  </city>
  <city name="Blosdorf">
    <latitude>49.825947</latitude>
    <longitude>16.599881</longitude>
  </city>
  <city name="Blottendorf">
    <latitude>50.786509</latitude>
    <longitude>14.53772</longitude>
  </city>
  <city name="Blov">
    <latitude>50.325281</latitude>
    <longitude>13.295638</longitude>
  </city>
  <city name="Blovice">
    <latitude>49.583231</latitude>
    <longitude>13.533991</longitude>
  </city>
  <city name="Blowitz">
    <latitude>49.583231</latitude>
    <longitude>13.533991</longitude>
  </city>
  <city name="Blsany">
    <latitude>50.216493</latitude>
    <longitude>13.469709</longitude>
  </city>
  <city name="Blucina">
    <latitude>49.055618</latitude>
    <longitude>16.647764</longitude>
  </city>
  <city name="Bludau">
    <latitude>48.583333</latitude>
    <longitude>14.416667</longitude>
  </city>
  <city name="Bludna">
    <latitude>50.399839</latitude>
    <longitude>12.813772</longitude>
  </city>
  <city name="Bludov">
    <latitude>48.583333</latitude>
    <longitude>14.416667</longitude>
  </city>
  <city name="Bludovice">
    <latitude>49.575709</latitude>
    <longitude>18.022863</longitude>
  </city>
  <city name="Blum Bernschlag">
    <latitude>49.033333</latitude>
    <longitude>15.05</longitude>
  </city>
  <city name="Blumenau">
    <latitude>48.866667</latitude>
    <longitude>14.05</longitude>
  </city>
  <city name="Blumenbach">
    <latitude>50.178669</latitude>
    <longitude>16.937091</longitude>
  </city>
  <city name="Blumendorf">
    <latitude>49.543179</latitude>
    <longitude>15.593052</longitude>
  </city>
  <city name="Bobnice">
    <latitude>50.217878</latitude>
    <longitude>15.05534</longitude>
  </city>
  <city name="Bobov">
    <latitude>51.65</latitude>
    <longitude>15.183333</longitude>
  </city>
  <city name="Bobovec">
    <latitude>48.705372</latitude>
    <longitude>14.168259</longitude>
  </city>
  <city name="Bobr">
    <latitude>50.670616</latitude>
    <longitude>15.900864</longitude>
  </city>
  <city name="Bobrovnik">
    <latitude>50.220629</latitude>
    <longitude>17.171807</longitude>
  </city>
  <city name="Bobrovniky">
    <latitude>49.872259</latitude>
    <longitude>18.209172</longitude>
  </city>
  <city name="Bobruvka">
    <latitude>49.448434</latitude>
    <longitude>16.09435</longitude>
  </city>
  <city name="Bocanovice">
    <latitude>49.569344</latitude>
    <longitude>18.738132</longitude>
  </city>
  <city name="Boc">
    <latitude>50.36197</latitude>
    <longitude>13.082662</longitude>
  </city>
  <city name="Bochor">
    <latitude>49.422735</latitude>
    <longitude>17.425837</longitude>
  </city>
  <city name="Bochorz">
    <latitude>49.422735</latitude>
    <longitude>17.425837</longitude>
  </city>
  <city name="Bochov">
    <latitude>50.150569</latitude>
    <longitude>13.046016</longitude>
  </city>
  <city name="Bochovice">
    <latitude>49.320515</latitude>
    <longitude>15.897534</longitude>
  </city>
  <city name="Bockhutte">
    <latitude>49.041052</latitude>
    <longitude>13.646482</longitude>
  </city>
  <city name="Bodenbach">
    <latitude>50.766667</latitude>
    <longitude>14.2</longitude>
  </city>
  <city name="Boden">
    <latitude>49.992383</latitude>
    <longitude>12.440876</longitude>
  </city>
  <city name="Bodenstadt">
    <latitude>49.638579</latitude>
    <longitude>17.652736</longitude>
  </city>
  <city name="Bodisch">
    <latitude>50.593204</latitude>
    <longitude>16.198324</longitude>
  </city>
  <city name="Bogumin">
    <latitude>49.916905</latitude>
    <longitude>18.336188</longitude>
  </city>
  <city name="Bohanka">
    <latitude>50.365431</latitude>
    <longitude>15.707959</longitude>
  </city>
  <city name="Boharyne">
    <latitude>50.204076</latitude>
    <longitude>15.63109</longitude>
  </city>
  <city name="Bohate Malkovice">
    <latitude>49.188068</latitude>
    <longitude>17.016273</longitude>
  </city>
  <city name="Bohatice">
    <latitude>50.245771</latitude>
    <longitude>12.87848</longitude>
  </city>
  <city name="Bohdalau">
    <latitude>49.480884</latitude>
    <longitude>15.875034</longitude>
  </city>
  <city name="Bohdal">
    <latitude>50.350721</latitude>
    <longitude>14.045992</longitude>
  </city>
  <city name="Bohdalec">
    <latitude>49.473572</latitude>
    <longitude>16.05967</longitude>
  </city>
  <city name="Bohdalice">
    <latitude>49.213806</latitude>
    <longitude>17.029781</longitude>
  </city>
  <city name="Bohdalin">
    <latitude>49.308137</latitude>
    <longitude>15.015932</longitude>
  </city>
  <city name="Bohdalov">
    <latitude>49.480884</latitude>
    <longitude>15.875034</longitude>
  </city>
  <city name="Bohdalovice">
    <latitude>48.742792</latitude>
    <longitude>14.286898</longitude>
  </city>
  <city name="Bohdanec">
    <latitude>50.082108</latitude>
    <longitude>15.673401</longitude>
  </city>
  <city name="Bohdanovice">
    <latitude>49.899643</latitude>
    <longitude>17.638092</longitude>
  </city>
  <city name="Bohdasice">
    <latitude>49.179433</latitude>
    <longitude>13.523015</longitude>
  </city>
  <city name="Bohdasin">
    <latitude>50.338702</latitude>
    <longitude>16.227126</longitude>
  </city>
  <city name="Bohentsch">
    <latitude>50.140162</latitude>
    <longitude>13.12565</longitude>
  </city>
  <city name="Bohmdorf">
    <latitude>48.616667</latitude>
    <longitude>14.566667</longitude>
  </city>
  <city name="Bohmisch Aicha">
    <latitude>50.660313</latitude>
    <longitude>14.995326</longitude>
  </city>
  <city name="Bohmisch Bela">
    <latitude>49.644312</latitude>
    <longitude>15.69167</longitude>
  </city>
  <city name="Bohmisch">
    <latitude>50.394014</latitude>
    <longitude>16.049184</longitude>
  </city>
  <city name="Bohmisch Bokau">
    <latitude>50.700964</latitude>
    <longitude>14.151334</longitude>
  </city>
  <city name="Bohmisch Borau">
    <latitude>50.000714</latitude>
    <longitude>12.898572</longitude>
  </city>
  <city name="Bohmisch Brod">
    <latitude>50.07358</latitude>
    <longitude>14.858163</longitude>
  </city>
  <city name="Bohmisch Budweis">
    <latitude>48.983333</latitude>
    <longitude>14.466667</longitude>
  </city>
  <city name="Bohmisch Domaschlag">
    <latitude>49.876705</latitude>
    <longitude>12.910447</longitude>
  </city>
  <city name="Bohmischdorf">
    <latitude>50.760053</latitude>
    <longitude>14.761376</longitude>
  </city>
  <city name="Bohmisch Einsiedel">
    <latitude>50.626209</latitude>
    <longitude>13.505016</longitude>
  </city>
  <city name="Bohmische Lichwe">
    <latitude>50.032218</latitude>
    <longitude>16.374787</longitude>
  </city>
  <city name="Bohmische Rybna">
    <latitude>50.071709</latitude>
    <longitude>16.40272</longitude>
  </city>
  <city name="Bohmisch Gilowitz">
    <latitude>48.673655</latitude>
    <longitude>14.345499</longitude>
  </city>
  <city name="Bohmisch Grillowitz">
    <latitude>48.833333</latitude>
    <longitude>16.283333</longitude>
  </city>
  <city name="Bohmisch Haidl">
    <latitude>48.789578</latitude>
    <longitude>14.043368</longitude>
  </city>
  <city name="Bohmisch Hammer">
    <latitude>50.438928</latitude>
    <longitude>13.014822</longitude>
  </city>
  <city name="Bohmisch Hermsdorf">
    <latitude>49.739463</latitude>
    <longitude>16.531939</longitude>
  </city>
  <city name="Bohmisch Kahn">
    <latitude>50.732248</latitude>
    <longitude>14.037198</longitude>
  </city>
  <city name="Bohmisch Kamnitz">
    <latitude>50.800341</latitude>
    <longitude>14.418459</longitude>
  </city>
  <city name="Bohmisch Kilmes">
    <latitude>50.114171</latitude>
    <longitude>12.949723</longitude>
  </city>
  <city name="Bohmisch Kopist">
    <latitude>50.524776</latitude>
    <longitude>14.167879</longitude>
  </city>
  <city name="Bohmisch Krumau">
    <latitude>48.81264</latitude>
    <longitude>14.318207</longitude>
  </city>
  <city name="Bohmisch Kubitzen">
    <latitude>49.368656</latitude>
    <longitude>12.858489</longitude>
  </city>
  <city name="Bohmisch-Leipa">
    <latitude>50.686736</latitude>
    <longitude>14.538125</longitude>
  </city>
  <city name="Bohmisch Liebau">
    <latitude>49.857625</latitude>
    <longitude>17.113098</longitude>
  </city>
  <city name="Bohmisch Lotschnau">
    <latitude>49.794226</latitude>
    <longitude>16.484954</longitude>
  </city>
  <city name="Bohmisch Neudorfel">
    <latitude>50.678822</latitude>
    <longitude>13.963778</longitude>
  </city>
  <city name="Bohmisch Petersdorf">
    <latitude>50.122556</latitude>
    <longitude>16.597769</longitude>
  </city>
  <city name="Bohmisch Rohren">
    <latitude>48.880448</latitude>
    <longitude>13.827256</longitude>
  </city>
  <city name="Bohmisch Rothmuhl">
    <latitude>49.701186</latitude>
    <longitude>16.423868</longitude>
  </city>
  <city name="Bohmisch Rudoletz">
    <latitude>49.068443</latitude>
    <longitude>15.324306</longitude>
  </city>
  <city name="Bohmisch Rust">
    <latitude>50.279726</latitude>
    <longitude>13.226984</longitude>
  </city>
  <city name="Bohmisch-Trubau">
    <latitude>49.901115</latitude>
    <longitude>16.445046</longitude>
  </city>
  <city name="Bohmisch Wiesen">
    <latitude>49.66047</latitude>
    <longitude>16.500476</longitude>
  </city>
  <city name="Bohmisch Wiesenthal">
    <latitude>50.412857</latitude>
    <longitude>12.978925</longitude>
  </city>
  <city name="Bohmisch Zlatnik">
    <latitude>50.511607</latitude>
    <longitude>13.698114</longitude>
  </city>
  <city name="Bohnau">
    <latitude>49.668452</latitude>
    <longitude>16.464288</longitude>
  </city>
  <city name="Bohnice">
    <latitude>50.133333</latitude>
    <longitude>14.416667</longitude>
  </city>
  <city name="Bohnitz">
    <latitude>50.133333</latitude>
    <longitude>14.416667</longitude>
  </city>
  <city name="Boholib">
    <latitude>49.880636</latitude>
    <longitude>14.458708</longitude>
  </city>
  <city name="Bohosoudov">
    <latitude>49.106671</latitude>
    <longitude>15.574691</longitude>
  </city>
  <city name="Bohostice">
    <latitude>49.601895</latitude>
    <longitude>14.139578</longitude>
  </city>
  <city name="Bohosudov">
    <latitude>50.684185</latitude>
    <longitude>13.876685</longitude>
  </city>
  <city name="Bohounovice Druha">
    <latitude>49.914755</latitude>
    <longitude>14.972624</longitude>
  </city>
  <city name="Bohounovice I">
    <latitude>49.974463</latitude>
    <longitude>15.182818</longitude>
  </city>
  <city name="Bohounovice II">
    <latitude>49.914755</latitude>
    <longitude>14.972624</longitude>
  </city>
  <city name="Bohounovice Predni">
    <latitude>49.974463</latitude>
    <longitude>15.182818</longitude>
  </city>
  <city name="Bohouskovice">
    <latitude>48.923674</latitude>
    <longitude>14.314922</longitude>
  </city>
  <city name="Bohousova">
    <latitude>50.087483</latitude>
    <longitude>16.38458</longitude>
  </city>
  <city name="Bohucovice">
    <latitude>49.867262</latitude>
    <longitude>17.901904</longitude>
  </city>
  <city name="Bohuliby">
    <latitude>49.880636</latitude>
    <longitude>14.458708</longitude>
  </city>
  <city name="Bohumilec">
    <latitude>50.638239</latitude>
    <longitude>14.982638</longitude>
  </city>
  <city name="Bohumilice">
    <latitude>48.83796</latitude>
    <longitude>16.081696</longitude>
  </city>
  <city name="Bohumin">
    <latitude>49.901831</latitude>
    <longitude>18.360679</longitude>
  </city>
  <city name="Bohunice">
    <latitude>48.9</latitude>
    <longitude>16.183333</longitude>
  </city>
  <city name="Bohunov">
    <latitude>49.562503</latitude>
    <longitude>16.215585</longitude>
  </city>
  <city name="Bohunovice">
    <latitude>49.66286</latitude>
    <longitude>17.289043</longitude>
  </city>
  <city name="Bohunovsko">
    <latitude>50.646523</latitude>
    <longitude>15.315508</longitude>
  </city>
  <city name="Bohusice">
    <latitude>49.08478</latitude>
    <longitude>15.852499</longitude>
  </city>
  <city name="Bohuslav">
    <latitude>50.033333</latitude>
    <longitude>12.806424</longitude>
  </city>
  <city name="Bohuslavice">
    <latitude>49.051578</latitude>
    <longitude>17.121232</longitude>
  </city>
  <city name="Bohuslavice nad Upou">
    <latitude>50.550811</latitude>
    <longitude>15.976205</longitude>
  </city>
  <city name="Bohuslavky">
    <latitude>49.555354</latitude>
    <longitude>17.567747</longitude>
  </city>
  <city name="Bohuslawitz">
    <latitude>50.314594</latitude>
    <longitude>16.088857</longitude>
  </city>
  <city name="Bohuslow">
    <latitude>49.051578</latitude>
    <longitude>17.121232</longitude>
  </city>
  <city name="Bohusoudov">
    <latitude>49.106671</latitude>
    <longitude>15.574691</longitude>
  </city>
  <city name="Bohusov">
    <latitude>50.244289</latitude>
    <longitude>17.714383</longitude>
  </city>
  <city name="Bohusovice nad Ohri">
    <latitude>50.494477</latitude>
    <longitude>14.149776</longitude>
  </city>
  <city name="Bohutice">
    <latitude>48.983333</latitude>
    <longitude>16.35</longitude>
  </city>
  <city name="Bohutin">
    <latitude>49.375419</latitude>
    <longitude>15.020197</longitude>
  </city>
  <city name="Bohy">
    <latitude>49.937979</latitude>
    <longitude>13.575303</longitude>
  </city>
  <city name="Boidensdorf">
    <latitude>49.899643</latitude>
    <longitude>17.638092</longitude>
  </city>
  <city name="Bojanov">
    <latitude>49.394884</latitude>
    <longitude>16.160005</longitude>
  </city>
  <city name="Bojanovice">
    <latitude>48.967588</latitude>
    <longitude>15.989515</longitude>
  </city>
  <city name="Bojanow">
    <latitude>49.841728</latitude>
    <longitude>15.70531</longitude>
  </city>
  <city name="Bojanowitz">
    <latitude>49.854738</latitude>
    <longitude>14.352487</longitude>
  </city>
  <city name="Bojau">
    <latitude>49.867615</latitude>
    <longitude>14.340643</longitude>
  </city>
  <city name="Bojecnice">
    <latitude>49.68578</latitude>
    <longitude>12.8132</longitude>
  </city>
  <city name="Bojenice">
    <latitude>49.36143</latitude>
    <longitude>14.358996</longitude>
  </city>
  <city name="Bojesice">
    <latitude>49.539254</latitude>
    <longitude>14.04171</longitude>
  </city>
  <city name="Bojetice">
    <latitude>50.376973</latitude>
    <longitude>14.966944</longitude>
  </city>
  <city name="Bojiste">
    <latitude>49.668028</latitude>
    <longitude>15.286462</longitude>
  </city>
  <city name="Bojkovice">
    <latitude>49.037279</latitude>
    <longitude>17.816865</longitude>
  </city>
  <city name="Bojkowitz">
    <latitude>49.037279</latitude>
    <longitude>17.816865</longitude>
  </city>
  <city name="Bojmany">
    <latitude>49.95932</latitude>
    <longitude>15.437414</longitude>
  </city>
  <city name="Bojov">
    <latitude>49.867615</latitude>
    <longitude>14.340643</longitude>
  </city>
  <city name="Boksgruen">
    <latitude>50.37584</latitude>
    <longitude>13.054138</longitude>
  </city>
  <city name="Boksgrun">
    <latitude>50.37584</latitude>
    <longitude>13.054138</longitude>
  </city>
  <city name="Bokwen">
    <latitude>50.715584</latitude>
    <longitude>14.577986</longitude>
  </city>
  <city name="Bolatice">
    <latitude>49.953699</latitude>
    <longitude>18.082143</longitude>
  </city>
  <city name="Bolatitz">
    <latitude>49.953699</latitude>
    <longitude>18.082143</longitude>
  </city>
  <city name="Bolebor">
    <latitude>50.538589</latitude>
    <longitude>13.415102</longitude>
  </city>
  <city name="Bolechov">
    <latitude>49.538701</latitude>
    <longitude>15.206839</longitude>
  </city>
  <city name="Bolechovice">
    <latitude>49.61174</latitude>
    <longitude>14.500662</longitude>
  </city>
  <city name="Bolechy">
    <latitude>48.663469</latitude>
    <longitude>14.2733</longitude>
  </city>
  <city name="Bolehoscht">
    <latitude>50.213946</latitude>
    <longitude>16.077346</longitude>
  </city>
  <city name="Bolehost'">
    <latitude>50.213946</latitude>
    <longitude>16.077346</longitude>
  </city>
  <city name="Bolehost'ska Lhota">
    <latitude>50.205888</latitude>
    <longitude>16.084949</longitude>
  </city>
  <city name="Bolelouc">
    <latitude>49.496966</latitude>
    <longitude>17.26863</longitude>
  </city>
  <city name="Boleradice">
    <latitude>48.967588</latitude>
    <longitude>16.813247</longitude>
  </city>
  <city name="Boleschin">
    <latitude>49.410468</latitude>
    <longitude>13.360478</longitude>
  </city>
  <city name="Bolesin">
    <latitude>49.542148</latitude>
    <longitude>16.360243</longitude>
  </city>
  <city name="Bolesiny">
    <latitude>49.410468</latitude>
    <longitude>13.360478</longitude>
  </city>
  <city name="Boleslav">
    <latitude>51.005967</latitude>
    <longitude>15.030088</longitude>
  </city>
  <city name="Boletice">
    <latitude>48.821879</latitude>
    <longitude>14.213706</longitude>
  </city>
  <city name="Boletice nad Labem">
    <latitude>50.744527</latitude>
    <longitude>14.195107</longitude>
  </city>
  <city name="Bolevec">
    <latitude>49.773193</latitude>
    <longitude>13.370542</longitude>
  </city>
  <city name="Bolewetz">
    <latitude>49.773193</latitude>
    <longitude>13.370542</longitude>
  </city>
  <city name="Bolikov">
    <latitude>49.036596</latitude>
    <longitude>15.369154</longitude>
  </city>
  <city name="Bolikovice">
    <latitude>49.089525</latitude>
    <longitude>13.899945</longitude>
  </city>
  <city name="Bolina">
    <latitude>49.681421</latitude>
    <longitude>14.955148</longitude>
  </city>
  <city name="Bolinka">
    <latitude>49.686789</latitude>
    <longitude>14.937378</longitude>
  </city>
  <city name="Bolkov">
    <latitude>50.616667</latitude>
    <longitude>15.733333</longitude>
  </city>
  <city name="Bolten">
    <latitude>49.593683</latitude>
    <longitude>17.805603</longitude>
  </city>
  <city name="Boly">
    <latitude>48.747631</latitude>
    <longitude>14.449408</longitude>
  </city>
  <city name="Bomisch-Haidl">
    <latitude>49.178591</latitude>
    <longitude>13.343122</longitude>
  </city>
  <city name="Bonaventura">
    <latitude>48.65</latitude>
    <longitude>14.716667</longitude>
  </city>
  <city name="Bonenov">
    <latitude>49.911263</latitude>
    <longitude>12.802651</longitude>
  </city>
  <city name="Bonetice">
    <latitude>49.666055</latitude>
    <longitude>12.826864</longitude>
  </city>
  <city name="Boneticky">
    <latitude>49.666565</latitude>
    <longitude>12.841184</longitude>
  </city>
  <city name="Bonitz">
    <latitude>48.9</latitude>
    <longitude>16.183333</longitude>
  </city>
  <city name="Bonkov">
    <latitude>49.547007</latitude>
    <longitude>15.447959</longitude>
  </city>
  <city name="Bonkovice">
    <latitude>49.527964</latitude>
    <longitude>14.597132</longitude>
  </city>
  <city name="Bonnesdorf">
    <latitude>48.714891</latitude>
    <longitude>14.426616</longitude>
  </city>
  <city name="Bonov">
    <latitude>49.116968</latitude>
    <longitude>15.920482</longitude>
  </city>
  <city name="Bonrepos">
    <latitude>50.241968</latitude>
    <longitude>14.792998</longitude>
  </city>
  <city name="Borac">
    <latitude>49.4</latitude>
    <longitude>16.35</longitude>
  </city>
  <city name="Boranovice">
    <latitude>50.178224</latitude>
    <longitude>14.477839</longitude>
  </city>
  <city name="Borau">
    <latitude>49.637696</latitude>
    <longitude>15.779229</longitude>
  </city>
  <city name="Bor">
    <latitude>48.812877</latitude>
    <longitude>14.450355</longitude>
  </city>
  <city name="Borcice">
    <latitude>49.109206</latitude>
    <longitude>14.037833</longitude>
  </city>
  <city name="Bordovice">
    <latitude>49.549762</latitude>
    <longitude>18.15941</longitude>
  </city>
  <city name="Borec">
    <latitude>50.407138</latitude>
    <longitude>14.732548</longitude>
  </city>
  <city name="Borecek">
    <latitude>50.639874</latitude>
    <longitude>14.717077</longitude>
  </city>
  <city name="Borecnice">
    <latitude>49.360864</latitude>
    <longitude>14.138781</longitude>
  </city>
  <city name="Borejov">
    <latitude>50.509929</latitude>
    <longitude>14.618795</longitude>
  </city>
  <city name="Borek">
    <latitude>49.023683</latitude>
    <longitude>14.500893</longitude>
  </city>
  <city name="Borena Hora">
    <latitude>49.661814</latitude>
    <longitude>14.505589</longitude>
  </city>
  <city name="Borenovice">
    <latitude>49.764902</latitude>
    <longitude>14.792646</longitude>
  </city>
  <city name="Boretice">
    <latitude>48.911932</latitude>
    <longitude>16.855261</longitude>
  </city>
  <city name="Boretin">
    <latitude>49.189069</latitude>
    <longitude>15.211546</longitude>
  </city>
  <city name="Borice">
    <latitude>49.401776</latitude>
    <longitude>14.017378</longitude>
  </city>
  <city name="Borikovice">
    <latitude>50.07673</latitude>
    <longitude>16.710689</longitude>
  </city>
  <city name="Borikovsky Dvur">
    <latitude>49.068838</latitude>
    <longitude>16.066766</longitude>
  </city>
  <city name="Borikovy">
    <latitude>49.326779</latitude>
    <longitude>13.387338</longitude>
  </city>
  <city name="Borislav">
    <latitude>50.581375</latitude>
    <longitude>13.932463</longitude>
  </city>
  <city name="Boritov">
    <latitude>49.416667</latitude>
    <longitude>16.6</longitude>
  </city>
  <city name="Borkovany">
    <latitude>49.030176</latitude>
    <longitude>16.809564</longitude>
  </city>
  <city name="Borkov">
    <latitude>50.587135</latitude>
    <longitude>15.347945</longitude>
  </city>
  <city name="Borkovice">
    <latitude>49.207281</latitude>
    <longitude>14.643326</longitude>
  </city>
  <city name="Borkowan">
    <latitude>49.030176</latitude>
    <longitude>16.809564</longitude>
  </city>
  <city name="Borky">
    <latitude>49.40232</latitude>
    <longitude>16.231658</longitude>
  </city>
  <city name="Borohradek">
    <latitude>50.096142</latitude>
    <longitude>16.092833</longitude>
  </city>
  <city name="Borosin">
    <latitude>49.693694</latitude>
    <longitude>18.237746</longitude>
  </city>
  <city name="Borotice">
    <latitude>48.85</latitude>
    <longitude>16.233333</longitude>
  </city>
  <city name="Borotin">
    <latitude>49.5825</latitude>
    <longitude>16.671426</longitude>
  </city>
  <city name="Borova">
    <latitude>49.577979</latitude>
    <longitude>16.559172</longitude>
  </city>
  <city name="Borova Krcma">
    <latitude>49.734943</latitude>
    <longitude>16.376645</longitude>
  </city>
  <city name="Borova Lada">
    <latitude>48.983333</latitude>
    <longitude>13.666667</longitude>
  </city>
  <city name="Borovany">
    <latitude>48.899809</latitude>
    <longitude>14.642921</longitude>
  </city>
  <city name="Boroveach">
    <latitude>50.563191</latitude>
    <longitude>14.93032</longitude>
  </city>
  <city name="Borovec">
    <latitude>49.51167</latitude>
    <longitude>16.33833</longitude>
  </city>
  <city name="Borovice">
    <latitude>50.244554</latitude>
    <longitude>15.981523</longitude>
  </city>
  <city name="Borovka">
    <latitude>49.774053</latitude>
    <longitude>14.527979</longitude>
  </city>
  <city name="Borovna">
    <latitude>49.164694</latitude>
    <longitude>15.395166</longitude>
  </city>
  <city name="Borovnice">
    <latitude>48.912394</latitude>
    <longitude>14.520239</longitude>
  </city>
  <city name="Borovnicka">
    <latitude>50.501426</latitude>
    <longitude>15.665173</longitude>
  </city>
  <city name="Borovnik">
    <latitude>49.356425</latitude>
    <longitude>16.229407</longitude>
  </city>
  <city name="Borovno">
    <latitude>49.621868</latitude>
    <longitude>13.690674</longitude>
  </city>
  <city name="Borovsko">
    <latitude>49.696911</latitude>
    <longitude>15.114535</longitude>
  </city>
  <city name="Borovy">
    <latitude>49.525277</latitude>
    <longitude>13.301326</longitude>
  </city>
  <city name="Borowa">
    <latitude>49.736821</latitude>
    <longitude>16.165834</longitude>
  </city>
  <city name="Borowitz">
    <latitude>50.509307</latitude>
    <longitude>15.614175</longitude>
  </city>
  <city name="Borowka">
    <latitude>49.774053</latitude>
    <longitude>14.527979</longitude>
  </city>
  <city name="Borschenowitz">
    <latitude>49.764902</latitude>
    <longitude>14.792646</longitude>
