<?xml version="1.0" encoding="UTF-8"?>
<country code="ec" name="Équateur">
  <city name="10 de Agosto">
    <latitude>-1.2666667</latitude>
    <longitude>-80.3833333</longitude>
  </city>
  <city name="28 de Mayo">
    <latitude>-3.6327778</latitude>
    <longitude>-78.9244444</longitude>
  </city>
  <city name="Abanico">
    <latitude>-2.1166667</latitude>
    <longitude>-78.1666667</longitude>
  </city>
  <city name="Abañín">
    <latitude>-3.3333333</latitude>
    <longitude>-79.5</longitude>
  </city>
  <city name="Abdón Calderón">
    <latitude>-3.2666667</latitude>
    <longitude>-79.2666667</longitude>
  </city>
  <city name="Abril">
    <latitude>-3.05</latitude>
    <longitude>-79.05</longitude>
  </city>
  <city name="Acacia">
    <latitude>-2.2166667</latitude>
    <longitude>-79.875</longitude>
  </city>
  <city name="Achiote">
    <latitude>-1.2166667</latitude>
    <longitude>-79.5166667</longitude>
  </city>
  <city name="Achique">
    <latitude>-1.2166667</latitude>
    <longitude>-79.5166667</longitude>
  </city>
  <city name="Achiral">
    <latitude>-4.4</latitude>
    <longitude>-79.8</longitude>
  </city>
  <city name="Achote">
    <latitude>-1.9166667</latitude>
    <longitude>-79.6333333</longitude>
  </city>
  <city name="Achuentza">
    <latitude>-2.8308333</latitude>
    <longitude>-77.7602778</longitude>
  </city>
  <city name="Achuntza">
    <latitude>-3.6972222</latitude>
    <longitude>-78.5583333</longitude>
  </city>
  <city name="Achupallas">
    <latitude>-2.2666667</latitude>
    <longitude>-78.7333333</longitude>
  </city>
  <city name="Adriana">
    <latitude>-1.7</latitude>
    <longitude>-80.0333333</longitude>
  </city>
  <city name="Africa">
    <latitude>1.075</latitude>
    <longitude>-79.2833333</longitude>
  </city>
  <city name="África">
    <latitude>-0.7333333</latitude>
    <longitude>-80.3166667</longitude>
  </city>
  <city name="Agato">
    <latitude>-0.0833333</latitude>
    <longitude>-78.3666667</longitude>
  </city>
  <city name="Agoyán">
    <latitude>-1.3833333</latitude>
    <longitude>-78.3166667</longitude>
  </city>
  <city name="Agua Blanca">
    <latitude>-1.5333333</latitude>
    <longitude>-80.7333333</longitude>
  </city>
  <city name="Agua Caliente">
    <latitude>-0.4333333</latitude>
    <longitude>-78.6666667</longitude>
  </city>
  <city name="Aguacatal">
    <latitude>-1.3333333</latitude>
    <longitude>-79.65</longitude>
  </city>
  <city name="Aguacate">
    <latitude>-1.45</latitude>
    <longitude>-80.3333333</longitude>
  </city>
  <city name="Agua Clara">
    <latitude>-1.5333333</latitude>
    <longitude>-80.7333333</longitude>
  </city>
  <city name="Aguada">
    <latitude>-3.4833333</latitude>
    <longitude>-80.1833333</longitude>
  </city>
  <city name="Aguadita">
    <latitude>-2.1333333</latitude>
    <longitude>-80.6</longitude>
  </city>
  <city name="Agua Fría">
    <latitude>-0.9</latitude>
    <longitude>-80.1333333</longitude>
  </city>
  <city name="Aguahedionda">
    <latitude>-3.9666667</latitude>
    <longitude>-79.2333333</longitude>
  </city>
  <city name="Agualongo">
    <latitude>0.2833333</latitude>
    <longitude>-78.2166667</longitude>
  </city>
  <city name="Agualonguito">
    <latitude>0.3</latitude>
    <longitude>-78.2166667</longitude>
  </city>
  <city name="Aguamasa">
    <latitude>-1.0833333</latitude>
    <longitude>-78.7166667</longitude>
  </city>
  <city name="Aguapiedra">
    <latitude>-2.7166667</latitude>
    <longitude>-80.0833333</longitude>
  </city>
  <city name="Aguarico 3">
    <latitude>0.0188889</latitude>
    <longitude>-76.6625</longitude>
  </city>
  <city name="Aguarico">
    <latitude>0.05</latitude>
    <longitude>-77.3666667</longitude>
  </city>
  <city name="Aguarico Tres">
    <latitude>0.0188889</latitude>
    <longitude>-76.6625</longitude>
  </city>
  <city name="Aguas Aires">
    <latitude>-2.1833333</latitude>
    <longitude>-79.9833333</longitude>
  </city>
  <city name="Aguas Blancas">
    <latitude>-2.8</latitude>
    <longitude>-78.7333333</longitude>
  </city>
  <city name="Aguas Blancas Chico">
    <latitude>0.1380556</latitude>
    <longitude>-76.9902778</longitude>
  </city>
  <city name="Aguas Verdes">
    <latitude>-3.5</latitude>
    <longitude>-80.2833333</longitude>
  </city>
  <city name="Aguel">
    <latitude>0.8833333</latitude>
    <longitude>-78.0833333</longitude>
  </city>
  <city name="Aguirre">
    <latitude>0.1166667</latitude>
    <longitude>-78.75</longitude>
  </city>
  <city name="Agustin">
    <latitude>-0.0333333</latitude>
    <longitude>-78.45</longitude>
  </city>
  <city name="Ahuaca del Carmen">
    <latitude>-4.3</latitude>
    <longitude>-79.55</longitude>
  </city>
  <city name="Ahuana">
    <latitude>-1.0666667</latitude>
    <longitude>-77.5166667</longitude>
  </city>
  <city name="Ahuano">
    <latitude>-1.0666667</latitude>
    <longitude>-77.5166667</longitude>
  </city>
  <city name="Aichabug">
    <latitude>-1.7166667</latitude>
    <longitude>-78.7333333</longitude>
  </city>
  <city name="Aichapiche">
    <latitude>-0.4833333</latitude>
    <longitude>-78.5833333</longitude>
  </city>
  <city name="Ainche">
    <latitude>-1.6666667</latitude>
    <longitude>-78.5666667</longitude>
  </city>
  <city name="Ajigual">
    <latitude>-1.55</latitude>
    <longitude>-79.8833333</longitude>
  </city>
  <city name="Ajilanga">
    <latitude>-4.25</latitude>
    <longitude>-79.6166667</longitude>
  </city>
  <city name="Ajoshuaico">
    <latitude>-3.0</latitude>
    <longitude>-78.9</longitude>
  </city>
  <city name="Alabado">
    <latitude>-1.75</latitude>
    <longitude>-78.7333333</longitude>
  </city>
  <city name="Alabuela">
    <latitude>0.1166667</latitude>
    <longitude>-78.4</longitude>
  </city>
  <city name="Alagache">
    <latitude>-0.15</latitude>
    <longitude>-78.3166667</longitude>
  </city>
  <city name="Alambi">
    <latitude>-0.0666667</latitude>
    <longitude>-78.6</longitude>
  </city>
  <city name="Alamor">
    <latitude>-4.0333333</latitude>
    <longitude>-80.0333333</longitude>
  </city>
  <city name="Alangasí">
    <latitude>-0.3</latitude>
    <longitude>-78.4166667</longitude>
  </city>
  <city name="Alao">
    <latitude>-1.9</latitude>
    <longitude>-78.4833333</longitude>
  </city>
  <city name="Alaques">
    <latitude>-0.8666667</latitude>
    <longitude>-78.6</longitude>
  </city>
  <city name="Aláquez">
    <latitude>-0.8666667</latitude>
    <longitude>-78.6</longitude>
  </city>
  <city name="Alaspungo">
    <latitude>0.0</latitude>
    <longitude>-78.6</longitude>
  </city>
  <city name="Alausí">
    <latitude>-2.2</latitude>
    <longitude>-78.8333333</longitude>
  </city>
  <city name="Albán">
    <latitude>-0.1666667</latitude>
    <longitude>-78.3833333</longitude>
  </city>
  <city name="Alborada">
    <latitude>-1.9166667</latitude>
    <longitude>-79.85</longitude>
  </city>
  <city name="Albornoz">
    <latitude>-1.3</latitude>
    <longitude>-78.55</longitude>
  </city>
  <city name="Alchipichí">
    <latitude>0.05</latitude>
    <longitude>-78.4</longitude>
  </city>
  <city name="Alegría">
    <latitude>-1.8833333</latitude>
    <longitude>-79.5833333</longitude>
  </city>
  <city name="Alfaro">
    <latitude>-2.2</latitude>
    <longitude>-79.8333333</longitude>
  </city>
  <city name="Alfredo Baquerizo Moreno">
    <latitude>-1.9166667</latitude>
    <longitude>-79.5166667</longitude>
  </city>
  <city name="Algarrobal">
    <latitude>-3.0166667</latitude>
    <longitude>-80.15</longitude>
  </city>
  <city name="Algarrobera">
    <latitude>-4.0333333</latitude>
    <longitude>-79.4</longitude>
  </city>
  <city name="Algarrobillo">
    <latitude>-4.1666667</latitude>
    <longitude>-80.05</longitude>
  </city>
  <city name="Algarrobos">
    <latitude>-2.3</latitude>
    <longitude>-79.7166667</longitude>
  </city>
  <city name="Algodonal">
    <latitude>-4.1833333</latitude>
    <longitude>-80.3166667</longitude>
  </city>
  <city name="Alhajuela">
    <latitude>-1.0666667</latitude>
    <longitude>-80.2833333</longitude>
  </city>
  <city name="Alicia">
    <latitude>-1.0333333</latitude>
    <longitude>-79.6</longitude>
  </city>
  <city name="Allpacruz">
    <latitude>-2.7</latitude>
    <longitude>-78.8</longitude>
  </city>
  <city name="Alluriquín">
    <latitude>-0.3166667</latitude>
    <longitude>-78.9833333</longitude>
  </city>
  <city name="Almendral">
    <latitude>-4.0833333</latitude>
    <longitude>-79.8</longitude>
  </city>
  <city name="Alóag">
    <latitude>-0.4666667</latitude>
    <longitude>-78.5833333</longitude>
  </city>
  <city name="Aloasí">
    <latitude>-0.5166667</latitude>
    <longitude>-78.5833333</longitude>
  </city>
  <city name="Alobamba">
    <latitude>-1.3666667</latitude>
    <longitude>-78.6333333</longitude>
  </city>
  <city name="Alobuela">
    <latitude>0.3833333</latitude>
    <longitude>-78.2</longitude>
  </city>
  <city name="Aloburo">
    <latitude>0.4333333</latitude>
    <longitude>-78.05</longitude>
  </city>
  <city name="Alor">
    <latitude>0.45</latitude>
    <longitude>-77.9</longitude>
  </city>
  <city name="Alpachaca">
    <latitude>-2.9833333</latitude>
    <longitude>-78.8833333</longitude>
  </city>
  <city name="Alpamala de Toro">
    <latitude>-1.05</latitude>
    <longitude>-78.6666667</longitude>
  </city>
  <city name="Alpamala de Velasco">
    <latitude>-1.05</latitude>
    <longitude>-78.6666667</longitude>
  </city>
  <city name="Alpes">
    <latitude>-0.4666667</latitude>
    <longitude>-78.6666667</longitude>
  </city>
  <city name="Alshí">
    <latitude>-2.2166667</latitude>
    <longitude>-78.25</longitude>
  </city>
  <city name="Altamar">
    <latitude>0.8</latitude>
    <longitude>-79.4166667</longitude>
  </city>
  <city name="Altamirano">
    <latitude>0.6</latitude>
    <longitude>-77.7</longitude>
  </city>
  <city name="Altar">
    <latitude>-1.5166667</latitude>
    <longitude>-78.5</longitude>
  </city>
  <city name="Altar Urco">
    <latitude>-2.4666667</latitude>
    <longitude>-79.0333333</longitude>
  </city>
  <city name="Alto Tambo">
    <latitude>0.8666667</latitude>
    <longitude>-78.5333333</longitude>
  </city>
  <city name="Aluburo">
    <latitude>0.4333333</latitude>
    <longitude>-78.05</longitude>
  </city>
  <city name="Alubushco">
    <latitude>-4.3166667</latitude>
    <longitude>-79.8666667</longitude>
  </city>
  <city name="Alumbre">
    <latitude>-3.3666667</latitude>
    <longitude>-79.4333333</longitude>
  </city>
  <city name="Alusaca">
    <latitude>-3.9833333</latitude>
    <longitude>-79.7</longitude>
  </city>
  <city name="Alvarado">
    <latitude>-2.85</latitude>
    <longitude>-78.7666667</longitude>
  </city>
  <city name="Alvarez">
    <latitude>-3.2833333</latitude>
    <longitude>-79.9333333</longitude>
  </city>
  <city name="Amable María">
    <latitude>-3.95</latitude>
    <longitude>-79.2166667</longitude>
  </city>
  <city name="Amaguaña">
    <latitude>-0.3666667</latitude>
    <longitude>-78.45</longitude>
  </city>
  <city name="A. Maldonado">
    <latitude>-3.7166667</latitude>
    <longitude>-79.65</longitude>
  </city>
  <city name="Amalia">
    <latitude>-1.9166667</latitude>
    <longitude>-80.0</longitude>
  </city>
  <city name="Amalia Moncada">
    <latitude>-1.7833333</latitude>
    <longitude>-79.8333333</longitude>
  </city>
  <city name="Amalusa">
    <latitude>-4.6</latitude>
    <longitude>-79.4166667</longitude>
  </city>
  <city name="Amaluza">
    <latitude>-2.8333333</latitude>
    <longitude>-78.4833333</longitude>
  </city>
  <city name="Amancayes">
    <latitude>-3.8666667</latitude>
    <longitude>-79.8</longitude>
  </city>
  <city name="Amanta">
    <latitude>-2.6</latitude>
    <longitude>-78.8166667</longitude>
  </city>
  <city name="A. Martinez">
    <latitude>-1.2166667</latitude>
    <longitude>-78.6166667</longitude>
  </city>
  <city name="Amashara">
    <latitude>-3.2</latitude>
    <longitude>-78.9833333</longitude>
  </city>
  <city name="Amazonas">
    <latitude>-3.3833333</latitude>
    <longitude>-78.7333333</longitude>
  </city>
  <city name="Ambabaquí">
    <latitude>-1.3</latitude>
    <longitude>-78.5333333</longitude>
  </city>
  <city name="Ambatillo">
    <latitude>-1.2333333</latitude>
    <longitude>-78.65</longitude>
  </city>
  <city name="Ambato">
    <latitude>-1.25</latitude>
    <longitude>-78.6166667</longitude>
  </city>
  <city name="Amboasí">
    <latitude>0.0166667</latitude>
    <longitude>-78.5333333</longitude>
  </city>
  <city name="Ambuela">
    <latitude>0.1166667</latitude>
    <longitude>-78.4</longitude>
  </city>
  <city name="Ambuquí">
    <latitude>0.4333333</latitude>
    <longitude>-78.0166667</longitude>
  </city>
  <city name="Amelia">
    <latitude>-1.9833333</latitude>
    <longitude>-79.4333333</longitude>
  </city>
  <city name="América">
    <latitude>-0.9</latitude>
    <longitude>-79.65</longitude>
  </city>
  <city name="Amulá">
    <latitude>-1.7</latitude>
    <longitude>-78.7333333</longitude>
  </city>
  <city name="Ana">
    <latitude>-2.0666667</latitude>
    <longitude>-79.9166667</longitude>
  </city>
  <city name="Añaburo">
    <latitude>0.4333333</latitude>
    <longitude>-78.2333333</longitude>
  </city>
  <city name="Anafo">
    <latitude>0.35</latitude>
    <longitude>-78.2</longitude>
  </city>
  <city name="Anagumba">
    <latitude>0.2</latitude>
    <longitude>-78.4</longitude>
  </city>
  <city name="Ana María">
    <latitude>-0.9833333</latitude>
    <longitude>-79.4166667</longitude>
  </city>
  <city name="Añangu">
    <latitude>-0.5333333</latitude>
    <longitude>-76.3833333</longitude>
  </city>
  <city name="Anasque">
    <latitude>-1.55</latitude>
    <longitude>-79.9833333</longitude>
  </city>
  <city name="Ancayacu">
    <latitude>-0.7</latitude>
    <longitude>-76.0</longitude>
  </city>
  <city name="Anchamasa">
    <latitude>-0.3666667</latitude>
    <longitude>-78.5166667</longitude>
  </city>
  <city name="Anchayacu">
    <latitude>0.95</latitude>
    <longitude>-79.0666667</longitude>
  </city>
  <city name="Anchola">
    <latitude>0.0333333</latitude>
    <longitude>-78.1166667</longitude>
  </city>
  <city name="Ancón">
    <latitude>1.445</latitude>
    <longitude>-78.8608333</longitude>
  </city>
  <city name="Anconcito">
    <latitude>-2.3333333</latitude>
    <longitude>-80.8833333</longitude>
  </city>
  <city name="Andagualo">
    <latitude>-1.0833333</latitude>
    <longitude>-78.5166667</longitude>
  </city>
  <city name="Andahualo">
    <latitude>-1.0833333</latitude>
    <longitude>-78.5166667</longitude>
  </city>
  <city name="Andariales">
    <latitude>-1.0</latitude>
    <longitude>-80.1</longitude>
  </city>
  <city name="Andarriales">
    <latitude>-1.0</latitude>
    <longitude>-80.1</longitude>
  </city>
  <city name="Andignato">
    <latitude>-1.35</latitude>
    <longitude>-78.6166667</longitude>
  </city>
  <city name="Andoas">
    <latitude>-2.5666667</latitude>
    <longitude>-76.6333333</longitude>
  </city>
  <city name="Andoas Nuevo">
    <latitude>-2.5666667</latitude>
    <longitude>-76.6333333</longitude>
  </city>
  <city name="Andón">
    <latitude>-2.3333333</latitude>
    <longitude>-80.8666667</longitude>
  </city>
  <city name="Andrade Marín">
    <latitude>0.3333333</latitude>
    <longitude>-78.2166667</longitude>
  </city>
  <city name="Angamarca">
    <latitude>-1.1166667</latitude>
    <longitude>-78.9333333</longitude>
  </city>
  <city name="Angamarcalle">
    <latitude>-1.0</latitude>
    <longitude>-78.6166667</longitude>
  </city>
  <city name="Angapamba">
    <latitude>-2.8833333</latitude>
    <longitude>-78.8666667</longitude>
  </city>
  <city name="Angas">
    <latitude>-2.9333333</latitude>
    <longitude>-79.35</longitude>
  </city>
  <city name="Angashco">
    <latitude>-4.4666667</latitude>
    <longitude>-79.8666667</longitude>
  </city>
  <city name="Angasmayo">
    <latitude>0.8333333</latitude>
    <longitude>-77.7</longitude>
  </city>
  <city name="Ángela María">
    <latitude>-1.3833333</latitude>
    <longitude>-79.9333333</longitude>
  </city>
  <city name="Ángela María Número Dos">
    <latitude>-1.4</latitude>
    <longitude>-79.9333333</longitude>
  </city>
  <city name="Angeles">
    <latitude>-1.5833333</latitude>
    <longitude>-79.4333333</longitude>
  </city>
  <city name="Angélica">
    <latitude>-1.8833333</latitude>
    <longitude>-79.7833333</longitude>
  </city>
  <city name="Angelina">
    <latitude>0.4666667</latitude>
    <longitude>-77.9</longitude>
  </city>
  <city name="Angelita">
    <latitude>-2.1333333</latitude>
    <longitude>-79.6333333</longitude>
  </city>
  <city name="Angla">
    <latitude>0.2</latitude>
    <longitude>-78.1333333</longitude>
  </city>
  <city name="Angochagua">
    <latitude>0.25</latitude>
    <longitude>-78.0833333</longitude>
  </city>
  <city name="Angochahua">
    <latitude>0.25</latitude>
    <longitude>-78.0833333</longitude>
  </city>
  <city name="Angostura">
    <latitude>0.4</latitude>
    <longitude>-76.3333333</longitude>
  </city>
  <city name="Anguasha">
    <latitude>-2.0166667</latitude>
    <longitude>-77.95</longitude>
  </city>
  <city name="Ánimas">
    <latitude>-1.5333333</latitude>
    <longitude>-79.7</longitude>
  </city>
  <city name="Ankuash">
    <latitude>-2.7113889</latitude>
    <longitude>-77.5716667</longitude>
  </city>
  <city name="A. N. Martínez">
    <latitude>-1.2166667</latitude>
    <longitude>-78.6166667</longitude>
  </city>
  <city name="Anona">
    <latitude>-1.2833333</latitude>
    <longitude>-80.4666667</longitude>
  </city>
  <city name="Antisana">
    <latitude>-2.95</latitude>
    <longitude>-79.0166667</longitude>
  </city>
  <city name="Antonio Elizalde">
    <latitude>-2.1666667</latitude>
    <longitude>-79.1</longitude>
  </city>
  <city name="Antonio José Holguín">
    <latitude>-1.1166667</latitude>
    <longitude>-78.5833333</longitude>
  </city>
  <city name="Antonio Sotomayor">
    <latitude>-1.65</latitude>
    <longitude>-79.8</longitude>
  </city>
  <city name="Apagua">
    <latitude>-0.9666667</latitude>
    <longitude>-78.9333333</longitude>
  </city>
  <city name="Apahua">
    <latitude>-0.9666667</latitude>
    <longitude>-78.9333333</longitude>
  </city>
  <city name="Apatug">
    <latitude>-1.3166667</latitude>
    <longitude>-78.7</longitude>
  </city>
  <city name="Apuela">
    <latitude>0.35</latitude>
    <longitude>-78.5</longitude>
  </city>
  <city name="Arajuno">
    <latitude>-1.2333333</latitude>
    <longitude>-77.6666667</longitude>
  </city>
  <city name="Arapiccos">
    <latitude>-1.85</latitude>
    <longitude>-77.95</longitude>
  </city>
  <city name="Arapicos">
    <latitude>-1.85</latitude>
    <longitude>-77.95</longitude>
  </city>
  <city name="Araujo">
    <latitude>-0.5</latitude>
    <longitude>-78.5666667</longitude>
  </city>
  <city name="Arcadia">
    <latitude>-1.5333333</latitude>
    <longitude>-80.0166667</longitude>
  </city>
  <city name="Archidona">
    <latitude>-0.9166667</latitude>
    <longitude>-77.8</longitude>
  </city>
  <city name="Archiras">
    <latitude>-4.1</latitude>
    <longitude>-79.2666667</longitude>
  </city>
  <city name="Arcos">
    <latitude>-3.55</latitude>
    <longitude>-79.4833333</longitude>
  </city>
  <city name="Ardanza">
    <latitude>-4.2833333</latitude>
    <longitude>-79.5833333</longitude>
  </city>
  <city name="Arenal">
    <latitude>-2.3666667</latitude>
    <longitude>-79.0333333</longitude>
  </city>
  <city name="Arenillas">
    <latitude>-3.55</latitude>
    <longitude>-80.0666667</longitude>
  </city>
  <city name="Argelia">
    <latitude>-0.2666667</latitude>
    <longitude>-78.5333333</longitude>
  </city>
  <city name="Arias">
    <latitude>-1.3333333</latitude>
    <longitude>-79.8</longitude>
  </city>
  <city name="Ario">
    <latitude>-2.2666667</latitude>
    <longitude>-79.8666667</longitude>
  </city>
  <city name="Arizaga">
    <latitude>-2.9166667</latitude>
    <longitude>-78.7833333</longitude>
  </city>
  <city name="Armenia">
    <latitude>-0.2833333</latitude>
    <longitude>-78.4666667</longitude>
  </city>
  <city name="Armenia Vieja">
    <latitude>-0.5333333</latitude>
    <longitude>-77.0833333</longitude>
  </city>
  <city name="Aromo">
    <latitude>-1.05</latitude>
    <longitude>-80.9</longitude>
  </city>
  <city name="Arosemena">
    <latitude>-1.2</latitude>
    <longitude>-77.85</longitude>
  </city>
  <city name="Arosemena Tola">
    <latitude>-1.2</latitude>
    <longitude>-77.85</longitude>
  </city>
  <city name="Arquillo">
    <latitude>-2.7666667</latitude>
    <longitude>-79.45</longitude>
  </city>
  <city name="Arrastradero">
    <latitude>0.1666667</latitude>
    <longitude>-80.0666667</longitude>
  </city>
  <city name="Arrastratero">
    <latitude>0.1666667</latitude>
    <longitude>-80.0666667</longitude>
  </city>
  <city name="Arrayán">
    <latitude>-3.0833333</latitude>
    <longitude>-79.05</longitude>
  </city>
  <city name="Arrayancucho">
    <latitude>0.1666667</latitude>
    <longitude>-78.0333333</longitude>
  </city>
  <city name="Arrayán Dormido">
    <latitude>-2.4333333</latitude>
    <longitude>-79.0166667</longitude>
  </city>
  <city name="Arres">
    <latitude>-2.4833333</latitude>
    <longitude>-78.95</longitude>
  </city>
  <city name="Arroyo">
    <latitude>-0.9833333</latitude>
    <longitude>-80.6666667</longitude>
  </city>
  <city name="Arrozal">
    <latitude>-2.55</latitude>
    <longitude>-79.3333333</longitude>
  </city>
  <city name="Arsenio Castillo">
    <latitude>-4.3833333</latitude>
    <longitude>-79.1833333</longitude>
  </city>
  <city name="Arteaga">
    <latitude>-1.0666667</latitude>
    <longitude>-78.55</longitude>
  </city>
  <city name="Artillería">
    <latitude>-1.9333333</latitude>
    <longitude>-79.7166667</longitude>
  </city>
  <city name="Arvida">
    <latitude>-1.7833333</latitude>
    <longitude>-79.7833333</longitude>
  </city>
  <city name="Asancoto">
    <latitude>-1.65</latitude>
    <longitude>-79.0333333</longitude>
  </city>
  <city name="Asavo">
    <latitude>-3.3219444</latitude>
    <longitude>-78.4788889</longitude>
  </city>
  <city name="Ascasubi">
    <latitude>-0.0833333</latitude>
    <longitude>-78.2833333</longitude>
  </city>
  <city name="Ascázubi Alto">
    <latitude>-0.0833333</latitude>
    <longitude>-78.2833333</longitude>
  </city>
  <city name="Ascázubi">
    <latitude>-0.0833333</latitude>
    <longitude>-78.2833333</longitude>
  </city>
  <city name="Ascensión">
    <latitude>-1.9166667</latitude>
    <longitude>-79.75</longitude>
  </city>
  <city name="Asomaná">
    <latitude>-2.15</latitude>
    <longitude>-78.55</longitude>
  </city>
  <city name="Aspur">
    <latitude>-0.35</latitude>
    <longitude>-78.5</longitude>
  </city>
  <city name="Astudillo">
    <latitude>-3.0833333</latitude>
    <longitude>-79.0166667</longitude>
  </city>
  <city name="Asunción">
    <latitude>-3.2</latitude>
    <longitude>-79.25</longitude>
  </city>
  <city name="Atacames">
    <latitude>0.8666667</latitude>
    <longitude>-79.85</longitude>
  </city>
  <city name="Atacmes">
    <latitude>0.8772222</latitude>
    <longitude>-79.8797222</longitude>
  </city>
  <city name="Atahualpa">
    <latitude>-0.95</latitude>
    <longitude>-78.6</longitude>
  </city>
  <city name="Atalpamba">
    <latitude>-0.0833333</latitude>
    <longitude>-78.3166667</longitude>
  </city>
  <city name="Atápulo">
    <latitude>-0.8666667</latitude>
    <longitude>-78.75</longitude>
  </city>
  <city name="Atar">
    <latitude>-2.6833333</latitude>
    <longitude>-78.8833333</longitude>
  </city>
  <city name="Atilio">
    <latitude>-2.1666667</latitude>
    <longitude>-78.5666667</longitude>
  </city>
  <city name="Atillo">
    <latitude>-2.1666667</latitude>
    <longitude>-78.5666667</longitude>
  </city>
  <city name="Atobuela">
    <latitude>0.3833333</latitude>
    <longitude>-78.2</longitude>
  </city>
  <city name="Atocha">
    <latitude>-1.0666667</latitude>
    <longitude>-78.7166667</longitude>
  </city>
  <city name="Ato de la Virgen">
    <latitude>-2.5333333</latitude>
    <longitude>-78.8666667</longitude>
  </city>
  <city name="Atravesado">
    <latitude>-1.9</latitude>
    <longitude>-80.75</longitude>
  </city>
  <city name="Atravesao">
    <latitude>-2.2833333</latitude>
    <longitude>-80.7</longitude>
  </city>
  <city name="Atravezao">
    <latitude>-2.2833333</latitude>
    <longitude>-80.7</longitude>
  </city>
  <city name="Atuhuaycu">
    <latitude>-2.55</latitude>
    <longitude>-78.9166667</longitude>
  </city>
  <city name="Atuntaqui">
    <latitude>0.3333333</latitude>
    <longitude>-78.2166667</longitude>
  </city>
  <city name="Aucayacu">
    <latitude>-1.5833333</latitude>
    <longitude>-75.6166667</longitude>
  </city>
  <city name="Augashcola">
    <latitude>-4.4666667</latitude>
    <longitude>-79.8666667</longitude>
  </city>
  <city name="Augusto N. Martínez">
    <latitude>-1.2166667</latitude>
    <longitude>-78.6166667</longitude>
  </city>
  <city name="Auquichico">
    <latitude>-0.2166667</latitude>
    <longitude>-78.4333333</longitude>
  </city>
  <city name="Auquigrande">
    <latitude>-0.2166667</latitude>
    <longitude>-78.45</longitude>
  </city>
  <city name="Aurora">
    <latitude>-1.6166667</latitude>
    <longitude>-79.9833333</longitude>
  </city>
  <city name="Avañín Chico">
    <latitude>-3.1833333</latitude>
    <longitude>-79.2</longitude>
  </city>
  <city name="Avanzada">
    <latitude>-3.55</latitude>
    <longitude>-79.9833333</longitude>
  </city>
  <city name="Avelina">
    <latitude>-0.8</latitude>
    <longitude>-78.6333333</longitude>
  </city>
  <city name="Ávila">
    <latitude>-0.75</latitude>
    <longitude>-80.3666667</longitude>
  </city>
  <city name="Ayabamba">
    <latitude>-3.6</latitude>
    <longitude>-79.6666667</longitude>
  </city>
  <city name="Ayacucho">
    <latitude>-1.15</latitude>
    <longitude>-80.2833333</longitude>
  </city>
  <city name="Ayahuaycu">
    <latitude>-2.55</latitude>
    <longitude>-78.95</longitude>
  </city>
  <city name="Ayalán">
    <latitude>-2.6166667</latitude>
    <longitude>-80.2833333</longitude>
  </city>
  <city name="Ayambe">
    <latitude>-1.6666667</latitude>
    <longitude>-80.8166667</longitude>
  </city>
  <city name="Ayampe">
    <latitude>-1.6666667</latitude>
    <longitude>-80.8166667</longitude>
  </city>
  <city name="Ayamu">
    <latitude>-1.65</latitude>
    <longitude>-76.0666667</longitude>
  </city>
  <city name="Ayancay">
    <latitude>-2.8</latitude>
    <longitude>-78.8666667</longitude>
  </city>
  <city name="Ayangue">
    <latitude>-1.9833333</latitude>
    <longitude>-80.7333333</longitude>
  </city>
  <city name="Ayanqüe">
    <latitude>-1.9833333</latitude>
    <longitude>-80.7333333</longitude>
  </city>
  <city name="Ayantar">
    <latitude>-3.4791667</latitude>
    <longitude>-78.4855556</longitude>
  </city>
  <city name="Ayapamba">
    <latitude>-2.95</latitude>
    <longitude>-79.0166667</longitude>
  </city>
  <city name="Ayasa">
    <latitude>-0.75</latitude>
    <longitude>-79.4666667</longitude>
  </city>
  <city name="Ayaurcu">
    <latitude>-0.4333333</latitude>
    <longitude>-78.55</longitude>
  </city>
  <city name="Aycallate">
    <latitude>-1.1333333</latitude>
    <longitude>-78.55</longitude>
  </city>
  <city name="Ayora">
    <latitude>0.0666667</latitude>
    <longitude>-78.1333333</longitude>
  </city>
  <city name="Ayurcu">
    <latitude>-0.4333333</latitude>
    <longitude>-78.5666667</longitude>
  </city>
  <city name="Ayurcu de Peña">
    <latitude>-0.4333333</latitude>
    <longitude>-78.55</longitude>
  </city>
  <city name="Ayuy">
    <latitude>-2.0833333</latitude>
    <longitude>-77.6</longitude>
  </city>
  <city name="Azamaná">
    <latitude>-2.15</latitude>
    <longitude>-78.55</longitude>
  </city>
  <city name="Azaya">
    <latitude>0.3666667</latitude>
    <longitude>-78.1166667</longitude>
  </city>
  <city name="Azogues">
    <latitude>-2.7333333</latitude>
    <longitude>-78.8333333</longitude>
  </city>
  <city name="Azoguez">
    <latitude>-2.7333333</latitude>
    <longitude>-78.8333333</longitude>
  </city>
  <city name="Azúcar">
    <latitude>-2.25</latitude>
    <longitude>-80.5833333</longitude>
  </city>
  <city name="Azucena">
    <latitude>-1.85</latitude>
    <longitude>-79.8166667</longitude>
  </city>
  <city name="Baba">
    <latitude>-1.7833333</latitude>
    <longitude>-79.6666667</longitude>
  </city>
  <city name="Babahoya">
    <latitude>-1.8166667</latitude>
    <longitude>-79.5166667</longitude>
  </city>
  <city name="Babahoyo">
    <latitude>-1.8166667</latitude>
    <longitude>-79.5166667</longitude>
  </city>
  <city name="Bachillero">
    <latitude>-0.7833333</latitude>
    <longitude>-80.2166667</longitude>
  </city>
  <city name="Bachirin">
    <latitude>-2.5333333</latitude>
    <longitude>-79.25</longitude>
  </city>
  <city name="Bacundo">
    <latitude>-2.5333333</latitude>
    <longitude>-77.3666667</longitude>
  </city>
  <city name="Badeal">
    <latitude>-4.3833333</latitude>
    <longitude>-79.9833333</longitude>
  </city>
  <city name="Baejón">
    <latitude>-3.4833333</latitude>
    <longitude>-79.1</longitude>
  </city>
  <city name="Baeza">
    <latitude>-0.45</latitude>
    <longitude>-77.8833333</longitude>
  </city>
  <city name="Bagatela">
    <latitude>-2.0166667</latitude>
    <longitude>-79.95</longitude>
  </city>
  <city name="Bagpancel">
    <latitude>-2.9666667</latitude>
    <longitude>-78.8333333</longitude>
  </city>
  <city name="Baguanche">
    <latitude>-2.9</latitude>
    <longitude>-78.9166667</longitude>
  </city>
  <city name="Bahía">
    <latitude>-0.6</latitude>
    <longitude>-80.4166667</longitude>
  </city>
  <city name="Bahia de Caráques">
    <latitude>-0.6</latitude>
    <longitude>-80.4166667</longitude>
  </city>
  <city name="Bahía de Caráquez">
    <latitude>-0.6</latitude>
    <longitude>-80.4166667</longitude>
  </city>
  <city name="Bahía de la Academia">
    <latitude>-0.75</latitude>
    <longitude>-90.3166667</longitude>
  </city>
  <city name="Bajada">
    <latitude>-2.35</latitude>
    <longitude>-80.25</longitude>
  </city>
  <city name="Bajada de Chanduy">
    <latitude>-2.3</latitude>
    <longitude>-80.2833333</longitude>
  </city>
  <city name="Bajada de Colonche">
    <latitude>-2.0166667</latitude>
    <longitude>-80.6</longitude>
  </city>
  <city name="Bajado">
    <latitude>-2.75</latitude>
    <longitude>-80.2</longitude>
  </city>
  <city name="Bajaña">
    <latitude>-3.65</latitude>
    <longitude>-80.0166667</longitude>
  </city>
  <city name="Bajén">
    <latitude>-2.3833333</latitude>
    <longitude>-80.0833333</longitude>
  </city>
  <city name="Bajito">
    <latitude>1.2997222</latitude>
    <longitude>-78.9661111</longitude>
  </city>
  <city name="Bajo Alto">
    <latitude>-3.1166667</latitude>
    <longitude>-79.9</longitude>
  </city>
  <city name="Bajo">
    <latitude>1.2833333</latitude>
    <longitude>-78.9666667</longitude>
  </city>
  <city name="Bajo de Afuera">
    <latitude>-1.1166667</latitude>
    <longitude>-80.65</longitude>
  </city>
  <city name="Bajo Grande">
    <latitude>-1.0833333</latitude>
    <longitude>-80.6833333</longitude>
  </city>
  <city name="Balao">
    <latitude>-2.7333333</latitude>
    <longitude>-79.75</longitude>
  </city>
  <city name="Balao Chico">
    <latitude>-2.7333333</latitude>
    <longitude>-79.75</longitude>
  </city>
  <city name="Balao Grande">
    <latitude>-2.9</latitude>
    <longitude>-79.8333333</longitude>
  </city>
  <city name="Balaura">
    <latitude>-1.85</latitude>
    <longitude>-76.4333333</longitude>
  </city>
  <city name="Balbina">
    <latitude>-0.35</latitude>
    <longitude>-78.4833333</longitude>
  </city>
  <city name="Balcashi">
    <latitude>-1.7</latitude>
    <longitude>-78.5666667</longitude>
  </city>
  <city name="Balceria">
    <latitude>-1.2333333</latitude>
    <longitude>-79.3</longitude>
  </city>
  <city name="Ballenita">
    <latitude>-2.2027778</latitude>
    <longitude>-80.8694444</longitude>
  </city>
  <city name="Balsa">
    <latitude>-1.3166667</latitude>
    <longitude>-80.0</longitude>
  </city>
  <city name="Balsalita">
    <latitude>-3.5833333</latitude>
    <longitude>-80.2</longitude>
  </city>
  <city name="Balsalito">
    <latitude>-3.5833333</latitude>
    <longitude>-80.2</longitude>
  </city>
  <city name="Balsapamba">
    <latitude>-3.2166667</latitude>
    <longitude>-79.2666667</longitude>
  </city>
  <city name="Balsa Real">
    <latitude>-4.2333333</latitude>
    <longitude>-80.2333333</longitude>
  </city>
  <city name="Balsas">
    <latitude>-3.7833333</latitude>
    <longitude>-79.8166667</longitude>
  </city>
  <city name="Balsayán">
    <latitude>-1.6</latitude>
    <longitude>-78.6833333</longitude>
  </city>
  <city name="Balsay">
    <latitude>-2.9</latitude>
    <longitude>-79.05</longitude>
  </city>
  <city name="Balsería">
    <latitude>-1.2333333</latitude>
    <longitude>-79.3</longitude>
  </city>
  <city name="Balsiadero">
    <latitude>-3.8666667</latitude>
    <longitude>-80.0166667</longitude>
  </city>
  <city name="Balsillar">
    <latitude>-2.9166667</latitude>
    <longitude>-79.8666667</longitude>
  </city>
  <city name="Balvaneda">
    <latitude>-1.7166667</latitude>
    <longitude>-78.7666667</longitude>
  </city>
  <city name="Balvina">
    <latitude>-0.3</latitude>
    <longitude>-78.55</longitude>
  </city>
  <city name="Balzapamba">
    <latitude>-1.7666667</latitude>
    <longitude>-79.1833333</longitude>
  </city>
  <city name="Balzar">
    <latitude>-1.3666667</latitude>
    <longitude>-79.9</longitude>
  </city>
  <city name="Balzas">
    <latitude>-3.7833333</latitude>
    <longitude>-79.8166667</longitude>
  </city>
  <city name="Bamba">
    <latitude>0.55</latitude>
    <longitude>-79.65</longitude>
  </city>
  <city name="Bambil Callao">
    <latitude>-1.9666667</latitude>
    <longitude>-80.6666667</longitude>
  </city>
  <city name="Bambil Deshecho">
    <latitude>-1.9833333</latitude>
    <longitude>-80.6666667</longitude>
  </city>
  <city name="Banderas">
    <latitude>-3.3863889</latitude>
    <longitude>-78.2372222</longitude>
  </city>
  <city name="Bando">
    <latitude>-3.95</latitude>
    <longitude>-79.6666667</longitude>
  </city>
  <city name="Banepo">
    <latitude>-1.5666667</latitude>
    <longitude>-79.6666667</longitude>
  </city>
  <city name="Banife">
    <latitude>-1.8666667</latitude>
    <longitude>-79.9833333</longitude>
  </city>
  <city name="Banipe">
    <latitude>-1.8666667</latitude>
    <longitude>-79.9833333</longitude>
  </city>
  <city name="Baños">
    <latitude>-2.9333333</latitude>
    <longitude>-79.5</longitude>
  </city>
  <city name="Baños de Yunga">
    <latitude>-2.9333333</latitude>
    <longitude>-79.5</longitude>
  </city>
  <city name="Baquería">
    <latitude>-2.0833333</latitude>
    <longitude>-78.5833333</longitude>
  </city>
  <city name="Baquerizo">
    <latitude>-2.5</latitude>
    <longitude>-78.9</longitude>
  </city>
  <city name="Baquerizo Moreno">
    <latitude>-0.9</latitude>
    <longitude>-89.6</longitude>
  </city>
  <city name="Barabon">
    <latitude>-2.9166667</latitude>
    <longitude>-79.0833333</longitude>
  </city>
  <city name="Baratillo">
    <latitude>0.3666667</latitude>
    <longitude>-78.7</longitude>
  </city>
  <city name="Barbascal">
    <latitude>-2.0166667</latitude>
    <longitude>-80.6166667</longitude>
  </city>
  <city name="Barbasco">
    <latitude>-1.7</latitude>
    <longitude>-79.9833333</longitude>
  </city>
  <city name="Barberis">
    <latitude>-1.1666667</latitude>
    <longitude>-78.5833333</longitude>
  </city>
  <city name="Barbones">
    <latitude>-3.1833333</latitude>
    <longitude>-79.9166667</longitude>
  </city>
  <city name="Barcelona">
    <latitude>-1.95</latitude>
    <longitude>-80.7</longitude>
  </city>
  <city name="Barquilla">
    <latitude>0.3047222</latitude>
    <longitude>-77.4630556</longitude>
  </city>
  <city name="Barraganetal">
    <latitude>-2.1833333</latitude>
    <longitude>-79.3</longitude>
  </city>
  <city name="Barrancas">
    <latitude>-0.8</latitude>
    <longitude>-78.5333333</longitude>
  </city>
  <city name="Barranco">
    <latitude>-2.0666667</latitude>
    <longitude>-79.8166667</longitude>
  </city>
  <city name="Barranco Colorado">
    <latitude>-3.4333333</latitude>
    <longitude>-79.9</longitude>
  </city>
  <city name="Barreiro">
    <latitude>-1.7833333</latitude>
    <longitude>-79.5166667</longitude>
  </city>
  <city name="Barrio Bellavista">
    <latitude>0.2341667</latitude>
    <longitude>-76.8444444</longitude>
  </city>
  <city name="Barrio de Arriba">
    <latitude>-2.7666667</latitude>
    <longitude>-78.9166667</longitude>
  </city>
  <city name="Barrio Nueve de Octubre">
    <latitude>0.2347222</latitude>
    <longitude>-76.8430556</longitude>
  </city>
  <city name="Barro">
    <latitude>-0.9833333</latitude>
    <longitude>-79.4666667</longitude>
  </city>
  <city name="Barro Colorado">
    <latitude>0.9666667</latitude>
    <longitude>-78.8833333</longitude>
  </city>
  <city name="Barrotieta">
    <latitude>-0.3</latitude>
    <longitude>-78.3666667</longitude>
  </city>
  <city name="Bartasqui">
    <latitude>-3.5</latitude>
    <longitude>-79.1666667</longitude>
  </city>
  <city name="Bartolomé">
    <latitude>-1.1333333</latitude>
    <longitude>-78.6</longitude>
  </city>
  <city name="Bastidas">
    <latitude>-0.2333333</latitude>
    <longitude>-78.7666667</longitude>
  </city>
  <city name="Bastilla">
    <latitude>-1.7833333</latitude>
    <longitude>-79.8166667</longitude>
  </city>
  <city name="Batan">
    <latitude>-1.1666667</latitude>
    <longitude>-79.9166667</longitude>
  </city>
  <city name="Batán de Arriba">
    <latitude>-2.1</latitude>
    <longitude>-79.9</longitude>
  </city>
  <city name="Batán Grande">
    <latitude>-0.1833333</latitude>
    <longitude>-78.4833333</longitude>
  </city>
  <city name="Bayanal">
    <latitude>-3.4833333</latitude>
    <longitude>-79.0666667</longitude>
  </city>
  <city name="Bayán">
    <latitude>-3.3666667</latitude>
    <longitude>-79.0833333</longitude>
  </city>
  <city name="Bayas">
    <latitude>-2.6833333</latitude>
    <longitude>-78.8</longitude>
  </city>
  <city name="Bayo Cruz">
    <latitude>-2.4666667</latitude>
    <longitude>-78.9833333</longitude>
  </city>
  <city name="Beatriz">
    <latitude>-1.7833333</latitude>
    <longitude>-79.8333333</longitude>
  </city>
  <city name="Bebo">
    <latitude>-1.7166667</latitude>
    <longitude>-79.8166667</longitude>
  </city>
  <city name="Beche">
    <latitude>0.1833333</latitude>
    <longitude>-79.9166667</longitude>
  </city>
  <city name="Bejucal">
    <latitude>-3.6</latitude>
    <longitude>-80.15</longitude>
  </city>
  <city name="Beldaca">
    <latitude>-1.9666667</latitude>
    <longitude>-79.9</longitude>
  </city>
  <city name="Beldaco">
    <latitude>-1.9666667</latitude>
    <longitude>-79.5166667</longitude>
  </city>
  <city name="Belén">
    <latitude>-2.15</latitude>
    <longitude>-80.15</longitude>
  </city>
  <city name="Bélgica">
    <latitude>-1.85</latitude>
    <longitude>-79.8333333</longitude>
  </city>
  <city name="Belisario Quevedo">
    <latitude>-0.9666667</latitude>
    <longitude>-78.5666667</longitude>
  </city>
  <city name="Bella Aurora">
    <latitude>-1.85</latitude>
    <longitude>-79.8</longitude>
  </city>
  <city name="Bella">
    <latitude>-1.6166667</latitude>
    <longitude>-79.9833333</longitude>
  </city>
  <city name="Bella Esperanza">
    <latitude>-1.85</latitude>
    <longitude>-79.95</longitude>
  </city>
  <city name="Bella Juanita">
    <latitude>-3.3166667</latitude>
    <longitude>-79.8833333</longitude>
  </city>
  <city name="Bella María">
    <latitude>-3.5166667</latitude>
    <longitude>-79.9166667</longitude>
  </city>
  <city name="Bella Unión">
    <latitude>-1.8833333</latitude>
    <longitude>-79.7333333</longitude>
  </city>
  <city name="Bellavista">
    <latitude>-0.6833333</latitude>
    <longitude>-90.3</longitude>
  </city>
  <city name="Bella Vista">
    <latitude>-1.05</latitude>
    <longitude>-78.55</longitude>
  </city>
  <city name="Bellavista Hacienda">
    <latitude>-4.5666667</latitude>
    <longitude>-79.4666667</longitude>
  </city>
  <city name="Bello Horinzonte">
    <latitude>-0.9</latitude>
    <longitude>-75.4333333</longitude>
  </city>
  <city name="Bello Horizonte">
    <latitude>-0.9</latitude>
    <longitude>-75.4333333</longitude>
  </city>
  <city name="Bello Orizonte">
    <latitude>-0.9</latitude>
    <longitude>-75.4333333</longitude>
  </city>
  <city name="Benigno Vela">
    <latitude>-1.2833333</latitude>
    <longitude>-78.6833333</longitude>
  </city>
  <city name="Benita">
    <latitude>-2.25</latitude>
    <longitude>-79.7333333</longitude>
  </city>
  <city name="Benites">
    <latitude>-1.3333333</latitude>
    <longitude>-78.5833333</longitude>
  </city>
  <city name="Benítez">
    <latitude>-1.3333333</latitude>
    <longitude>-78.5833333</longitude>
  </city>
  <city name="Berengena">
    <latitude>-1.8833333</latitude>
    <longitude>-79.7333333</longitude>
  </city>
  <city name="Berlín">
    <latitude>-2.1333333</latitude>
    <longitude>-79.6</longitude>
  </city>
  <city name="Bermeja">
    <latitude>0.2830556</latitude>
    <longitude>-77.0794444</longitude>
  </city>
  <city name="Bermejo">
    <latitude>-1.7666667</latitude>
    <longitude>-80.0333333</longitude>
  </city>
  <city name="Bermejos">
    <latitude>-3.3</latitude>
    <longitude>-78.7</longitude>
  </city>
  <city name="Bestión">
    <latitude>-3.1666667</latitude>
    <longitude>-79.2166667</longitude>
  </city>
  <city name="Bibilcay">
    <latitude>-2.75</latitude>
    <longitude>-78.8</longitude>
  </city>
  <city name="Biblián">
    <latitude>-2.7</latitude>
    <longitude>-78.8666667</longitude>
  </city>
  <city name="Biffarini">
    <latitude>-0.8833333</latitude>
    <longitude>-75.2333333</longitude>
  </city>
  <city name="Bijagual">
    <latitude>-1.6</latitude>
    <longitude>-79.3666667</longitude>
  </city>
  <city name="Billingota">
    <latitude>-2.3666667</latitude>
    <longitude>-80.4666667</longitude>
  </city>
  <city name="Bilován">
    <latitude>-1.8</latitude>
    <longitude>-79.1</longitude>
  </city>
  <city name="Birón">
    <latitude>-3.5166667</latitude>
    <longitude>-79.8166667</longitude>
  </city>
  <city name="Blanco Macas">
    <latitude>-3.0333333</latitude>
    <longitude>-78.9333333</longitude>
  </city>
  <city name="Boca Chica">
    <latitude>-1.3</latitude>
    <longitude>-79.8833333</longitude>
  </city>
  <city name="Boca Dashiño">
    <latitude>-0.0666667</latitude>
    <longitude>-77.2833333</longitude>
  </city>
  <city name="Boca Dasmiño">
    <latitude>-0.0666667</latitude>
    <longitude>-77.2833333</longitude>
  </city>
  <city name="Boca d' caña">
    <latitude>-2.0</latitude>
    <longitude>-79.7666667</longitude>
  </city>
  <city name="Boca de Briceño">
    <latitude>-0.5166667</latitude>
    <longitude>-80.4333333</longitude>
  </city>
  <city name="Boca de Caña">
    <latitude>-2.0</latitude>
    <longitude>-79.7666667</longitude>
  </city>
  <city name="Boca de Chila">
    <latitude>-0.1</latitude>
    <longitude>-79.6</longitude>
  </city>
  <city name="Boca de Guanábano">
    <latitude>-1.7333333</latitude>
    <longitude>-80.4333333</longitude>
  </city>
  <city name="Boca del Bua">
    <latitude>-0.0166667</latitude>
    <longitude>-79.5833333</longitude>
  </city>
  <city name="Boca de María">
    <latitude>1.0672222</latitude>
    <longitude>-78.9461111</longitude>
  </city>
  <city name="Boca de Palmito">
    <latitude>-0.0666667</latitude>
    <longitude>-79.7333333</longitude>
  </city>
  <city name="Boca de Puca">
    <latitude>-1.4166667</latitude>
    <longitude>-79.95</longitude>
  </city>
  <city name="Bocana">
    <latitude>-3.1166667</latitude>
    <longitude>-79.9166667</longitude>
  </city>
  <city name="Bocana del Búa">
    <latitude>-0.0166667</latitude>
    <longitude>-79.5833333</longitude>
  </city>
  <city name="Boca Solano">
    <latitude>-1.0166667</latitude>
    <longitude>-79.8166667</longitude>
  </city>
  <city name="Boca Suno">
    <latitude>-0.7166667</latitude>
    <longitude>-77.1333333</longitude>
  </city>
  <city name="Boca Tiputini">
    <latitude>-0.8</latitude>
    <longitude>-75.55</longitude>
  </city>
  <city name="Boca Yanayacu">
    <latitude>-0.8833333</latitude>
    <longitude>-75.2166667</longitude>
  </city>
  <city name="Bodeguita">
    <latitude>-2.0666667</latitude>
    <longitude>-79.7333333</longitude>
  </city>
  <city name="Bohío">
    <latitude>-3.05</latitude>
    <longitude>-79.05</longitude>
  </city>
  <city name="Bola de Oro">
    <latitude>-2.7</latitude>
    <longitude>-79.6833333</longitude>
  </city>
  <city name="Bolaloma">
    <latitude>-3.8833333</latitude>
    <longitude>-79.2666667</longitude>
  </city>
  <city name="Bolaspamba">
    <latitude>-4.1833333</latitude>
    <longitude>-80.4333333</longitude>
  </city>
  <city name="Boliche">
    <latitude>-0.7166667</latitude>
    <longitude>-78.6</longitude>
  </city>
  <city name="Bolichi">
    <latitude>-2.3333333</latitude>
    <longitude>-79.6333333</longitude>
  </city>
  <city name="Bolívar">
    <latitude>-2.6166667</latitude>
    <longitude>-79.35</longitude>
  </city>
  <city name="Bolivar">
    <latitude>-0.35</latitude>
    <longitude>-78.4333333</longitude>
  </city>
  <city name="Bolivia">
    <latitude>-0.35</latitude>
    <longitude>-78.4333333</longitude>
  </city>
  <city name="Boloña">
    <latitude>-0.4</latitude>
    <longitude>-78.7833333</longitude>
  </city>
  <city name="Bomba">
    <latitude>-2.4</latitude>
    <longitude>-80.7833333</longitude>
  </city>
  <city name="Bomboiza">
    <latitude>-3.4333333</latitude>
    <longitude>-78.5166667</longitude>
  </city>
  <city name="Bombonaqui">
    <latitude>-1.5</latitude>
    <longitude>-76.5833333</longitude>
  </city>
  <city name="Bombón">
    <latitude>-1.4833333</latitude>
    <longitude>-79.7833333</longitude>
  </city>
  <city name="Bonce">
    <latitude>-1.2333333</latitude>
    <longitude>-80.35</longitude>
  </city>
  <city name="Boquerón">
    <latitude>-1.8666667</latitude>
    <longitude>-79.95</longitude>
  </city>
  <city name="Borbón">
    <latitude>1.0883333</latitude>
    <longitude>-78.9888889</longitude>
  </city>
  <city name="Borbones">
    <latitude>-3.1833333</latitude>
    <longitude>-79.9166667</longitude>
  </city>
  <city name="Borja">
    <latitude>-0.4166667</latitude>
    <longitude>-77.8333333</longitude>
  </city>
  <city name="Borna">
    <latitude>-2.95</latitude>
    <longitude>-78.8666667</longitude>
  </city>
  <city name="Borneo">
    <latitude>-0.25</latitude>
    <longitude>-79.1333333</longitude>
  </city>
  <city name="Borrero">
    <latitude>-2.7666667</latitude>
    <longitude>-78.8166667</longitude>
  </city>
  <city name="Botadero">
    <latitude>-2.6833333</latitude>
    <longitude>-80.3666667</longitude>
  </city>
  <city name="Botija Paquina">
    <latitude>-2.45</latitude>
    <longitude>-79.0166667</longitude>
  </city>
  <city name="Boyacá">
    <latitude>-0.5666667</latitude>
    <longitude>-80.2</longitude>
  </city>
  <city name="Boyeria">
    <latitude>-0.5</latitude>
    <longitude>-78.6</longitude>
  </city>
  <city name="Bramadero">
    <latitude>-1.9333333</latitude>
    <longitude>-79.9333333</longitude>
  </city>
  <city name="Bramaderos">
    <latitude>-4.1</latitude>
    <longitude>-79.8166667</longitude>
  </city>
  <city name="Bravos">
    <latitude>-0.6</latitude>
    <longitude>-80.1833333</longitude>
  </city>
  <city name="Briceño">
    <latitude>-0.5166667</latitude>
    <longitude>-80.4333333</longitude>
  </city>
  <city name="Briones">
    <latitude>-4.4666667</latitude>
    <longitude>-80.3666667</longitude>
  </city>
  <city name="Briseño">
    <latitude>-0.5166667</latitude>
    <longitude>-80.4333333</longitude>
  </city>
  <city name="Bucay">
    <latitude>-2.1666667</latitude>
    <longitude>-79.1</longitude>
  </city>
  <city name="Bucay Chico">
    <latitude>-2.2333333</latitude>
    <longitude>-79.1166667</longitude>
  </city>
  <city name="Buena Esperanza">
    <latitude>-1.8666667</latitude>
    <longitude>-79.8</longitude>
  </city>
  <city name="Buena Fe">
    <latitude>-1.8</latitude>
    <longitude>-79.8</longitude>
  </city>
  <city name="Buena Fé">
    <latitude>-3.6741667</latitude>
    <longitude>-78.6097222</longitude>
  </city>
  <city name="Buena Muerte">
    <latitude>-2.7166667</latitude>
    <longitude>-78.9166667</longitude>
  </city>
  <city name="Buena Suerte">
    <latitude>-1.7666667</latitude>
    <longitude>-79.8166667</longitude>
  </city>
  <city name="Buenaventura">
    <latitude>-0.7833333</latitude>
    <longitude>-78.7166667</longitude>
  </city>
  <city name="Buenavista">
    <latitude>-3.3666667</latitude>
    <longitude>-79.85</longitude>
  </city>
  <city name="Buena Vista">
    <latitude>0.1058333</latitude>
    <longitude>-76.9291667</longitude>
  </city>
  <city name="Buenos Aires">
    <latitude>-2.55</latitude>
    <longitude>-79.4666667</longitude>
  </city>
  <city name="Bueste">
    <latitude>-2.65</latitude>
    <longitude>-78.9166667</longitude>
  </city>
  <city name="Bugdel">
    <latitude>-2.7666667</latitude>
    <longitude>-78.7</longitude>
  </city>
  <city name="Buichum">
    <latitude>-2.8833333</latitude>
    <longitude>-78.7833333</longitude>
  </city>
  <city name="Buijo">
    <latitude>-2.1</latitude>
    <longitude>-79.8166667</longitude>
  </city>
  <city name="Bulán">
    <latitude>-2.7333333</latitude>
    <longitude>-78.75</longitude>
  </city>
  <city name="Bulcay">
    <latitude>-2.8833333</latitude>
    <longitude>-78.7833333</longitude>
  </city>
  <city name="Bunche">
    <latitude>0.65</latitude>
    <longitude>-80.0333333</longitude>
  </city>
  <city name="Bunques">
    <latitude>-3.2833333</latitude>
    <longitude>-79.6</longitude>
  </city>
  <city name="Burche">
    <latitude>0.65</latitude>
    <longitude>-80.0333333</longitude>
  </city>
  <city name="Burgay">
    <latitude>-2.6666667</latitude>
    <longitude>-78.9333333</longitude>
  </city>
  <city name="Burgayes">
    <latitude>-2.6666667</latitude>
    <longitude>-78.9333333</longitude>
  </city>
  <city name="Buri">
    <latitude>-3.0833333</latitude>
    <longitude>-79.5166667</longitude>
  </city>
  <city name="Burin">
    <latitude>-2.85</latitude>
    <longitude>-78.7333333</longitude>
  </city>
  <city name="Burras">
    <latitude>0.6166667</latitude>
    <longitude>-78.1333333</longitude>
  </city>
  <city name="Burrotieta">
    <latitude>-0.3</latitude>
    <longitude>-78.3666667</longitude>
  </city>
  <city name="Businga">
    <latitude>0.8666667</latitude>
    <longitude>-79.4666667</longitude>
  </city>
  <city name="Bustamante">
    <latitude>-4.1666667</latitude>
    <longitude>-80.0166667</longitude>
  </city>
  <city name="Butjo">
    <latitude>-2.1</latitude>
    <longitude>-79.8166667</longitude>
  </city>
  <city name="Caballo Potrero">
    <latitude>-3.1833333</latitude>
    <longitude>-79.5</longitude>
  </city>
  <city name="Cabano">
    <latitude>0.1291667</latitude>
    <longitude>-77.4138889</longitude>
  </city>
  <city name="Cabeza de Toro">
    <latitude>-4.2833333</latitude>
    <longitude>-80.3333333</longitude>
  </city>
  <city name="Cabo de Hornos">
    <latitude>-3.5833333</latitude>
    <longitude>-80.0666667</longitude>
  </city>
  <city name="Cabo Lampa">
    <latitude>-3.4666667</latitude>
    <longitude>-80.0666667</longitude>
  </city>
  <city name="Cabo Minacho">
    <latitude>-0.1</latitude>
    <longitude>-75.5</longitude>
  </city>
  <city name="Cabuncata">
    <latitude>-3.2166667</latitude>
    <longitude>-79.15</longitude>
  </city>
  <city name="Cabuya">
    <latitude>1.0333333</latitude>
    <longitude>-79.475</longitude>
  </city>
  <city name="Cabuyal">
    <latitude>0.5833333</latitude>
    <longitude>-78.0666667</longitude>
  </city>
  <city name="Cabuyalcito">
    <latitude>-0.05</latitude>
    <longitude>-80.1166667</longitude>
  </city>
  <city name="Cacagual">
    <latitude>1.1675</latitude>
    <longitude>-78.9936111</longitude>
  </city>
  <city name="Cacaoal">
    <latitude>-1.0166667</latitude>
    <longitude>-79.2</longitude>
  </city>
  <city name="Cacao Punta">
    <latitude>-0.65</latitude>
    <longitude>-77.1333333</longitude>
  </city>
  <city name="Cacao Punto">
    <latitude>-0.65</latitude>
    <longitude>-77.1333333</longitude>
  </city>
  <city name="Cacarrumi">
    <latitude>-3.0833333</latitude>
    <longitude>-79.0166667</longitude>
  </city>
  <city name="Cáceres">
    <latitude>-2.2</latitude>
    <longitude>-80.2166667</longitude>
  </city>
  <city name="Cacha">
    <latitude>-1.7</latitude>
    <longitude>-78.6666667</longitude>
  </city>
  <city name="Cachahuaico">
    <latitude>-2.65</latitude>
    <longitude>-78.7833333</longitude>
  </city>
  <city name="Cachanlo de Sidcay">
    <latitude>-2.8166667</latitude>
    <longitude>-78.9333333</longitude>
  </city>
  <city name="Cachaulo de Machangara">
    <latitude>-2.8666667</latitude>
    <longitude>-78.9666667</longitude>
  </city>
  <city name="Cachi">
    <latitude>-3.2166667</latitude>
    <longitude>-79.1666667</longitude>
  </city>
  <city name="Cachicorral">
    <latitude>-2.6333333</latitude>
    <longitude>-78.7</longitude>
  </city>
  <city name="Cachiguaico">
    <latitude>-3.05</latitude>
    <longitude>-78.75</longitude>
  </city>
  <city name="Cachillacta">
    <latitude>0.0666667</latitude>
    <longitude>-78.6333333</longitude>
  </city>
  <city name="Cachiloma">
    <latitude>-2.7333333</latitude>
    <longitude>-78.8</longitude>
  </city>
  <city name="Cachimalero">
    <latitude>1.2625</latitude>
    <longitude>-78.9980556</longitude>
  </city>
  <city name="Cachipamba">
    <latitude>-2.95</latitude>
    <longitude>-79.0166667</longitude>
  </city>
  <city name="Cachipambi">
    <latitude>-2.5833333</latitude>
    <longitude>-78.9333333</longitude>
  </city>
  <city name="Cachipirca">
    <latitude>-3.85</latitude>
    <longitude>-79.2833333</longitude>
  </city>
  <city name="Cachitama">
    <latitude>-2.2666667</latitude>
    <longitude>-76.7833333</longitude>
  </city>
  <city name="Cachitambo">
    <latitude>-2.2666667</latitude>
    <longitude>-76.7833333</longitude>
  </city>
  <city name="Cachitoma">
    <latitude>-2.2666667</latitude>
    <longitude>-76.7833333</longitude>
  </city>
  <city name="Cacho de Hospital">
    <latitude>0.2833333</latitude>
    <longitude>-78.1</longitude>
  </city>
  <city name="Cachuguí Velasco">
    <latitude>-0.05</latitude>
    <longitude>-78.5166667</longitude>
  </city>
  <city name="Cachuquí Alarcón">
    <latitude>-0.0666667</latitude>
    <longitude>-78.5166667</longitude>
  </city>
  <city name="Cachuquí">
    <latitude>-0.0833333</latitude>
    <longitude>-78.5166667</longitude>
  </city>
  <city name="Cachuquí Moncayo">
    <latitude>-0.0833333</latitude>
    <longitude>-78.5166667</longitude>
  </city>
  <city name="Cadeal">
    <latitude>-1.5833333</latitude>
    <longitude>-80.1333333</longitude>
  </city>
  <city name="Cadeate">
    <latitude>-1.8833333</latitude>
    <longitude>-80.7666667</longitude>
  </city>
  <city name="Cadenillas">
    <latitude>-1.3833333</latitude>
    <longitude>-78.2666667</longitude>
  </city>
  <city name="Cadiate">
    <latitude>-1.8833333</latitude>
    <longitude>-80.7666667</longitude>
  </city>
  <city name="Caferino Español">
    <latitude>-1.2666667</latitude>
    <longitude>-79.9</longitude>
  </city>
  <city name="Caguanshum Chico">
    <latitude>-2.8666667</latitude>
    <longitude>-78.8</longitude>
  </city>
  <city name="Caguashum Grande">
    <latitude>-2.8833333</latitude>
    <longitude>-78.8</longitude>
  </city>
  <city name="Cahuasquí">
    <latitude>0.5166667</latitude>
    <longitude>-78.2333333</longitude>
  </city>
  <city name="Caicedo">
    <latitude>-0.1666667</latitude>
    <longitude>-78.5</longitude>
  </city>
  <city name="Caiguas">
    <latitude>-2.7666667</latitude>
    <longitude>-78.65</longitude>
  </city>
  <city name="Caimito">
    <latitude>0.7166667</latitude>
    <longitude>-80.0833333</longitude>
  </city>
  <city name="Caipi">
    <latitude>-3.7108333</latitude>
    <longitude>-78.5625</longitude>
  </city>
  <city name="Cajabamba">
    <latitude>-1.7</latitude>
    <longitude>-78.75</longitude>
  </city>
  <city name="Cajas">
    <latitude>-2.8166667</latitude>
    <longitude>-79.2666667</longitude>
  </city>
  <city name="Cajón Tambo">
    <latitude>-2.5333333</latitude>
    <longitude>-78.85</longitude>
  </city>
  <city name="Cajontambo">
    <latitude>-2.5</latitude>
    <longitude>-78.8333333</longitude>
  </city>
  <city name="Calabí">
    <latitude>-1.1833333</latitude>
    <longitude>-79.3666667</longitude>
  </city>
  <city name="Calabria">
    <latitude>-1.7833333</latitude>
    <longitude>-79.5666667</longitude>
  </city>
  <city name="Calacalí">
    <latitude>0.0</latitude>
    <longitude>-78.5166667</longitude>
  </city>
  <city name="Calceta">
    <latitude>-0.85</latitude>
    <longitude>-80.1666667</longitude>
  </city>
  <city name="Calcicante">
    <latitude>-2.1833333</latitude>
    <longitude>-80.6</longitude>
  </city>
  <city name="Caldera">
    <latitude>-2.8166667</latitude>
    <longitude>-78.95</longitude>
  </city>
  <city name="Calderón">
    <latitude>1.1786111</latitude>
    <longitude>-78.7652778</longitude>
  </city>
  <city name="Caledonias">
    <latitude>-3.2166667</latitude>
    <longitude>-79.2166667</longitude>
  </city>
  <city name="Calentura">
    <latitude>-2.1166667</latitude>
    <longitude>-79.8333333</longitude>
  </city>
  <city name="Calera">
    <latitude>-0.0333333</latitude>
    <longitude>-78.5666667</longitude>
  </city>
  <city name="Calhua">
    <latitude>-1.1166667</latitude>
    <longitude>-78.6333333</longitude>
  </city>
  <city name="Calhuache">
    <latitude>-1.7333333</latitude>
    <longitude>-78.7166667</longitude>
  </city>
  <city name="Calicante">
    <latitude>-2.1833333</latitude>
    <longitude>-80.6</longitude>
  </city>
  <city name="Calichana">
    <latitude>-3.4</latitude>
    <longitude>-79.8166667</longitude>
  </city>
  <city name="Caliguiña">
    <latitude>-3.2166667</latitude>
    <longitude>-79.55</longitude>
  </city>
  <city name="Callancay">
    <latitude>-3.0666667</latitude>
    <longitude>-78.7666667</longitude>
  </city>
  <city name="Calle">
    <latitude>-2.3333333</latitude>
    <longitude>-79.4</longitude>
  </city>
  <city name="Callejón">
    <latitude>-3.05</latitude>
    <longitude>-79.0833333</longitude>
  </city>
  <city name="Callo">
    <latitude>-1.35</latitude>
    <longitude>-80.7333333</longitude>
  </city>
  <city name="Callo Mancheno">
    <latitude>-0.75</latitude>
    <longitude>-78.6</longitude>
  </city>
  <city name="Calpi">
    <latitude>-1.65</latitude>
    <longitude>-78.7333333</longitude>
  </city>
  <city name="Calug">
    <latitude>-2.9833333</latitude>
    <longitude>-78.7333333</longitude>
  </city>
  <city name="Caluguro">
    <latitude>-3.5166667</latitude>
    <longitude>-79.8833333</longitude>
  </city>
  <city name="Calvario">
    <latitude>-2.7666667</latitude>
    <longitude>-78.75</longitude>
  </city>
  <city name="Calvas">
    <latitude>-4.3333333</latitude>
    <longitude>-79.55</longitude>
  </city>
  <city name="Calzado">
    <latitude>-0.25</latitude>
    <longitude>-78.5166667</longitude>
  </city>
  <city name="Cámara">
    <latitude>-3.3333333</latitude>
    <longitude>-79.15</longitude>
  </city>
  <city name="Camarona">
    <latitude>-2.1333333</latitude>
    <longitude>-80.3666667</longitude>
  </city>
  <city name="Camarones">
    <latitude>0.9833333</latitude>
    <longitude>-79.5666667</longitude>
  </city>
  <city name="Cambana">
    <latitude>-3.6588889</latitude>
    <longitude>-78.9083333</longitude>
  </city>
  <city name="Cambio del Guabo">
    <latitude>-3.3</latitude>
    <longitude>-79.9</longitude>
  </city>
  <city name="Camela">
    <latitude>-1.9166667</latitude>
    <longitude>-79.6833333</longitude>
  </city>
  <city name="Camilo Ponce Enríquez">
    <latitude>-3.05</latitude>
    <longitude>-79.7333333</longitude>
  </city>
  <city name="Campamento Agua Colorada">
    <latitude>-4.5772222</latitude>
    <longitude>-78.6633333</longitude>
  </city>
  <city name="Campamento Aragundi">
    <latitude>-2.7833333</latitude>
    <longitude>-79.7</longitude>
  </city>
  <city name="Campamento El Abandono">
    <latitude>-4.6105556</latitude>
    <longitude>-78.6997222</longitude>
  </city>
  <city name="Campamento El Diluvio">
    <latitude>-4.6194444</latitude>
    <longitude>-78.7247222</longitude>
  </city>
  <city name="Campamento El Mirador">
    <latitude>-4.6391667</latitude>
    <longitude>-78.77</longitude>
  </city>
  <city name="Campamento La Hambruna">
    <latitude>-4.5419444</latitude>
    <longitude>-78.6622222</longitude>
  </city>
  <city name="Campamento La Pampa">
    <latitude>-4.5561111</latitude>
    <longitude>-78.6602778</longitude>
  </city>
  <city name="Campamento Quiñones">
    <latitude>-2.7666667</latitude>
    <longitude>-79.7333333</longitude>
  </city>
  <city name="Campamento Ruiseñor">
    <latitude>-4.5233333</latitude>
    <longitude>-78.6577778</longitude>
  </city>
  <city name="Campanaguaico">
    <latitude>-2.9</latitude>
    <longitude>-79.1</longitude>
  </city>
  <city name="Campanaka Entza">
    <latitude>-3.4975</latitude>
    <longitude>-78.4913889</longitude>
  </city>
  <city name="Campanita">
    <latitude>1.3886111</latitude>
    <longitude>-78.7777778</longitude>
  </city>
  <city name="Campo Alegre">
    <latitude>0.9</latitude>
    <longitude>-79.7833333</longitude>
  </city>
  <city name="Camposano">
    <latitude>-1.5833333</latitude>
    <longitude>-80.4</longitude>
  </city>
  <city name="Campozano">
    <latitude>-1.5833333</latitude>
    <longitude>-80.4</longitude>
  </city>
  <city name="Canaán">
    <latitude>-1.9</latitude>
    <longitude>-80.0</longitude>
  </city>
  <city name="Caña">
    <latitude>-1.1833333</latitude>
    <longitude>-80.8</longitude>
  </city>
  <city name="Cañalaurco">
    <latitude>-3.4</latitude>
    <longitude>-79.05</longitude>
  </city>
  <city name="Canales">
    <latitude>-1.3333333</latitude>
    <longitude>-79.8166667</longitude>
  </city>
  <city name="Cananguchal">
    <latitude>0.2666667</latitude>
    <longitude>-76.8166667</longitude>
  </city>
  <city name="Cananvalle">
    <latitude>0.35</latitude>
    <longitude>-78.1333333</longitude>
  </city>
  <city name="Cañar">
    <latitude>-2.55</latitude>
    <longitude>-78.9333333</longitude>
  </city>
  <city name="Canaria">
    <latitude>-1.3166667</latitude>
    <longitude>-79.85</longitude>
  </city>
  <city name="Cañaribamba">
    <latitude>-3.1666667</latitude>
    <longitude>-79.3</longitude>
  </city>
  <city name="Cañaro">
    <latitude>-2.9</latitude>
    <longitude>-79.1</longitude>
  </city>
  <city name="Cañas">
    <latitude>-3.8333333</latitude>
    <longitude>-80.0833333</longitude>
  </city>
  <city name="Cañaveral">
    <latitude>-1.3166667</latitude>
    <longitude>-79.9</longitude>
  </city>
  <city name="Cañaveral de Afuera">
    <latitude>-1.7333333</latitude>
    <longitude>-79.4833333</longitude>
  </city>
  <city name="Cancan">
    <latitude>-2.8833333</latitude>
    <longitude>-79.25</longitude>
  </city>
  <city name="Cancay">
    <latitude>-2.9</latitude>
    <longitude>-78.7333333</longitude>
  </city>
  <city name="Canchagua">
    <latitude>-0.8</latitude>
    <longitude>-78.6833333</longitude>
  </city>
  <city name="Canchimalero">
    <latitude>1.2625</latitude>
    <longitude>-78.9980556</longitude>
  </city>
  <city name="Candelaria">
    <latitude>-1.9</latitude>
    <longitude>-79.8666667</longitude>
  </city>
  <city name="Canelos">
    <latitude>-2.8333333</latitude>
    <longitude>-77.95</longitude>
  </city>
  <city name="Cangagua">
    <latitude>-0.0666667</latitude>
    <longitude>-78.1666667</longitude>
  </city>
  <city name="Cangahua">
    <latitude>-0.0666667</latitude>
    <longitude>-78.1666667</longitude>
  </city>
  <city name="Cangaimine">
    <latitude>-2.3166667</latitude>
    <longitude>-77.6666667</longitude>
  </city>
  <city name="Cangas">
    <latitude>-2.9147222</latitude>
    <longitude>-77.9225</longitude>
  </city>
  <city name="Cango">
    <latitude>-4.3333333</latitude>
    <longitude>-79.5666667</longitude>
  </city>
  <city name="Cangonamá">
    <latitude>-3.9666667</latitude>
    <longitude>-79.7</longitude>
  </city>
  <city name="Cangonamá Chico">
    <latitude>-4.3</latitude>
    <longitude>-79.9333333</longitude>
  </city>
  <city name="Cangrejo">
    <latitude>-2.1333333</latitude>
    <longitude>-80.7666667</longitude>
  </city>
  <city name="Canguraca">
    <latitude>-4.2166667</latitude>
    <longitude>-79.8666667</longitude>
  </city>
  <city name="Cañi">
    <latitude>-1.8</latitude>
    <longitude>-78.9833333</longitude>
  </city>
  <city name="Cañitas">
    <latitude>-2.0</latitude>
    <longitude>-80.5833333</longitude>
  </city>
  <city name="Canoa">
    <latitude>-2.8666667</latitude>
    <longitude>-79.3833333</longitude>
  </city>
  <city name="Cañonero">
    <latitude>-0.2333333</latitude>
    <longitude>-79.2166667</longitude>
  </city>
  <city name="Cantagallo">
    <latitude>-2.8</latitude>
    <longitude>-78.8333333</longitude>
  </city>
  <city name="Cantarama">
    <latitude>1.0833333</latitude>
    <longitude>-78.9861111</longitude>
  </city>
  <city name="Canta Rana">
    <latitude>1.0833333</latitude>
    <longitude>-78.9861111</longitude>
  </city>
  <city name="Cantzama">
    <latitude>-3.855</latitude>
    <longitude>-78.8847222</longitude>
  </city>
  <city name="Canuto">
    <latitude>-0.8</latitude>
    <longitude>-80.1166667</longitude>
  </city>
  <city name="Canzacoto">
    <latitude>-0.4333333</latitude>
    <longitude>-78.75</longitude>
  </city>
  <city name="Capadino Entza">
    <latitude>-2.1166667</latitude>
    <longitude>-77.8</longitude>
  </city>
  <city name="Capailoma">
    <latitude>0.1666667</latitude>
    <longitude>-78.0833333</longitude>
  </city>
  <city name="Capareac">
    <latitude>-3.0666667</latitude>
    <longitude>-78.7833333</longitude>
  </city>
  <city name="Capas">
    <latitude>-4.15</latitude>
    <longitude>-80.3166667</longitude>
  </city>
  <city name="Capelo">
    <latitude>-0.3166667</latitude>
    <longitude>-78.4666667</longitude>
  </city>
  <city name="Capihuara">
    <latitude>-0.4833333</latitude>
    <longitude>-77.2333333</longitude>
  </city>
  <city name="Capihuara Playa">
    <latitude>-0.4833333</latitude>
    <longitude>-77.2333333</longitude>
  </city>
  <city name="Capilla Mauta">
    <latitude>-3.4666667</latitude>
    <longitude>-79.1666667</longitude>
  </city>
  <city name="Capillapamba">
    <latitude>-2.9166667</latitude>
    <longitude>-78.7833333</longitude>
  </city>
  <city name="Capilla S. Bartolo">
    <latitude>-0.9833333</latitude>
    <longitude>-78.5833333</longitude>
  </city>
  <city name="Capiro">
    <latitude>-3.7666667</latitude>
    <longitude>-79.7166667</longitude>
  </city>
  <city name="Capitán Augosto Rivadeneira">
    <latitude>-0.6166667</latitude>
    <longitude>-75.8833333</longitude>
  </city>
  <city name="Capitán Rivadeneira">
    <latitude>-0.6166667</latitude>
    <longitude>-75.8833333</longitude>
  </city>
  <city name="Capizún">
    <latitude>-3.0611111</latitude>
    <longitude>-78.0491667</longitude>
  </city>
  <city name="Capizunga">
    <latitude>-3.0611111</latitude>
    <longitude>-78.0491667</longitude>
  </city>
  <city name="Caple">
    <latitude>0.5833333</latitude>
    <longitude>-79.55</longitude>
  </city>
  <city name="Capone">
    <latitude>-1.9833333</latitude>
    <longitude>-79.7833333</longitude>
  </city>
  <city name="Capricho">
    <latitude>-2.35</latitude>
    <longitude>-79.4</longitude>
  </city>
  <city name="Capsol">
    <latitude>-2.3</latitude>
    <longitude>-78.9166667</longitude>
  </city>
  <city name="Capulí">
    <latitude>-0.5666667</latitude>
    <longitude>-77.8166667</longitude>
  </city>
  <city name="Capulí Chico">
    <latitude>0.5666667</latitude>
    <longitude>-77.8333333</longitude>
  </city>
  <city name="Capulicrin">
    <latitude>-2.75</latitude>
    <longitude>-78.7666667</longitude>
  </city>
  <city name="Capur">
    <latitude>-3.8333333</latitude>
    <longitude>-79.2333333</longitude>
  </city>
  <city name="Capzhua">
    <latitude>-2.9</latitude>
    <longitude>-78.75</longitude>
  </city>
  <city name="Capzol">
    <latitude>-2.3</latitude>
    <longitude>-78.9166667</longitude>
  </city>
  <city name="Caracas">
    <latitude>-0.6</latitude>
    <longitude>-80.4166667</longitude>
  </city>
  <city name="Caracol">
    <latitude>-1.6666667</latitude>
    <longitude>-79.4333333</longitude>
  </city>
  <city name="Caranango">
    <latitude>-4.25</latitude>
    <longitude>-79.2666667</longitude>
  </city>
  <city name="Caranqui">
    <latitude>0.3166667</latitude>
    <longitude>-78.1333333</longitude>
  </city>
  <city name="Carapale">
    <latitude>-3.5333333</latitude>
    <longitude>-79.3333333</longitude>
  </city>
  <city name="Carazón">
    <latitude>-1.1333333</latitude>
    <longitude>-79.0666667</longitude>
  </city>
  <city name="Carbillo">
    <latitude>-3.5333333</latitude>
    <longitude>-80.2</longitude>
  </city>
  <city name="Carbonada">
    <latitude>-1.9166667</latitude>
    <longitude>-79.7</longitude>
  </city>
  <city name="Carbón">
    <latitude>-1.15</latitude>
    <longitude>-78.5166667</longitude>
  </city>
  <city name="Carcabón">
    <latitude>-3.6333333</latitude>
    <longitude>-80.2</longitude>
  </city>
  <city name="Carcelén">
    <latitude>-0.0166667</latitude>
    <longitude>-78.4333333</longitude>
  </city>
  <city name="Cargalchina">
    <latitude>-2.55</latitude>
    <longitude>-79.2333333</longitude>
  </city>
  <city name="Cargue">
    <latitude>-2.5833333</latitude>
    <longitude>-79.3166667</longitude>
  </city>
  <city name="Cariaco">
    <latitude>0.1166667</latitude>
    <longitude>-78.6666667</longitude>
  </city>
  <city name="Cariacu">
    <latitude>-2.8666667</latitude>
    <longitude>-78.9166667</longitude>
  </city>
  <city name="Cariamanga">
    <latitude>-4.3333333</latitude>
    <longitude>-79.55</longitude>
  </city>
  <city name="Carishao">
    <latitude>-2.8666667</latitude>
    <longitude>-78.95</longitude>
  </city>
  <city name="Carlos Bustamante">
    <latitude>-4.1666667</latitude>
    <longitude>-80.0166667</longitude>
  </city>
  <city name="Carlos J. Arosemena Tola">
    <latitude>-1.2</latitude>
    <longitude>-77.85</longitude>
  </city>
  <city name="Carlos Julio Arosemena Tola">
    <latitude>-1.2</latitude>
    <longitude>-77.85</longitude>
  </city>
  <city name="Carlos Ordóñez Lazo">
    <latitude>-2.8166667</latitude>
    <longitude>-78.7666667</longitude>
  </city>
  <city name="Carmela">
    <latitude>-2.6333333</latitude>
    <longitude>-78.9</longitude>
  </city>
  <city name="Carmelita">
    <latitude>-1.9333333</latitude>
    <longitude>-79.6666667</longitude>
  </city>
  <city name="Carmelo">
    <latitude>-2.7</latitude>
    <longitude>-79.9833333</longitude>
  </city>
  <city name="Carmen">
    <latitude>-2.1666667</latitude>
    <longitude>-79.6666667</longitude>
  </city>
  <city name="Carmen Leonor">
    <latitude>-2.1</latitude>
    <longitude>-79.7</longitude>
  </city>
  <city name="Carolina">
    <latitude>-1.0333333</latitude>
    <longitude>-79.5666667</longitude>
  </city>
  <city name="Carondelet">
    <latitude>1.1261111</latitude>
    <longitude>-78.7622222</longitude>
  </city>
  <city name="Cárpatos">
    <latitude>-3.1166667</latitude>
    <longitude>-79.0333333</longitude>
  </city>
  <city name="Carpuela">
    <latitude>0.4333333</latitude>
    <longitude>-77.9833333</longitude>
  </city>
  <city name="Carrera">
    <latitude>-0.05</latitude>
    <longitude>-78.15</longitude>
  </city>
  <city name="Carretas">
    <latitude>-0.1</latitude>
    <longitude>-78.4666667</longitude>
  </city>
  <city name="Carrillo">
    <latitude>-1.0833333</latitude>
    <longitude>-78.6666667</longitude>
  </city>
  <city name="Carriona">
    <latitude>-0.3333333</latitude>
    <longitude>-78.45</longitude>
  </city>
  <city name="Carrión">
    <latitude>-0.25</latitude>
    <longitude>-78.5666667</longitude>
  </city>
  <city name="Carrizal">
    <latitude>-1.85</latitude>
    <longitude>-80.1333333</longitude>
  </city>
  <city name="Cartagena">
    <latitude>-3.4</latitude>
    <longitude>-79.2</longitude>
  </city>
  <city name="Casacay">
    <latitude>-3.3333333</latitude>
    <longitude>-79.7666667</longitude>
  </city>
  <city name="Casadel">
    <latitude>-3.3666667</latitude>
    <longitude>-79.1333333</longitude>
  </city>
  <city name="Casahuaycu">
    <latitude>-1.6666667</latitude>
    <longitude>-78.5833333</longitude>
  </city>
  <city name="Casanga">
    <latitude>-4.0166667</latitude>
    <longitude>-79.75</longitude>
  </city>
  <city name="Casapiamba">
    <latitude>-4.0</latitude>
    <longitude>-79.65</longitude>
  </city>
  <city name="Casa Redonda">
    <latitude>-1.6</latitude>
    <longitude>-78.75</longitude>
  </city>
  <city name="Casateja">
    <latitude>0.6166667</latitude>
    <longitude>-78.0</longitude>
  </city>
  <city name="Cascada">
    <latitude>-3.3166667</latitude>
    <longitude>-79.6</longitude>
  </city>
  <city name="Cascajal">
    <latitude>-1.7833333</latitude>
    <longitude>-80.1833333</longitude>
  </city>
  <city name="Cascajo">
    <latitude>-0.0833333</latitude>
    <longitude>-78.1666667</longitude>
  </city>
  <city name="Cascarilla">
    <latitude>-1.1833333</latitude>
    <longitude>-79.5</longitude>
  </city>
  <city name="Cascol">
    <latitude>-1.6666667</latitude>
    <longitude>-80.4666667</longitude>
  </city>
  <city name="Caserío">
    <latitude>-0.8</latitude>
    <longitude>-76.25</longitude>
  </city>
  <city name="Caserio Pueblito">
    <latitude>1.0166667</latitude>
    <longitude>-78.9</longitude>
  </city>
  <city name="Caserío Venceslao">
    <latitude>0.9666667</latitude>
    <longitude>-78.9666667</longitude>
  </city>
  <city name="Casha">
    <latitude>-1.1333333</latitude>
    <longitude>-78.5166667</longitude>
  </city>
  <city name="Cashapamba">
    <latitude>-0.35</latitude>
    <longitude>-78.55</longitude>
  </city>
  <city name="Cashapata">
    <latitude>-2.9</latitude>
    <longitude>-79.0333333</longitude>
  </city>
  <city name="Casharum">
    <latitude>-4.1</latitude>
    <longitude>-79.9333333</longitude>
  </city>
  <city name="Cashatoma">
    <latitude>-3.9833333</latitude>
    <longitude>-79.5166667</longitude>
  </city>
  <city name="Cashuín">
    <latitude>-2.4666667</latitude>
    <longitude>-79.0666667</longitude>
  </city>
  <city name="Casiganda">
    <latitude>-0.4</latitude>
    <longitude>-78.5333333</longitude>
  </city>
  <city name="Casiganga">
    <latitude>-0.4</latitude>
    <longitude>-78.5333333</longitude>
  </city>
  <city name="Casiguana">
    <latitude>-2.1333333</latitude>
    <longitude>-79.7833333</longitude>
  </city>
  <city name="Casita">
    <latitude>0.6833333</latitude>
    <longitude>-80.0833333</longitude>
  </city>
  <city name="Casitas">
    <latitude>-3.3333333</latitude>
    <longitude>-79.5833333</longitude>
  </city>
  <city name="Caspa Yacu">
    <latitude>-2.3333333</latitude>
    <longitude>-76.7333333</longitude>
  </city>
  <city name="Caspi-Corral">
    <latitude>-3.0666667</latitude>
    <longitude>-78.9833333</longitude>
  </city>
  <city name="Caspiguasi">
    <latitude>0.0166667</latitude>
    <longitude>-78.4833333</longitude>
  </city>
  <city name="Castelnovo">
    <latitude>0.8833333</latitude>
    <longitude>-79.8166667</longitude>
  </city>
  <city name="Catacocha">
    <latitude>-4.0666667</latitude>
    <longitude>-79.6333333</longitude>
  </city>
  <city name="Catacupamba">
    <latitude>0.1166667</latitude>
    <longitude>-78.1666667</longitude>
  </city>
  <city name="Cataguango">
    <latitude>-0.3666667</latitude>
    <longitude>-78.5166667</longitude>
  </city>
  <city name="Catahuango">
    <latitude>-0.3666667</latitude>
    <longitude>-78.5166667</longitude>
  </city>
  <city name="Catamaillo">
    <latitude>-4.35</latitude>
    <longitude>-80.2166667</longitude>
  </city>
  <city name="Catamayo">
    <latitude>-3.9833333</latitude>
    <longitude>-79.35</longitude>
  </city>
  <city name="Catambas">
    <latitude>-4.4</latitude>
    <longitude>-80.4666667</longitude>
  </city>
  <city name="Catanas">
    <latitude>-4.0666667</latitude>
    <longitude>-80.4</longitude>
  </city>
  <city name="Catarama">
    <latitude>0.6666667</latitude>
    <longitude>-78.0833333</longitude>
  </city>
  <city name="Cataviña">
    <latitude>-3.25</latitude>
    <longitude>-79.2666667</longitude>
  </city>
  <city name="Catevina">
    <latitude>-3.25</latitude>
    <longitude>-79.2666667</longitude>
  </city>
  <city name="Catimbo">
    <latitude>-1.3166667</latitude>
    <longitude>-78.5666667</longitude>
  </city>
  <city name="Cauchiche">
    <latitude>-2.75</latitude>
    <longitude>-80.2166667</longitude>
  </city>
  <city name="Cauquil">
    <latitude>-3.1833333</latitude>
    <longitude>-79.2333333</longitude>
  </city>
  <city name="Cautivo">
    <latitude>-2.2166667</latitude>
    <longitude>-80.9</longitude>
  </city>
  <city name="Cavertul">
    <latitude>-2.6166667</latitude>
    <longitude>-78.6666667</longitude>
  </city>
  <city name="Cavino">
    <latitude>-2.2166667</latitude>
    <longitude>-80.35</longitude>
  </city>
  <city name="Cayagal">
    <latitude>0.0666667</latitude>
    <longitude>-78.3666667</longitude>
  </city>
  <city name="Cayagama">
    <latitude>0.0105556</latitude>
    <longitude>-77.3858333</longitude>
  </city>
  <city name="Cayambe">
    <latitude>0.05</latitude>
    <longitude>-78.1333333</longitude>
  </city>
  <city name="Cayapas">
    <latitude>0.8666667</latitude>
    <longitude>-78.95</longitude>
  </city>
  <city name="Cayapas Viejo">
    <latitude>0.75</latitude>
    <longitude>-78.6666667</longitude>
  </city>
  <city name="Cayarca">
    <latitude>-3.4666667</latitude>
    <longitude>-80.15</longitude>
  </city>
  <city name="Cayo">
    <latitude>-1.35</latitude>
    <longitude>-80.7333333</longitude>
  </city>
  <city name="Cazaderos">
    <latitude>-4.0833333</latitude>
    <longitude>-80.4833333</longitude>
  </city>
  <city name="Cebadas">
    <latitude>-2.5</latitude>
    <longitude>-78.7833333</longitude>
  </city>
  <city name="Cebollar">
    <latitude>-2.8666667</latitude>
    <longitude>-79.0166667</longitude>
  </city>
  <city name="Cecel">
    <latitude>-1.8833333</latitude>
    <longitude>-78.6666667</longitude>
  </city>
  <city name="Cecilia">
    <latitude>-2.0</latitude>
    <longitude>-79.9666667</longitude>
  </city>
  <city name="Cedropamba">
    <latitude>-2.8</latitude>
    <longitude>-78.6666667</longitude>
  </city>
  <city name="Ceiba">
    <latitude>-2.2166667</latitude>
    <longitude>-79.9</longitude>
  </city>
  <city name="Ceibal">
    <latitude>-4.45</latitude>
    <longitude>-79.7166667</longitude>
  </city>
  <city name="Ceibillo">
    <latitude>-3.5166667</latitude>
    <longitude>-80.2166667</longitude>
  </city>
  <city name="Ceibo Mocho">
    <latitude>-4.2</latitude>
    <longitude>-80.1666667</longitude>
  </city>
  <city name="Ceibo Pamba">
    <latitude>-4.2333333</latitude>
    <longitude>-79.35</longitude>
  </city>
  <city name="Ceilán">
    <latitude>-1.6</latitude>
    <longitude>-75.6666667</longitude>
  </city>
  <city name="Celel">
    <latitude>-2.6833333</latitude>
    <longitude>-78.65</longitude>
  </city>
  <city name="Celén">
    <latitude>-3.5666667</latitude>
    <longitude>-79.2666667</longitude>
  </city>
  <city name="Celestina">
    <latitude>-2.0833333</latitude>
    <longitude>-79.4</longitude>
  </city>
  <city name="Celica">
    <latitude>-4.1166667</latitude>
    <longitude>-79.95</longitude>
  </city>
  <city name="Celis">
    <latitude>-2.9333333</latitude>
    <longitude>-79.5333333</longitude>
  </city>
  <city name="Centeno">
    <latitude>-3.05</latitude>
    <longitude>-79.0666667</longitude>
  </city>
  <city name="Centinela">
    <latitude>-2.2333333</latitude>
    <longitude>-80.55</longitude>
  </city>
  <city name="Central">
    <latitude>-0.2</latitude>
    <longitude>-76.65</longitude>
  </city>
  <city name="Centro Cushapucus">
    <latitude>-3.035</latitude>
    <longitude>-78.0261111</longitude>
  </city>
  <city name="Centro Kunkuk'">
    <latitude>-3.3127778</latitude>
    <longitude>-78.2216667</longitude>
  </city>
  <city name="Centro Miasí">
    <latitude>-3.5505556</latitude>
    <longitude>-78.5763889</longitude>
  </city>
  <city name="Centro Numpátkaim'">
    <latitude>-3.2847222</latitude>
    <longitude>-78.2388889</longitude>
  </city>
  <city name="Centro San José">
    <latitude>-3.4416667</latitude>
    <longitude>-78.47</longitude>
  </city>
  <city name="Centro Shuara">
    <latitude>-3.8488889</latitude>
    <longitude>-78.9002778</longitude>
  </city>
  <city name="Centro Shuara del Quimi">
    <latitude>-3.6119444</latitude>
    <longitude>-78.5575</longitude>
  </city>
  <city name="Centro Shuara de Machinaza">
    <latitude>-3.6138889</latitude>
    <longitude>-78.5311111</longitude>
  </city>
  <city name="Centro Shuara de Manchinaza">
    <latitude>-3.6138889</latitude>
    <longitude>-78.5311111</longitude>
  </city>
  <city name="Centro Shuara Kunchaim">
    <latitude>-3.5291667</latitude>
    <longitude>-78.5994444</longitude>
  </city>
  <city name="Centro Shuara La Inmaculada">
    <latitude>-3.5236111</latitude>
    <longitude>-78.5627778</longitude>
  </city>
  <city name="Centro Timkimints">
    <latitude>-3.2538889</latitude>
    <longitude>-78.2261111</longitude>
  </city>
  <city name="Cera">
    <latitude>-3.9166667</latitude>
    <longitude>-79.2833333</longitude>
  </city>
  <city name="Cerco Pata">
    <latitude>-2.4833333</latitude>
    <longitude>-79.1333333</longitude>
  </city>
  <city name="Cerecita">
    <latitude>-2.35</latitude>
    <longitude>-80.2833333</longitude>
  </city>
  <city name="Cerezal">
    <latitude>-2.0166667</latitude>
    <longitude>-80.6</longitude>
  </city>
  <city name="Cerrito">
    <latitude>-1.9</latitude>
    <longitude>-79.7</longitude>
  </city>
  <city name="Cerritos">
    <latitude>-2.25</latitude>
    <longitude>-79.7</longitude>
  </city>
  <city name="Cerro Alto">
    <latitude>-2.9333333</latitude>
    <longitude>-78.8666667</longitude>
  </city>
  <city name="Cerro">
    <latitude>-1.0833333</latitude>
    <longitude>-80.5666667</longitude>
  </city>
  <city name="Cerro Milagros">
    <latitude>-4.0833333</latitude>
    <longitude>-80.15</longitude>
  </city>
  <city name="Cerro Negro">
    <latitude>-3.2333333</latitude>
    <longitude>-79.6</longitude>
  </city>
  <city name="Cerro Verde">
    <latitude>-4.15</latitude>
    <longitude>-80.25</longitude>
  </city>
  <city name="Ceuceda">
    <latitude>-2.2166667</latitude>
    <longitude>-80.1</longitude>
  </city>
  <city name="Cevallos">
    <latitude>-0.2833333</latitude>
    <longitude>-78.5833333</longitude>
  </city>
  <city name="Chabayan">
    <latitude>0.6333333</latitude>
    <longitude>-77.9166667</longitude>
  </city>
  <city name="Chacahuizho">
    <latitude>-3.4166667</latitude>
    <longitude>-79.1333333</longitude>
  </city>
  <city name="Chacance">
    <latitude>-1.9166667</latitude>
    <longitude>-79.6833333</longitude>
  </city>
  <city name="Chacanceo">
    <latitude>-2.65</latitude>
    <longitude>-79.35</longitude>
  </city>
  <city name="Chacán">
    <latitude>-1.75</latitude>
    <longitude>-78.7333333</longitude>
  </city>
  <city name="Chacapamba">
    <latitude>-2.9</latitude>
    <longitude>-78.7666667</longitude>
  </city>
  <city name="Chacarrumi">
    <latitude>-2.9</latitude>
    <longitude>-79.05</longitude>
  </city>
  <city name="Chacata">
    <latitude>-1.1833333</latitude>
    <longitude>-78.5166667</longitude>
  </city>
  <city name="Chacaúco">
    <latitude>-1.45</latitude>
    <longitude>-78.4833333</longitude>
  </city>
  <city name="Chacayucu">
    <latitude>-2.65</latitude>
    <longitude>-79.65</longitude>
  </city>
  <city name="Chachabán">
    <latitude>-2.55</latitude>
    <longitude>-78.9333333</longitude>
  </city>
  <city name="Chaco">
    <latitude>-0.3333333</latitude>
    <longitude>-77.8166667</longitude>
  </city>
  <city name="Chacra">
    <latitude>-1.0</latitude>
    <longitude>-80.7666667</longitude>
  </city>
  <city name="Chacras">
    <latitude>-3.55</latitude>
    <longitude>-80.2</longitude>
  </city>
  <city name="Chade">
    <latitude>-1.2833333</latitude>
    <longitude>-80.5666667</longitude>
  </city>
  <city name="Chagrapamba">
    <latitude>-1.15</latitude>
    <longitude>-78.55</longitude>
  </city>
  <city name="Chaguan">
    <latitude>-3.15</latitude>
    <longitude>-79.0166667</longitude>
  </city>
  <city name="Chaguaraco">
    <latitude>0.2333333</latitude>
    <longitude>-78.7833333</longitude>
  </city>
  <city name="Chaguarhuayco">
    <latitude>-4.0166667</latitude>
    <longitude>-80.3166667</longitude>
  </city>
  <city name="Chaguarloma">
    <latitude>-2.8833333</latitude>
    <longitude>-78.75</longitude>
  </city>
  <city name="Chaguarpamba">
    <latitude>-3.85</latitude>
    <longitude>-79.65</longitude>
  </city>
  <city name="Chahuarbamba">
    <latitude>-3.85</latitude>
    <longitude>-79.65</longitude>
  </city>
  <city name="Chahuar">
    <latitude>-2.5666667</latitude>
    <longitude>-78.9166667</longitude>
  </city>
  <city name="Chahuar Huayev">
    <latitude>-4.1833333</latitude>
    <longitude>-80.15</longitude>
  </city>
  <city name="Chahuarpungo">
    <latitude>0.0166667</latitude>
    <longitude>-78.1333333</longitude>
  </city>
  <city name="Chalanga">
    <latitude>-3.95</latitude>
    <longitude>-79.7</longitude>
  </city>
  <city name="Chalay">
    <latitude>-2.75</latitude>
    <longitude>-78.65</longitude>
  </city>
  <city name="Chalcalo">
    <latitude>-3.2666667</latitude>
    <longitude>-79.3833333</longitude>
  </city>
  <city name="Chalcapa">
    <latitude>-3.2333333</latitude>
    <longitude>-79.2</longitude>
  </city>
  <city name="Chalcur">
    <latitude>-2.7333333</latitude>
    <longitude>-78.8666667</longitude>
  </city>
  <city name="Chalpi">
    <latitude>-0.3666667</latitude>
    <longitude>-78.0666667</longitude>
  </city>
  <city name="Chaltura">
    <latitude>0.35</latitude>
    <longitude>-78.2</longitude>
  </city>
  <city name="Chalua">
    <latitude>-0.8166667</latitude>
    <longitude>-78.7333333</longitude>
  </city>
  <city name="Chamanal">
    <latitude>-0.6333333</latitude>
    <longitude>-78.1166667</longitude>
  </city>
  <city name="Chamanga">
    <latitude>0.2666667</latitude>
    <longitude>-79.9333333</longitude>
  </city>
  <city name="Chambac">
    <latitude>-1.35</latitude>
    <longitude>-78.5333333</longitude>
  </city>
  <city name="Chambarango">
    <latitude>-4.35</latitude>
    <longitude>-80.2666667</longitude>
  </city>
  <city name="Chambellán">
    <latitude>-4.0333333</latitude>
    <longitude>-79.4666667</longitude>
  </city>
  <city name="Chambira">
    <latitude>-1.6</latitude>
    <longitude>-77.6</longitude>
  </city>
  <city name="Chambo">
    <latitude>-1.7333333</latitude>
    <longitude>-78.5833333</longitude>
  </city>
  <city name="Chamucate">
    <latitude>-1.25</latitude>
    <longitude>-80.3833333</longitude>
  </city>
  <city name="Chanalá">
    <latitude>-2.2</latitude>
    <longitude>-78.35</longitude>
  </city>
  <city name="Chanana">
    <latitude>-1.7</latitude>
    <longitude>-80.0</longitude>
  </city>
  <city name="Chancama">
    <latitude>0.6</latitude>
    <longitude>-79.55</longitude>
  </city>
  <city name="Chancana">
    <latitude>0.6</latitude>
    <longitude>-79.55</longitude>
  </city>
  <city name="Chanchaló">
    <latitude>-1.0333333</latitude>
    <longitude>-78.5166667</longitude>
  </city>
  <city name="Chanchas">
    <latitude>-0.2833333</latitude>
    <longitude>-78.5</longitude>
  </city>
  <city name="Chanchún">
    <latitude>-2.7666667</latitude>
    <longitude>-78.9166667</longitude>
  </city>
  <city name="Chancoma">
    <latitude>0.6</latitude>
    <longitude>-79.55</longitude>
  </city>
  <city name="Chandil">
    <latitude>-2.7333333</latitude>
    <longitude>-78.8166667</longitude>
  </city>
  <city name="Chanduy">
    <latitude>-2.4166667</latitude>
    <longitude>-80.6666667</longitude>
  </city>
  <city name="Changaimina">
    <latitude>-4.2166667</latitude>
    <longitude>-79.5166667</longitude>
  </city>
  <city name="Changainima">
    <latitude>-4.2166667</latitude>
    <longitude>-79.5166667</longitude>
  </city>
  <city name="Changalá">
    <latitude>0.05</latitude>
    <longitude>-78.15</longitude>
  </city>
  <city name="Changuaral">
    <latitude>1.3808333</latitude>
    <longitude>-78.8680556</longitude>
  </city>
  <city name="Chanin">
    <latitude>-2.6833333</latitude>
    <longitude>-78.7166667</longitude>
  </city>
  <city name="Chanquinima">
    <latitude>-4.2</latitude>
    <longitude>-79.5</longitude>
  </city>
  <city name="Chantaco">
    <latitude>-3.8833333</latitude>
    <longitude>-79.3333333</longitude>
  </city>
  <city name="Chantag">
    <latitude>-0.2166667</latitude>
    <longitude>-78.3333333</longitude>
  </city>
  <city name="Chantilín">
    <latitude>-0.85</latitude>
    <longitude>-78.65</longitude>
  </city>
  <city name="Chantilín Chiquito">
    <latitude>-0.85</latitude>
    <longitude>-78.65</longitude>
  </city>
  <city name="Chapacoto">
    <latitude>-1.6666667</latitude>
    <longitude>-79.1</longitude>
  </city>
  <city name="Chapar">
    <latitude>-3.0166667</latitude>
    <longitude>-79.0333333</longitude>
  </city>
  <city name="Chapeguaico">
    <latitude>-2.7333333</latitude>
    <longitude>-78.7333333</longitude>
  </city>
  <city name="Chapetón">
    <latitude>-2.85</latitude>
    <longitude>-78.8</longitude>
  </city>
  <city name="Chapintza">
    <latitude>-3.7669444</latitude>
    <longitude>-78.8708333</longitude>
  </city>
  <city name="Chapiza">
    <latitude>-2.8316667</latitude>
    <longitude>-77.8955556</longitude>
  </city>
  <city name="Chapulo">
    <latitude>-1.7333333</latitude>
    <longitude>-79.6</longitude>
  </city>
  <city name="Chaquibamba">
    <latitude>-0.0333333</latitude>
    <longitude>-78.3</longitude>
  </city>
  <city name="Chaquicuña">
    <latitude>-3.9166667</latitude>
    <longitude>-79.4166667</longitude>
  </city>
  <city name="Chaquilcay">
    <latitude>-2.9</latitude>
    <longitude>-78.85</longitude>
  </city>
  <city name="Chaquinal">
    <latitude>-4.0333333</latitude>
    <longitude>-80.05</longitude>
  </city>
  <city name="Chaquino">
    <latitude>-4.1833333</latitude>
    <longitude>-80.4</longitude>
  </city>
  <city name="Chaquir">
    <latitude>-3.45</latitude>
    <longitude>-79.6</longitude>
  </city>
  <city name="Chaquiro">
    <latitude>-4.35</latitude>
    <longitude>-80.3166667</longitude>
  </city>
  <city name="Characay">
    <latitude>-2.5166667</latitude>
    <longitude>-79.0</longitude>
  </city>
  <city name="Charapa">
    <latitude>0.1977778</latitude>
    <longitude>-76.8169444</longitude>
  </city>
  <city name="Charapa Juntai">
    <latitude>-2.5138889</latitude>
    <longitude>-77.5558333</longitude>
  </city>
  <city name="Charapotó">
    <latitude>-0.8333333</latitude>
    <longitude>-80.4833333</longitude>
  </city>
  <city name="Charasol">
    <latitude>-2.7666667</latitude>
    <longitude>-78.8166667</longitude>
  </city>
  <city name="Charco Largo">
    <latitude>1.1333333</latitude>
    <longitude>-78.5</longitude>
  </city>
  <city name="Charla">
    <latitude>0.1166667</latitude>
    <longitude>-78.4166667</longitude>
  </city>
  <city name="Charohuaiña">
    <latitude>-3.5833333</latitude>
    <longitude>-79.2333333</longitude>
  </city>
  <city name="Charohuina">
    <latitude>-3.5833333</latitude>
    <longitude>-79.2333333</longitude>
  </city>
  <city name="Charón">
    <latitude>-3.0333333</latitude>
    <longitude>-78.8166667</longitude>
  </city>
  <city name="Charqui">
    <latitude>-3.3666667</latitude>
    <longitude>-79.05</longitude>
  </city>
  <city name="Charupe">
    <latitude>-1.9333333</latitude>
    <longitude>-77.7833333</longitude>
  </city>
  <city name="Charupí">
    <latitude>-1.9333333</latitude>
    <longitude>-77.7833333</longitude>
  </city>
  <city name="Chasinata">
    <latitude>-1.2</latitude>
    <longitude>-78.5833333</longitude>
  </city>
  <city name="Chasqui">
    <latitude>-0.7</latitude>
    <longitude>-78.5833333</longitude>
  </city>
  <city name="Chasquin">
    <latitude>-2.9666667</latitude>
    <longitude>-78.85</longitude>
  </city>
  <city name="Chaucan">
    <latitude>-2.95</latitude>
    <longitude>-78.7</longitude>
  </city>
  <city name="Chaucha">
    <latitude>-2.9</latitude>
    <longitude>-79.4</longitude>
  </city>
  <city name="Chau">
    <latitude>-2.8211111</latitude>
    <longitude>-77.7691667</longitude>
  </city>
  <city name="Chauliayacu">
    <latitude>-2.9833333</latitude>
    <longitude>-79.0333333</longitude>
  </city>
  <city name="Chaulla">
    <latitude>-3.2333333</latitude>
    <longitude>-79.2166667</longitude>
  </city>
  <city name="Chaullamba">
    <latitude>-2.85</latitude>
    <longitude>-78.9</longitude>
  </city>
  <city name="Chaupi">
    <latitude>-0.95</latitude>
    <longitude>-78.75</longitude>
  </city>
  <city name="Chaupi Estancia">
    <latitude>-0.0333333</latitude>
    <longitude>-78.25</longitude>
  </city>
  <city name="Chaupi Guaranguí">
    <latitude>0.3666667</latitude>
    <longitude>-78.0166667</longitude>
  </city>
  <city name="Chaupihacienda">
    <latitude>-2.9833333</latitude>
    <longitude>-78.9</longitude>
  </city>
  <city name="Chaupi Loma">
    <latitude>0.1</latitude>
    <longitude>-78.2</longitude>
  </city>
  <city name="Chaupitranca">
    <latitude>-3.0166667</latitude>
    <longitude>-79.5666667</longitude>
  </city>
  <city name="Chavalula">
    <latitude>-2.9333333</latitude>
    <longitude>-78.75</longitude>
  </city>
  <city name="Chavay">
    <latitude>-2.7833333</latitude>
    <longitude>-78.8333333</longitude>
  </city>
  <city name="Chávez">
    <latitude>-0.7</latitude>
    <longitude>-80.3166667</longitude>
  </city>
  <city name="Chavezpamba">
    <latitude>0.1333333</latitude>
    <longitude>-78.3833333</longitude>
  </city>
  <city name="Chaya">
    <latitude>-3.3333333</latitude>
    <longitude>-79.1333333</longitude>
  </city>
  <city name="Chayasapa">
    <latitude>-3.5333333</latitude>
    <longitude>-79.2833333</longitude>
  </city>
  <city name="Checa">
    <latitude>-2.7833333</latitude>
    <longitude>-79.0</longitude>
  </city>
  <city name="Checo">
    <latitude>-3.45</latitude>
    <longitude>-80.0333333</longitude>
  </city>
  <city name="Chequero">
    <latitude>-3.4333333</latitude>
    <longitude>-79.15</longitude>
  </city>
  <city name="Chibiga">
    <latitude>0.0833333</latitude>
    <longitude>-78.4166667</longitude>
  </city>
  <city name="Chibuleo">
    <latitude>-1.3</latitude>
    <longitude>-78.7166667</longitude>
  </city>
  <city name="Chibunga">
    <latitude>-1.6833333</latitude>
    <longitude>-78.6666667</longitude>
  </city>
  <city name="Chical">
    <latitude>-2.4</latitude>
    <longitude>-78.9666667</longitude>
  </city>
  <city name="Chicaña Alto">
    <latitude>-3.7077778</latitude>
