<?xml version="1.0" encoding="UTF-8"?>
<country code="gm" name="Gambie">
  <city name="Abeokuta">
    <latitude>13.3666667</latitude>
    <longitude>-14.6166667</longitude>
  </city>
  <city name="Abuko">
    <latitude>13.4041667</latitude>
    <longitude>-16.6558333</longitude>
  </city>
  <city name="Ahalulie">
    <latitude>13.4666667</latitude>
    <longitude>-14.9166667</longitude>
  </city>
  <city name="Alaji Yoro">
    <latitude>13.5230556</latitude>
    <longitude>-16.2838889</longitude>
  </city>
  <city name="Alakounda">
    <latitude>13.1666667</latitude>
    <longitude>-15.9666667</longitude>
  </city>
  <city name="Albadarr">
    <latitude>13.3344444</latitude>
    <longitude>-16.3866667</longitude>
  </city>
  <city name="Albreda">
    <latitude>13.3344444</latitude>
    <longitude>-16.3866667</longitude>
  </city>
  <city name="Alhaji Abdoulie Liegh">
    <latitude>13.7</latitude>
    <longitude>-15.2833333</longitude>
  </city>
  <city name="Alhaji Bajonkoto">
    <latitude>13.5333333</latitude>
    <longitude>-15.8166667</longitude>
  </city>
  <city name="Alhaji Dembo">
    <latitude>13.4666667</latitude>
    <longitude>-14.8833333</longitude>
  </city>
  <city name="Alicali Kunda">
    <latitude>13.5333333</latitude>
    <longitude>-15.7333333</longitude>
  </city>
  <city name="Alical Kunda">
    <latitude>13.5333333</latitude>
    <longitude>-15.7333333</longitude>
  </city>
  <city name="Alijamadu">
    <latitude>13.4</latitude>
    <longitude>-16.4555556</longitude>
  </city>
  <city name="Alimaka">
    <latitude>13.4666667</latitude>
    <longitude>-14.4833333</longitude>
  </city>
  <city name="Aljamdu">
    <latitude>13.4</latitude>
    <longitude>-16.4555556</longitude>
  </city>
  <city name="Aljamdu Kamara Kunda">
    <latitude>13.4</latitude>
    <longitude>-16.45</longitude>
  </city>
  <city name="Aljamdu Kanteh Kunda">
    <latitude>13.4</latitude>
    <longitude>-16.45</longitude>
  </city>
  <city name="Allahein">
    <latitude>13.0727778</latitude>
    <longitude>-16.7469444</longitude>
  </city>
  <city name="Alla Kunda">
    <latitude>13.1672222</latitude>
    <longitude>-16.0113889</longitude>
  </city>
  <city name="Alla Tenta">
    <latitude>13.45</latitude>
    <longitude>-14.6666667</longitude>
  </city>
  <city name="Alohungari">
    <latitude>13.3166667</latitude>
    <longitude>-14.2333333</longitude>
  </city>
  <city name="Alohungari Banta">
    <latitude>13.2666667</latitude>
    <longitude>-14.1333333</longitude>
  </city>
  <city name="Alpha">
    <latitude>13.4666667</latitude>
    <longitude>-16.35</longitude>
  </city>
  <city name="Alpha Hamjatu">
    <latitude>13.4666667</latitude>
    <longitude>-16.3166667</longitude>
  </city>
  <city name="Alpha N'Ding">
    <latitude>13.4666667</latitude>
    <longitude>-16.35</longitude>
  </city>
  <city name="Amdalai">
    <latitude>13.4319444</latitude>
    <longitude>-16.7225</longitude>
  </city>
  <city name="Amdallai">
    <latitude>13.5883333</latitude>
    <longitude>-16.4227778</longitude>
  </city>
  <city name="Amdulai">
    <latitude>13.4319444</latitude>
    <longitude>-16.7225</longitude>
  </city>
  <city name="Amdulay">
    <latitude>13.4319444</latitude>
    <longitude>-16.7225</longitude>
  </city>
  <city name="Ampaya">
    <latitude>13.4525</latitude>
    <longitude>-16.6908333</longitude>
  </city>
  <city name="Anias Kunda">
    <latitude>13.5666667</latitude>
    <longitude>-15.1833333</longitude>
  </city>
  <city name="Anulie">
    <latitude>13.4666667</latitude>
    <longitude>-14.9166667</longitude>
  </city>
  <city name="Arangalain">
    <latitude>13.2066667</latitude>
    <longitude>-16.1469444</longitude>
  </city>
  <city name="Arankon Kunda">
    <latitude>13.2333333</latitude>
    <longitude>-15.9166667</longitude>
  </city>
  <city name="Arongkoli Kunda">
    <latitude>13.2333333</latitude>
    <longitude>-15.8666667</longitude>
  </city>
  <city name="Baba">
    <latitude>13.4333333</latitude>
    <longitude>-15.45</longitude>
  </city>
  <city name="Babilon Gunjur">
    <latitude>13.2133333</latitude>
    <longitude>-16.7461111</longitude>
  </city>
  <city name="Babou Jobe">
    <latitude>13.6</latitude>
    <longitude>-15.3</longitude>
  </city>
  <city name="Badari">
    <latitude>13.3333333</latitude>
    <longitude>-14.1</longitude>
  </city>
  <city name="Badja Kunda">
    <latitude>13.4666667</latitude>
    <longitude>-14.05</longitude>
  </city>
  <city name="Ba Duma">
    <latitude>13.35</latitude>
    <longitude>-16.3333333</longitude>
  </city>
  <city name="Badume">
    <latitude>13.4</latitude>
    <longitude>-15.3666667</longitude>
  </city>
  <city name="Bafuloto">
    <latitude>13.3188889</latitude>
    <longitude>-16.6275</longitude>
  </city>
  <city name="Bafulotor">
    <latitude>13.4397222</latitude>
    <longitude>-16.3163889</longitude>
  </city>
  <city name="Bahdad">
    <latitude>13.6166667</latitude>
    <longitude>-15.1</longitude>
  </city>
  <city name="Bahen">
    <latitude>13.5833333</latitude>
    <longitude>-15.4166667</longitude>
  </city>
  <city name="Bahoom">
    <latitude>13.5713889</latitude>
    <longitude>-16.3286111</longitude>
  </city>
  <city name="Bahwa">
    <latitude>13.2666667</latitude>
    <longitude>-14.2833333</longitude>
  </city>
  <city name="Baiaba">
    <latitude>13.5</latitude>
    <longitude>-14.5</longitude>
  </city>
  <city name="Bai Ba">
    <latitude>13.5</latitude>
    <longitude>-14.5</longitude>
  </city>
  <city name="Baien">
    <latitude>13.5666667</latitude>
    <longitude>-16.05</longitude>
  </city>
  <city name="Baijana">
    <latitude>13.1869444</latitude>
    <longitude>-16.3983333</longitude>
  </city>
  <city name="Baijangkortor">
    <latitude>13.2666667</latitude>
    <longitude>-15.9</longitude>
  </city>
  <city name="Bai N'Ding">
    <latitude>13.5</latitude>
    <longitude>-14.5</longitude>
  </city>
  <city name="Baintengkay">
    <latitude>13.6666667</latitude>
    <longitude>-15.4</longitude>
  </city>
  <city name="Baipal">
    <latitude>13.1761111</latitude>
    <longitude>-16.0997222</longitude>
  </city>
  <city name="Bai Tenda">
    <latitude>13.45</latitude>
    <longitude>-15.4166667</longitude>
  </city>
  <city name="Baitit Mamu Fana">
    <latitude>13.6</latitude>
    <longitude>-15.1166667</longitude>
  </city>
  <city name="Bajagar">
    <latitude>13.1933333</latitude>
    <longitude>-16.1813889</longitude>
  </city>
  <city name="Bajagar Dumbutu">
    <latitude>13.2094444</latitude>
    <longitude>-16.1180556</longitude>
  </city>
  <city name="Bajagar Jola">
    <latitude>13.1944444</latitude>
    <longitude>-16.1188889</longitude>
  </city>
  <city name="Bajana">
    <latitude>13.1869444</latitude>
    <longitude>-16.3983333</longitude>
  </city>
  <city name="Bajankoto">
    <latitude>13.3833333</latitude>
    <longitude>-14.25</longitude>
  </city>
  <city name="Baji Kunda">
    <latitude>13.2152778</latitude>
    <longitude>-16.0558333</longitude>
  </city>
  <city name="Bajilo">
    <latitude>13.21</latitude>
    <longitude>-16.2141667</longitude>
  </city>
  <city name="Bajiran">
    <latitude>13.2833333</latitude>
    <longitude>-15.9666667</longitude>
  </city>
  <city name="Bajong Koto">
    <latitude>13.2297222</latitude>
    <longitude>-16.6494444</longitude>
  </city>
  <city name="Bajong Kotor">
    <latitude>13.4116667</latitude>
    <longitude>-16.6616667</longitude>
  </city>
  <city name="Bajon Koto">
    <latitude>13.3666667</latitude>
    <longitude>-15.6166667</longitude>
  </city>
  <city name="Bajonkoto">
    <latitude>13.23</latitude>
    <longitude>-16.0955556</longitude>
  </city>
  <city name="Bajon Kotor">
    <latitude>13.4116667</latitude>
    <longitude>-16.6616667</longitude>
  </city>
  <city name="Bakadagy">
    <latitude>13.7166667</latitude>
    <longitude>-15.0166667</longitude>
  </city>
  <city name="Bakadaji">
    <latitude>13.65</latitude>
    <longitude>-14.8333333</longitude>
  </city>
  <city name="Bakadaji Kunda">
    <latitude>13.65</latitude>
    <longitude>-14.8333333</longitude>
  </city>
  <city name="Bakalari">
    <latitude>13.4216667</latitude>
    <longitude>-16.4266667</longitude>
  </city>
  <city name="Bakalarr">
    <latitude>13.4216667</latitude>
    <longitude>-16.4266667</longitude>
  </city>
  <city name="Bakang">
    <latitude>13.5044444</latitude>
    <longitude>-16.1444444</longitude>
  </city>
  <city name="Bakary Sambou">
    <latitude>13.2388889</latitude>
    <longitude>-16.6441667</longitude>
  </city>
  <city name="Bakau">
    <latitude>13.4780556</latitude>
    <longitude>-16.6819444</longitude>
  </city>
  <city name="Bakau Kunku">
    <latitude>13.3244444</latitude>
    <longitude>-16.8008333</longitude>
  </city>
  <city name="Bakau NDing">
    <latitude>13.47</latitude>
    <longitude>-16.6836111</longitude>
  </city>
  <city name="Bakendik">
    <latitude>13.4561111</latitude>
    <longitude>-16.4536111</longitude>
  </city>
  <city name="Bakkendik">
    <latitude>13.4561111</latitude>
    <longitude>-16.4536111</longitude>
  </city>
  <city name="Bakolar">
    <latitude>13.4216667</latitude>
    <longitude>-16.4266667</longitude>
  </city>
  <city name="Bakote">
    <latitude>13.4658333</latitude>
    <longitude>-16.7002778</longitude>
  </city>
  <city name="Bakoteh">
    <latitude>13.43</latitude>
    <longitude>-16.6983333</longitude>
  </city>
  <city name="Bakoti">
    <latitude>13.43</latitude>
    <longitude>-16.6983333</longitude>
  </city>
  <city name="Bakotti">
    <latitude>13.43</latitude>
    <longitude>-16.6983333</longitude>
  </city>
  <city name="Ba Kunda">
    <latitude>13.2833333</latitude>
    <longitude>-15.25</longitude>
  </city>
  <city name="Balangar">
    <latitude>13.6666667</latitude>
    <longitude>-15.3666667</longitude>
  </city>
  <city name="Balanghar">
    <latitude>13.6666667</latitude>
    <longitude>-15.3666667</longitude>
  </city>
  <city name="Balanghar Ker N'Derry">
    <latitude>13.6666667</latitude>
    <longitude>-15.4</longitude>
  </city>
  <city name="Balanghar Njoben">
    <latitude>13.6666667</latitude>
    <longitude>-15.4166667</longitude>
  </city>
  <city name="Balanghar Wharf Town">
    <latitude>13.6666667</latitude>
    <longitude>-15.3666667</longitude>
  </city>
  <city name="Bala Silla">
    <latitude>13.45</latitude>
    <longitude>-14.1333333</longitude>
  </city>
  <city name="Bali">
    <latitude>13.5675</latitude>
    <longitude>-16.1172222</longitude>
  </city>
  <city name="Bali Hali Hawah">
    <latitude>13.59</latitude>
    <longitude>-16.1116667</longitude>
  </city>
  <city name="Bali Hali Howeh">
    <latitude>13.59</latitude>
    <longitude>-16.1116667</longitude>
  </city>
  <city name="Balingho">
    <latitude>13.4833333</latitude>
    <longitude>-15.6166667</longitude>
  </city>
  <city name="Balingo">
    <latitude>13.4833333</latitude>
    <longitude>-15.6166667</longitude>
  </city>
  <city name="Ballangar">
    <latitude>13.6666667</latitude>
    <longitude>-15.4</longitude>
  </city>
  <city name="Ballen">
    <latitude>13.1661111</latitude>
    <longitude>-16.0947222</longitude>
  </city>
  <city name="Balli">
    <latitude>13.5675</latitude>
    <longitude>-16.1172222</longitude>
  </city>
  <city name="Balo Ibra">
    <latitude>13.5833333</latitude>
    <longitude>-15.4166667</longitude>
  </city>
  <city name="Balo Omar">
    <latitude>13.5833333</latitude>
    <longitude>-15.4333333</longitude>
  </city>
  <city name="Bamba">
    <latitude>13.6333333</latitude>
    <longitude>-15.2833333</longitude>
  </city>
  <city name="Bamba Jallow">
    <latitude>13.5666667</latitude>
    <longitude>-15.3166667</longitude>
  </city>
  <city name="Bambaka">
    <latitude>13.4</latitude>
    <longitude>-15.7666667</longitude>
  </city>
  <city name="Bambako">
    <latitude>13.4</latitude>
    <longitude>-15.7666667</longitude>
  </city>
  <city name="Bambako Kura">
    <latitude>13.6166667</latitude>
    <longitude>-15.3</longitude>
  </city>
  <city name="Bamba Kolon">
    <latitude>13.6</latitude>
    <longitude>-15.1333333</longitude>
  </city>
  <city name="Bamba Kolong">
    <latitude>13.6</latitude>
    <longitude>-15.1333333</longitude>
  </city>
  <city name="Bambale">
    <latitude>13.4833333</latitude>
    <longitude>-15.3333333</longitude>
  </city>
  <city name="Bambali">
    <latitude>13.4833333</latitude>
    <longitude>-15.3333333</longitude>
  </city>
  <city name="Bambatenda">
    <latitude>13.5166667</latitude>
    <longitude>-15.5833333</longitude>
  </city>
  <city name="Banatenda">
    <latitude>13.3833333</latitude>
    <longitude>-14.4833333</longitude>
  </city>
  <city name="Bandinto">
    <latitude>13.0841667</latitude>
    <longitude>-16.7436111</longitude>
  </city>
  <city name="Banenko">
    <latitude>13.2833333</latitude>
    <longitude>-14.1333333</longitude>
  </city>
  <city name="Banenko Simaila">
    <latitude>13.2833333</latitude>
    <longitude>-14.1333333</longitude>
  </city>
  <city name="Bangali">
    <latitude>13.5061111</latitude>
    <longitude>-16.4122222</longitude>
  </city>
  <city name="Bangaly">
    <latitude>13.4833333</latitude>
    <longitude>-16.45</longitude>
  </city>
  <city name="Bangasiya Fali">
    <latitude>13.2666667</latitude>
    <longitude>-14.1333333</longitude>
  </city>
  <city name="Bangherr">
    <latitude>13.7</latitude>
    <longitude>-15.2666667</longitude>
  </city>
  <city name="Baniakan">
    <latitude>13.3255556</latitude>
    <longitude>-16.7475</longitude>
  </city>
  <city name="Baniakang">
    <latitude>13.3255556</latitude>
    <longitude>-16.7475</longitude>
  </city>
  <city name="Bani Bajenko">
    <latitude>13.4166667</latitude>
    <longitude>-15.2333333</longitude>
  </city>
  <city name="Bani">
    <latitude>13.5166667</latitude>
    <longitude>-14.6</longitude>
  </city>
  <city name="Banicuba Yoroyel">
    <latitude>13.4333333</latitude>
    <longitude>-14.5333333</longitude>
  </city>
  <city name="Baniko">
    <latitude>13.2666667</latitude>
    <longitude>-14.4333333</longitude>
  </city>
  <city name="Banja">
    <latitude>13.2666667</latitude>
    <longitude>-14.2833333</longitude>
  </city>
  <city name="Banjul">
    <latitude>13.4530556</latitude>
    <longitude>-16.5775</longitude>
  </city>
  <city name="Banjul NDing">
    <latitude>13.3733333</latitude>
    <longitude>-16.6572222</longitude>
  </city>
  <city name="Bankuba Samboido">
    <latitude>13.4333333</latitude>
    <longitude>-14.5333333</longitude>
  </city>
  <city name="Bankulling">
    <latitude>13.2966667</latitude>
    <longitude>-16.0725</longitude>
  </city>
  <city name="Bankuwule">
    <latitude>13.4833333</latitude>
    <longitude>-14.1333333</longitude>
  </city>
  <city name="Banna Tenda">
    <latitude>13.3833333</latitude>
    <longitude>-14.4833333</longitude>
  </city>
  <city name="Banniba Jonki">
    <latitude>13.4166667</latitude>
    <longitude>-15.2333333</longitude>
  </city>
  <city name="Banni">
    <latitude>13.55</latitude>
    <longitude>-14.7333333</longitude>
  </city>
  <city name="Bansang">
    <latitude>13.4333333</latitude>
    <longitude>-14.65</longitude>
  </city>
  <city name="Bansang Tenda">
    <latitude>13.4333333</latitude>
    <longitude>-14.65</longitude>
  </city>
  <city name="Banta Killi">
    <latitude>13.5833333</latitude>
    <longitude>-15.7</longitude>
  </city>
  <city name="Bantam Bilo">
    <latitude>13.3441667</latitude>
    <longitude>-16.7152778</longitude>
  </city>
  <city name="Bantanding">
    <latitude>13.5880556</latitude>
    <longitude>-16.2552778</longitude>
  </city>
  <city name="Bantanding Sancha">
    <latitude>13.5833333</latitude>
    <longitude>-16.2833333</longitude>
  </city>
  <city name="Bantanding Toranka">
    <latitude>13.5880556</latitude>
    <longitude>-16.2552778</longitude>
  </city>
  <city name="Bantang Killing">
    <latitude>13.3452778</latitude>
    <longitude>-16.4147222</longitude>
  </city>
  <city name="Bantang Koto">
    <latitude>13.65</latitude>
    <longitude>-15.3</longitude>
  </city>
  <city name="Bantang Kotor">
    <latitude>13.3166667</latitude>
    <longitude>-14.2166667</longitude>
  </city>
  <city name="Bantango Koto">
    <latitude>13.55</latitude>
    <longitude>-14.55</longitude>
  </city>
  <city name="Bantanjang">
    <latitude>13.2833333</latitude>
    <longitude>-15.95</longitude>
  </city>
  <city name="Bantanta">
    <latitude>13.7</latitude>
    <longitude>-15.25</longitude>
  </city>
  <city name="Bantanto">
    <latitude>13.4166667</latitude>
    <longitude>-14.65</longitude>
  </city>
  <city name="Bantanto Ebrima Kah">
    <latitude>13.7</latitude>
    <longitude>-15.25</longitude>
  </city>
  <city name="Bantanto Jawara Jallow">
    <latitude>13.7</latitude>
    <longitude>-15.25</longitude>
  </city>
  <city name="Bantanto Ker Daburi">
    <latitude>13.6833333</latitude>
    <longitude>-15.2333333</longitude>
  </city>
  <city name="Bantanto Ker Daburie">
    <latitude>13.7</latitude>
    <longitude>-15.25</longitude>
  </city>
  <city name="Bantanto Ker Ebrima Kah">
    <latitude>13.7</latitude>
    <longitude>-15.25</longitude>
  </city>
  <city name="Bantanto Ker Olai">
    <latitude>13.7</latitude>
    <longitude>-15.2333333</longitude>
  </city>
  <city name="Bantanto Ker Oldi">
    <latitude>13.7</latitude>
    <longitude>-15.2666667</longitude>
  </city>
  <city name="Bantanto Ker Samba Olo">
    <latitude>13.6833333</latitude>
    <longitude>-15.2333333</longitude>
  </city>
  <city name="Bantanto Ker Sulay">
    <latitude>13.7</latitude>
    <longitude>-15.2333333</longitude>
  </city>
  <city name="Bantanto Musa Bah">
    <latitude>13.7</latitude>
    <longitude>-15.25</longitude>
  </city>
  <city name="Bantan Yima">
    <latitude>13.4666667</latitude>
    <longitude>-14.9</longitude>
  </city>
  <city name="Bantasu">
    <latitude>13.3213889</latitude>
    <longitude>-16.1</longitude>
  </city>
  <city name="Banta Su">
    <latitude>13.55</latitude>
    <longitude>-15.5166667</longitude>
  </city>
  <city name="Banto Nding">
    <latitude>13.4666667</latitude>
    <longitude>-14.0833333</longitude>
  </city>
  <city name="Banu Kunda">
    <latitude>13.3833333</latitude>
    <longitude>-14.0166667</longitude>
  </city>
  <city name="Barajali">
    <latitude>13.6</latitude>
    <longitude>-14.95</longitude>
  </city>
  <city name="Barajali Kunda">
    <latitude>13.4</latitude>
    <longitude>-14.0</longitude>
  </city>
  <city name="Barajali Tenda">
    <latitude>13.5833333</latitude>
    <longitude>-14.95</longitude>
  </city>
  <city name="Baraji Kunda">
    <latitude>13.4</latitude>
    <longitude>-14.0</longitude>
  </city>
  <city name="Baria">
    <latitude>13.3333333</latitude>
    <longitude>-16.4</longitude>
  </city>
  <city name="Baro Kunda">
    <latitude>13.4833333</latitude>
    <longitude>-14.1166667</longitude>
  </city>
  <city name="Baro Kunda Tenda">
    <latitude>13.4833333</latitude>
    <longitude>-15.3</longitude>
  </city>
  <city name="Barra">
    <latitude>13.4827778</latitude>
    <longitude>-16.5455556</longitude>
  </city>
  <city name="Barrajalli">
    <latitude>13.6</latitude>
    <longitude>-14.95</longitude>
  </city>
  <city name="Barrakunda">
    <latitude>13.4833333</latitude>
    <longitude>-14.1166667</longitude>
  </city>
  <city name="Barra Kunda">
    <latitude>13.55</latitude>
    <longitude>-13.8</longitude>
  </city>
  <city name="Barria">
    <latitude>13.5333333</latitude>
    <longitude>-16.1333333</longitude>
  </city>
  <city name="Barrinding">
    <latitude>13.4902778</latitude>
    <longitude>-16.4644444</longitude>
  </city>
  <city name="Barrow Kunda">
    <latitude>13.2302778</latitude>
    <longitude>-16.0669444</longitude>
  </city>
  <city name="Barry Narbeh">
    <latitude>13.45</latitude>
    <longitude>-14.3833333</longitude>
  </city>
  <city name="Barsangsang">
    <latitude>13.4333333</latitude>
    <longitude>-14.65</longitude>
  </city>
  <city name="Barukunda">
    <latitude>13.4833333</latitude>
    <longitude>-15.2666667</longitude>
  </city>
  <city name="Base Nding">
    <latitude>13.3</latitude>
    <longitude>-14.2</longitude>
  </city>
  <city name="Basori">
    <latitude>13.2255556</latitude>
    <longitude>-16.5919444</longitude>
  </city>
  <city name="Basse">
    <latitude>13.3166667</latitude>
    <longitude>-14.2166667</longitude>
  </city>
  <city name="Bassen">
    <latitude>13.1738889</latitude>
    <longitude>-16.2752778</longitude>
  </city>
  <city name="Bassen Kansana">
    <latitude>13.1663889</latitude>
    <longitude>-16.0627778</longitude>
  </city>
  <city name="Basse Santa Su">
    <latitude>13.3166667</latitude>
    <longitude>-14.2166667</longitude>
  </city>
  <city name="Bassik">
    <latitude>13.5333333</latitude>
    <longitude>-15.5</longitude>
  </city>
  <city name="Bassori">
    <latitude>13.2255556</latitude>
    <longitude>-16.5919444</longitude>
  </city>
  <city name="Batelling">
    <latitude>13.4</latitude>
    <longitude>-15.85</longitude>
  </city>
  <city name="Batena">
    <latitude>13.1819444</latitude>
    <longitude>-16.2163889</longitude>
  </city>
  <city name="Batending">
    <latitude>13.2566667</latitude>
    <longitude>-16.3177778</longitude>
  </city>
  <city name="Batending Kajara">
    <latitude>13.2566667</latitude>
    <longitude>-16.3177778</longitude>
  </city>
  <city name="Bathurst">
    <latitude>13.4530556</latitude>
    <longitude>-16.5775</longitude>
  </city>
  <city name="Bati">
    <latitude>13.5833333</latitude>
    <longitude>-15.1333333</longitude>
  </city>
  <city name="Bati Hai">
    <latitude>13.7</latitude>
    <longitude>-15.2</longitude>
  </city>
  <city name="Bati Jaha">
    <latitude>13.75</latitude>
    <longitude>-15.1166667</longitude>
  </city>
  <city name="Bati Jama Gen">
    <latitude>13.7166667</latitude>
    <longitude>-15.2</longitude>
  </city>
  <city name="Bati N'Da">
    <latitude>13.7</latitude>
    <longitude>-15.2</longitude>
  </city>
  <city name="Bati Ndar">
    <latitude>13.7</latitude>
    <longitude>-15.2</longitude>
  </city>
  <city name="Bati Yungo">
    <latitude>13.7166667</latitude>
    <longitude>-15.2</longitude>
  </city>
  <city name="Batori Sateh">
    <latitude>13.1530556</latitude>
    <longitude>-16.7788889</longitude>
  </city>
  <city name="Bator Sateh">
    <latitude>13.1530556</latitude>
    <longitude>-16.7788889</longitude>
  </city>
  <city name="Battabut">
    <latitude>13.2063889</latitude>
    <longitude>-16.16</longitude>
  </city>
  <city name="Battabut Denelu">
    <latitude>13.1936111</latitude>
    <longitude>-16.1536111</longitude>
  </city>
  <city name="Battabut Kantora">
    <latitude>13.2063889</latitude>
    <longitude>-16.16</longitude>
  </city>
  <city name="Battelling">
    <latitude>13.4</latitude>
    <longitude>-15.85</longitude>
  </city>
  <city name="Battending">
    <latitude>13.1819444</latitude>
    <longitude>-16.2163889</longitude>
  </city>
  <city name="Batti N'Dau">
    <latitude>13.7</latitude>
    <longitude>-15.2</longitude>
  </city>
  <city name="Batukunku">
    <latitude>13.3244444</latitude>
    <longitude>-16.8008333</longitude>
  </city>
  <city name="Bayarr">
    <latitude>13.2833333</latitude>
    <longitude>-16.25</longitude>
  </city>
  <city name="Beeta">
    <latitude>13.1905556</latitude>
    <longitude>-16.2875</longitude>
  </city>
  <city name="Beeta Bukafungi">
    <latitude>13.1905556</latitude>
    <longitude>-16.2875</longitude>
  </city>
  <city name="Belal">
    <latitude>13.3666667</latitude>
    <longitude>-14.65</longitude>
  </city>
  <city name="Berending">
    <latitude>13.4902778</latitude>
    <longitude>-16.4644444</longitude>
  </city>
  <city name="Beretto">
    <latitude>13.55</latitude>
    <longitude>-15.5833333</longitude>
  </city>
  <city name="Berrending">
    <latitude>13.14</latitude>
    <longitude>-16.7433333</longitude>
  </city>
  <city name="Berry Narbeh">
    <latitude>13.45</latitude>
    <longitude>-14.3833333</longitude>
  </city>
  <city name="Bessi">
    <latitude>13.1952778</latitude>
    <longitude>-16.3619444</longitude>
  </city>
  <city name="Bessi Nding">
    <latitude>13.2191667</latitude>
    <longitude>-16.5013889</longitude>
  </city>
  <city name="Bia Hamady">
    <latitude>13.4666667</latitude>
    <longitude>-14.4333333</longitude>
  </city>
  <city name="Bijiba">
    <latitude>13.5166667</latitude>
    <longitude>-16.3166667</longitude>
  </city>
  <city name="Bijilo">
    <latitude>13.4180556</latitude>
    <longitude>-16.73</longitude>
  </city>
  <city name="Bintang">
    <latitude>13.2497222</latitude>
    <longitude>-16.2141667</longitude>
  </city>
  <city name="Bintinki">
    <latitude>13.6666667</latitude>
    <longitude>-15.4</longitude>
  </city>
  <city name="Biram Giddo Ya">
    <latitude>13.5833333</latitude>
    <longitude>-15.85</longitude>
  </city>
  <city name="Biram Kardo Ya">
    <latitude>13.5833333</latitude>
    <longitude>-15.85</longitude>
  </city>
  <city name="Biram Kunda">
    <latitude>13.5833333</latitude>
    <longitude>-15.7833333</longitude>
  </city>
  <city name="Biram Yacin">
    <latitude>13.65</latitude>
    <longitude>-15.4333333</longitude>
  </city>
  <city name="Biranoya">
    <latitude>13.4166667</latitude>
    <longitude>-15.5333333</longitude>
  </city>
  <city name="Birom">
    <latitude>13.2666667</latitude>
    <longitude>-14.4333333</longitude>
  </city>
  <city name="Birong">
    <latitude>13.3266667</latitude>
    <longitude>-16.1794444</longitude>
  </city>
  <city name="Birong Kunda">
    <latitude>13.5833333</latitude>
    <longitude>-15.7833333</longitude>
  </city>
  <city name="Bisandugu">
    <latitude>13.3</latitude>
    <longitude>-14.0833333</longitude>
  </city>
  <city name="Bissari Bajongkoto">
    <latitude>13.2</latitude>
    <longitude>-15.9</longitude>
  </city>
  <city name="Bissari">
    <latitude>13.2</latitude>
    <longitude>-15.9</longitude>
  </city>
  <city name="Bissari Madi">
    <latitude>13.2</latitude>
    <longitude>-15.9</longitude>
  </city>
  <city name="Bita">
    <latitude>13.1905556</latitude>
    <longitude>-16.2875</longitude>
  </city>
  <city name="Bluntu">
    <latitude>13.1752778</latitude>
    <longitude>-16.0188889</longitude>
  </city>
  <city name="Bolum">
    <latitude>13.5666667</latitude>
    <longitude>-13.9333333</longitude>
  </city>
  <city name="Bombale">
    <latitude>13.4833333</latitude>
    <longitude>-15.3333333</longitude>
  </city>
  <city name="Bonda">
    <latitude>13.25</latitude>
    <longitude>-15.8833333</longitude>
  </city>
  <city name="Bondali">
    <latitude>13.2333333</latitude>
    <longitude>-15.9166667</longitude>
  </city>
  <city name="Bondali Jola">
    <latitude>13.2333333</latitude>
    <longitude>-15.9166667</longitude>
  </city>
  <city name="Bondali Tenda">
    <latitude>13.25</latitude>
    <longitude>-15.9</longitude>
  </city>
  <city name="Bonto">
    <latitude>13.2780556</latitude>
    <longitude>-16.5594444</longitude>
  </city>
  <city name="Boraba">
    <latitude>13.5166667</latitude>
    <longitude>-14.7333333</longitude>
  </city>
  <city name="Boroba">
    <latitude>13.5166667</latitude>
    <longitude>-14.7333333</longitude>
  </city>
  <city name="Boro Kandakase">
    <latitude>13.4166667</latitude>
    <longitude>-14.0333333</longitude>
  </city>
  <city name="Boro Majang Kunda">
    <latitude>13.4166667</latitude>
    <longitude>-14.0333333</longitude>
  </city>
  <city name="Boro Manjang Kunda">
    <latitude>13.4166667</latitude>
    <longitude>-14.0333333</longitude>
  </city>
  <city name="Boro Modi Bane">
    <latitude>13.4333333</latitude>
    <longitude>-14.0333333</longitude>
  </city>
  <city name="Borong Kunda">
    <latitude>13.6333333</latitude>
    <longitude>-14.6</longitude>
  </city>
  <city name="Boro Sambakabaya">
    <latitude>13.4166667</latitude>
    <longitude>-14.0333333</longitude>
  </city>
  <city name="Boro Sambaya">
    <latitude>13.4166667</latitude>
    <longitude>-14.0333333</longitude>
  </city>
  <city name="Bosa">
    <latitude>13.2322222</latitude>
    <longitude>-16.7211111</longitude>
  </city>
  <city name="Bottending">
    <latitude>13.2566667</latitude>
    <longitude>-16.3177778</longitude>
  </city>
  <city name="Bowe">
    <latitude>13.4833333</latitude>
    <longitude>-14.9166667</longitude>
  </city>
  <city name="Brefet">
    <latitude>13.3333333</latitude>
    <longitude>-14.2666667</longitude>
  </city>
  <city name="Brekana">
    <latitude>13.5333333</latitude>
    <longitude>-14.9333333</longitude>
  </city>
  <city name="Brifu">
    <latitude>13.5</latitude>
    <longitude>-13.9333333</longitude>
  </city>
  <city name="Brikama Ba">
    <latitude>13.5333333</latitude>
    <longitude>-14.9333333</longitude>
  </city>
  <city name="Brikama">
    <latitude>13.5333333</latitude>
    <longitude>-14.9333333</longitude>
  </city>
  <city name="Brikama Nding">
    <latitude>13.5333333</latitude>
    <longitude>-14.9333333</longitude>
  </city>
  <city name="Brufut">
    <latitude>13.3841667</latitude>
    <longitude>-16.7513889</longitude>
  </city>
  <city name="Brufut Manjago">
    <latitude>13.3730556</latitude>
    <longitude>-16.7430556</longitude>
  </city>
  <city name="Brumen">
    <latitude>13.25</latitude>
    <longitude>-15.8333333</longitude>
  </city>
  <city name="Buchilling">
    <latitude>13.2102778</latitude>
    <longitude>-16.0280556</longitude>
  </city>
  <city name="Budayell">
    <latitude>13.3833333</latitude>
    <longitude>-15.2666667</longitude>
  </city>
  <city name="Buduck Maila Secka">
    <latitude>13.7</latitude>
    <longitude>-15.3666667</longitude>
  </city>
  <city name="Buduk">
    <latitude>13.75</latitude>
    <longitude>-15.1</longitude>
  </city>
  <city name="Buiba">
    <latitude>13.4333333</latitude>
    <longitude>-15.45</longitude>
  </city>
  <city name="Buiba Jalo Kunda">
    <latitude>13.4333333</latitude>
    <longitude>-15.45</longitude>
  </city>
  <city name="Buiba Mandinka">
    <latitude>13.4333333</latitude>
    <longitude>-15.45</longitude>
  </city>
  <city name="Buiba Musa Njadoh">
    <latitude>13.4333333</latitude>
    <longitude>-15.45</longitude>
  </city>
  <city name="Buiba Musa Sallah">
    <latitude>13.45</latitude>
    <longitude>-15.45</longitude>
  </city>
  <city name="Bukafungi">
    <latitude>13.2</latitude>
    <longitude>-16.2833333</longitude>
  </city>
  <city name="Bukari Kunda">
    <latitude>13.5</latitude>
    <longitude>-14.7166667</longitude>
  </city>
  <city name="Bulangor">
    <latitude>13.2666667</latitude>
    <longitude>-16.2666667</longitude>
  </city>
  <city name="Bulanjor">
    <latitude>13.2797222</latitude>
    <longitude>-16.2483333</longitude>
  </city>
  <city name="Bulengart">
    <latitude>13.2</latitude>
    <longitude>-15.9166667</longitude>
  </city>
  <city name="Bulghurk">
    <latitude>13.75</latitude>
    <longitude>-15.2833333</longitude>
  </city>
  <city name="Bulgurk">
    <latitude>13.75</latitude>
    <longitude>-15.2833333</longitude>
  </city>
  <city name="Bullelai">
    <latitude>13.1922222</latitude>
    <longitude>-16.2372222</longitude>
  </city>
  <city name="Bullellai">
    <latitude>13.1922222</latitude>
    <longitude>-16.2372222</longitude>
  </city>
  <city name="Bulok">
    <latitude>13.1766667</latitude>
    <longitude>-16.4158333</longitude>
  </city>
  <city name="Bulufula">
    <latitude>13.2833333</latitude>
    <longitude>-15.9166667</longitude>
  </city>
  <city name="Bulufulla">
    <latitude>13.2833333</latitude>
    <longitude>-15.9166667</longitude>
  </city>
  <city name="Bumari">
    <latitude>13.3666667</latitude>
    <longitude>-15.7666667</longitude>
  </city>
  <city name="Bundali">
    <latitude>13.2333333</latitude>
    <longitude>-15.9166667</longitude>
  </city>
  <city name="Bungiga">
    <latitude>13.2044444</latitude>
    <longitude>-16.0897222</longitude>
  </city>
  <city name="Buniadu">
    <latitude>13.55</latitude>
    <longitude>-15.3333333</longitude>
  </city>
  <city name="Bunkilling">
    <latitude>13.3330556</latitude>
    <longitude>-16.7791667</longitude>
  </city>
  <city name="Bunobor">
    <latitude>13.1833333</latitude>
    <longitude>-15.9833333</longitude>
  </city>
  <city name="Buntung">
    <latitude>13.7333333</latitude>
    <longitude>-15.2</longitude>
  </city>
  <city name="Bunubor Brikama">
    <latitude>13.1883333</latitude>
    <longitude>-16.0308333</longitude>
  </city>
  <city name="Bunubor">
    <latitude>13.1838889</latitude>
    <longitude>-16.0533333</longitude>
  </city>
  <city name="Bununka Kunda">
    <latitude>13.4272222</latitude>
    <longitude>-16.6852778</longitude>
  </city>
  <city name="Bunyai">
    <latitude>13.2241667</latitude>
    <longitude>-16.0469444</longitude>
  </city>
  <city name="Buraing">
    <latitude>13.4166667</latitude>
    <longitude>-15.2833333</longitude>
  </city>
  <city name="Buramba">
    <latitude>13.2333333</latitude>
    <longitude>-15.9166667</longitude>
  </city>
  <city name="Buram">
    <latitude>13.2580556</latitude>
    <longitude>-16.2227778</longitude>
  </city>
  <city name="Burang Ya">
    <latitude>13.5666667</latitude>
    <longitude>-15.85</longitude>
  </city>
  <city name="Burelai">
    <latitude>13.1922222</latitude>
    <longitude>-16.2372222</longitude>
  </city>
  <city name="Bureng">
    <latitude>13.4166667</latitude>
    <longitude>-15.2833333</longitude>
  </city>
  <city name="Burock">
    <latitude>13.2413889</latitude>
    <longitude>-16.0416667</longitude>
  </city>
  <city name="Burrong">
    <latitude>13.3266667</latitude>
    <longitude>-16.1794444</longitude>
  </city>
  <city name="Buruku">
    <latitude>13.4833333</latitude>
    <longitude>-14.7</longitude>
  </city>
  <city name="Busanehkai">
    <latitude>13.2333333</latitude>
    <longitude>-16.1166667</longitude>
  </city>
  <city name="Busongai">
    <latitude>13.2333333</latitude>
    <longitude>-15.8166667</longitude>
  </city>
  <city name="Busumbala">
    <latitude>13.3330556</latitude>
    <longitude>-16.6708333</longitude>
  </city>
  <city name="Busumbata">
    <latitude>13.3330556</latitude>
    <longitude>-16.6708333</longitude>
  </city>
  <city name="Busura">
    <latitude>13.6333333</latitude>
    <longitude>-15.0833333</longitude>
  </city>
  <city name="Busure">
    <latitude>13.3166667</latitude>
    <longitude>-14.5</longitude>
  </city>
  <city name="Bwiam">
    <latitude>13.2352778</latitude>
    <longitude>-16.0863889</longitude>
  </city>
  <city name="Carrols Wharf">
    <latitude>13.6833333</latitude>
    <longitude>-15.1666667</longitude>
  </city>
  <city name="Chabai">
    <latitude>13.2</latitude>
    <longitude>-15.8666667</longitude>
  </city>
  <city name="Cha Kunda">
    <latitude>13.3833333</latitude>
    <longitude>-14.5333333</longitude>
  </city>
  <city name="Chalen">
    <latitude>13.7833333</latitude>
    <longitude>-15.0</longitude>
  </city>
  <city name="Chalen Ker Bakari Salla">
    <latitude>13.7833333</latitude>
    <longitude>-15.0</longitude>
  </city>
  <city name="Chalen Ker Bakary Salla">
    <latitude>13.7833333</latitude>
    <longitude>-15.0</longitude>
  </city>
  <city name="Chamaya">
    <latitude>13.5833333</latitude>
    <longitude>-15.8333333</longitude>
  </city>
  <city name="Chamen Baka">
    <latitude>13.7166667</latitude>
    <longitude>-15.3833333</longitude>
  </city>
  <city name="Chamen">
    <latitude>13.5194444</latitude>
    <longitude>-16.3888889</longitude>
  </city>
  <city name="Chamen Sosseh">
    <latitude>13.4913889</latitude>
    <longitude>-16.2625</longitude>
  </city>
  <city name="Chamoi">
    <latitude>13.3166667</latitude>
    <longitude>-14.1666667</longitude>
  </city>
  <city name="Changai">
    <latitude>13.5833333</latitude>
    <longitude>-14.6666667</longitude>
  </city>
  <city name="Changally">
    <latitude>13.35</latitude>
    <longitude>-14.3333333</longitude>
  </city>
  <city name="Changally Chewdu">
    <latitude>13.3666667</latitude>
    <longitude>-14.3333333</longitude>
  </city>
  <city name="Changally Lankadi">
    <latitude>13.35</latitude>
    <longitude>-14.3333333</longitude>
  </city>
  <city name="Charen">
    <latitude>13.35</latitude>
    <longitude>-14.6666667</longitude>
  </city>
  <city name="Chargel">
    <latitude>13.45</latitude>
    <longitude>-14.55</longitude>
  </city>
  <city name="Charjel">
    <latitude>13.45</latitude>
    <longitude>-14.55</longitude>
  </city>
  <city name="Charmen">
    <latitude>13.7</latitude>
    <longitude>-15.1666667</longitude>
  </city>
  <city name="Charno Musa">
    <latitude>13.4166667</latitude>
    <longitude>-14.65</longitude>
  </city>
  <city name="Charnum">
    <latitude>13.4166667</latitude>
    <longitude>-13.95</longitude>
  </city>
  <city name="Checken">
    <latitude>13.5833333</latitude>
    <longitude>-15.45</longitude>
  </city>
  <city name="Cheedi Laibe Ya">
    <latitude>13.5833333</latitude>
    <longitude>-15.85</longitude>
  </city>
  <city name="Cheedy Wollof">
    <latitude>13.5833333</latitude>
    <longitude>-15.85</longitude>
  </city>
  <city name="Cheken">
    <latitude>13.6</latitude>
    <longitude>-15.05</longitude>
  </city>
  <city name="Chermo Omar">
    <latitude>13.4558333</latitude>
    <longitude>-16.3397222</longitude>
  </city>
  <city name="Cherna Musa">
    <latitude>13.4166667</latitude>
    <longitude>-14.65</longitude>
  </city>
  <city name="Cherno Omar">
    <latitude>13.4558333</latitude>
    <longitude>-16.3397222</longitude>
  </city>
  <city name="Chewal Bessell">
    <latitude>13.3666667</latitude>
    <longitude>-14.4666667</longitude>
  </city>
  <city name="Chilla">
    <latitude>13.55</latitude>
    <longitude>-16.2833333</longitude>
  </city>
  <city name="Chisay">
    <latitude>13.5</latitude>
    <longitude>-16.3</longitude>
  </city>
  <city name="Choya">
    <latitude>13.55</latitude>
    <longitude>-15.25</longitude>
  </city>
  <city name="Choyen">
    <latitude>13.65</latitude>
    <longitude>-15.4166667</longitude>
  </city>
  <city name="Cibagnari">
    <latitude>13.2094444</latitude>
    <longitude>-16.1180556</longitude>
  </city>
  <city name="Daba Kunda">
    <latitude>13.3166667</latitude>
    <longitude>-14.3</longitude>
  </city>
  <city name="Dabaly">
    <latitude>13.5166667</latitude>
    <longitude>-15.2333333</longitude>
  </city>
  <city name="Dabatu">
    <latitude>13.3666667</latitude>
    <longitude>-15.3</longitude>
  </city>
  <city name="Dafa">
    <latitude>13.6</latitude>
    <longitude>-15.4</longitude>
  </city>
  <city name="Dai">
    <latitude>13.55</latitude>
    <longitude>-15.8166667</longitude>
  </city>
  <city name="Dai Mandinka">
    <latitude>13.55</latitude>
    <longitude>-15.8166667</longitude>
  </city>
  <city name="Dalaba">
    <latitude>13.6</latitude>
    <longitude>-15.2166667</longitude>
  </city>
  <city name="Damfa Kunda">
    <latitude>13.3333333</latitude>
    <longitude>-14.1833333</longitude>
  </city>
  <city name="Dandugu">
    <latitude>13.2833333</latitude>
    <longitude>-14.1333333</longitude>
  </city>
  <city name="Dankadanka">
    <latitude>13.5166667</latitude>
    <longitude>-15.6333333</longitude>
  </city>
  <city name="Dankunko">
    <latitude>13.5666667</latitude>
    <longitude>-15.3166667</longitude>
  </city>
  <city name="Dankunku">
    <latitude>13.5666667</latitude>
    <longitude>-15.3166667</longitude>
  </city>
  <city name="Dankunku Fula">
    <latitude>13.5666667</latitude>
    <longitude>-15.3166667</longitude>
  </city>
  <city name="Daranka">
    <latitude>13.3769444</latitude>
    <longitude>-16.6286111</longitude>
  </city>
  <city name="Daresalama">
    <latitude>13.6666667</latitude>
    <longitude>-15.1</longitude>
  </city>
  <city name="Darselameh">
    <latitude>13.4833333</latitude>
    <longitude>-15.2333333</longitude>
  </city>
  <city name="Darselami">
    <latitude>13.2666667</latitude>
    <longitude>-16.0</longitude>
  </city>
  <city name="Darsilam">
    <latitude>13.5883333</latitude>
    <longitude>-16.4227778</longitude>
  </city>
  <city name="Darsilame">
    <latitude>13.3333333</latitude>
    <longitude>-14.0666667</longitude>
  </city>
  <city name="Darsilame Ker Koro">
    <latitude>13.2666667</latitude>
    <longitude>-14.15</longitude>
  </city>
  <city name="Darsilame Key Koro">
    <latitude>13.2666667</latitude>
    <longitude>-14.15</longitude>
  </city>
  <city name="Darsilami">
    <latitude>13.4</latitude>
    <longitude>-14.2666667</longitude>
  </city>
  <city name="Darsilami Jimara">
    <latitude>13.3666667</latitude>
    <longitude>-14.45</longitude>
  </city>
  <city name="Darsilami Tenda">
    <latitude>13.3666667</latitude>
    <longitude>-14.2833333</longitude>
  </city>
  <city name="Darsilane Ker Koro">
    <latitude>13.2666667</latitude>
    <longitude>-14.15</longitude>
  </city>
  <city name="Daru">
    <latitude>13.3666667</latitude>
    <longitude>-14.6166667</longitude>
  </city>
  <city name="Daru Fatiho">
    <latitude>13.4</latitude>
    <longitude>-15.3833333</longitude>
  </city>
  <city name="Darule Barakatu">
    <latitude>13.55</latitude>
    <longitude>-15.7166667</longitude>
  </city>
  <city name="Daru Lohen">
    <latitude>13.5936111</latitude>
    <longitude>-16.1322222</longitude>
  </city>
  <city name="Daru Mbaien">
    <latitude>13.8</latitude>
    <longitude>-15.1</longitude>
  </city>
  <city name="Daru Rilwan">
    <latitude>13.55</latitude>
    <longitude>-15.9833333</longitude>
  </city>
  <city name="Darusalam">
    <latitude>13.2802778</latitude>
    <longitude>-16.0161111</longitude>
  </city>
  <city name="Darusalameh">
    <latitude>13.7</latitude>
    <longitude>-14.9</longitude>
  </city>
  <city name="Darusalem">
    <latitude>13.7333333</latitude>
    <longitude>-15.1333333</longitude>
  </city>
  <city name="Dasalami">
    <latitude>13.2666667</latitude>
    <longitude>-15.95</longitude>
  </city>
  <city name="Dasilame">
    <latitude>13.5333333</latitude>
    <longitude>-14.9333333</longitude>
  </city>
  <city name="Dasilami">
    <latitude>13.5666667</latitude>
    <longitude>-15.55</longitude>
  </city>
  <city name="Dau Dula">
    <latitude>13.1444444</latitude>
    <longitude>-16.7758333</longitude>
  </city>
  <city name="Dekordeh Bah">
    <latitude>13.4458333</latitude>
    <longitude>-16.3805556</longitude>
  </city>
  <city name="Demati Kunda">
    <latitude>13.3833333</latitude>
    <longitude>-15.2666667</longitude>
  </city>
  <city name="Demba Cheesay">
    <latitude>13.7166667</latitude>
    <longitude>-15.2833333</longitude>
  </city>
  <city name="Demba Chippo">
    <latitude>13.5166667</latitude>
    <longitude>-16.3</longitude>
  </city>
  <city name="Demba Darboe">
    <latitude>13.55</latitude>
    <longitude>-15.3166667</longitude>
  </city>
  <city name="Demba Hainey">
    <latitude>13.4666667</latitude>
    <longitude>-16.3833333</longitude>
  </city>
  <city name="Demba Kale">
    <latitude>13.5833333</latitude>
    <longitude>-14.65</longitude>
  </city>
  <city name="Demba Kali">
    <latitude>13.5833333</latitude>
    <longitude>-14.65</longitude>
  </city>
  <city name="Demba Koumbel">
    <latitude>13.4666667</latitude>
    <longitude>-13.85</longitude>
  </city>
  <city name="Demba Kumbale">
    <latitude>13.4666667</latitude>
    <longitude>-13.85</longitude>
  </city>
  <city name="Demba Kunda">
    <latitude>13.6166667</latitude>
    <longitude>-14.6666667</longitude>
  </city>
  <city name="Demban">
    <latitude>13.2077778</latitude>
    <longitude>-16.3452778</longitude>
  </city>
  <city name="Demba Njai Ya">
    <latitude>13.2369444</latitude>
    <longitude>-16.6205556</longitude>
  </city>
  <city name="Dembaso">
    <latitude>13.45</latitude>
    <longitude>-14.5333333</longitude>
  </city>
  <city name="Demba Waddu">
    <latitude>13.5</latitude>
    <longitude>-14.4666667</longitude>
  </city>
  <city name="Demba Wanda">
    <latitude>13.5</latitude>
    <longitude>-14.4666667</longitude>
  </city>
  <city name="Demba Wendu">
    <latitude>13.45</latitude>
    <longitude>-14.3333333</longitude>
  </city>
  <city name="Dembel Jawor">
    <latitude>13.3166667</latitude>
    <longitude>-14.4</longitude>
  </city>
  <city name="Dembo Kumbel">
    <latitude>13.4666667</latitude>
    <longitude>-13.85</longitude>
  </city>
  <city name="Demfai">
    <latitude>13.6166667</latitude>
    <longitude>-14.65</longitude>
  </city>
  <city name="Demfai Karim">
    <latitude>13.6333333</latitude>
    <longitude>-14.65</longitude>
  </city>
  <city name="Demfai Njaga">
    <latitude>13.6166667</latitude>
    <longitude>-14.65</longitude>
  </city>
  <city name="Denton">
    <latitude>13.5</latitude>
    <longitude>-14.9333333</longitude>
  </city>
  <city name="Dewru">
    <latitude>13.2627778</latitude>
    <longitude>-16.6277778</longitude>
  </city>
  <city name="Deya">
    <latitude>13.2427778</latitude>
    <longitude>-16.7491667</longitude>
  </city>
  <city name="Diabugu Basilla">
    <latitude>13.3333333</latitude>
    <longitude>-13.95</longitude>
  </city>
  <city name="Diabugu">
    <latitude>13.3666667</latitude>
    <longitude>-13.9833333</longitude>
  </city>
  <city name="Diabugu Tenda">
    <latitude>13.3833333</latitude>
    <longitude>-14.4166667</longitude>
  </city>
  <city name="Diemballa Ker Cherno">
    <latitude>13.75</latitude>
    <longitude>-15.4</longitude>
  </city>
  <city name="Diemballa Ker Madi">
    <latitude>13.7333333</latitude>
    <longitude>-15.4</longitude>
  </city>
  <city name="Diemballa Ker Musa">
    <latitude>13.75</latitude>
    <longitude>-15.4</longitude>
  </city>
  <city name="Digante">
    <latitude>13.3666667</latitude>
    <longitude>-15.4333333</longitude>
  </city>
  <city name="Diganteh">
    <latitude>13.3666667</latitude>
    <longitude>-15.4333333</longitude>
  </city>
  <city name="Dimbaga">
    <latitude>13.5438889</latitude>
    <longitude>-16.3641667</longitude>
  </city>
  <city name="Dingarai">
    <latitude>13.7666667</latitude>
    <longitude>-14.9166667</longitude>
  </city>
  <city name="Dingirie">
    <latitude>13.75</latitude>
    <longitude>-14.9166667</longitude>
  </city>
  <city name="Dinguiri">
    <latitude>13.2833333</latitude>
    <longitude>-14.0666667</longitude>
  </city>
  <city name="Dinguirin">
    <latitude>13.2833333</latitude>
    <longitude>-14.0666667</longitude>
  </city>
  <city name="Dinkirai">
    <latitude>13.3833333</latitude>
    <longitude>-15.2666667</longitude>
  </city>
  <city name="Dipa Kunda">
    <latitude>13.5666667</latitude>
    <longitude>-15.4666667</longitude>
  </city>
  <city name="Dipa Kunda Wollof">
    <latitude>13.5666667</latitude>
    <longitude>-15.4666667</longitude>
  </city>
  <city name="Dippa Kunda">
    <latitude>13.4402778</latitude>
    <longitude>-16.6869444</longitude>
  </city>
  <city name="Dirboko">
    <latitude>13.3833333</latitude>
    <longitude>-14.4</longitude>
  </city>
  <city name="Djalabango">
    <latitude>13.2805556</latitude>
    <longitude>-16.6786111</longitude>
  </city>
  <city name="Djan Counda">
    <latitude>13.4166667</latitude>
    <longitude>-13.8666667</longitude>
  </city>
  <city name="Djifanga">
    <latitude>13.1705556</latitude>
    <longitude>-16.1922222</longitude>
  </city>
  <city name="Doba Kunda">
    <latitude>13.3166667</latitude>
    <longitude>-14.3</longitude>
  </city>
  <city name="Dobang Kunda">
    <latitude>13.4166667</latitude>
    <longitude>-14.6333333</longitude>
  </city>
  <city name="Dobbo">
    <latitude>13.4666667</latitude>
    <longitude>-14.6333333</longitude>
  </city>
  <city name="Dobo">
    <latitude>13.4666667</latitude>
    <longitude>-14.6333333</longitude>
  </city>
  <city name="Dobong">
    <latitude>13.2416667</latitude>
    <longitude>-16.0738889</longitude>
  </city>
  <city name="Doke Alla">
    <latitude>13.7166667</latitude>
    <longitude>-14.9</longitude>
  </city>
  <city name="Doki Alla">
    <latitude>13.7166667</latitude>
    <longitude>-14.9</longitude>
  </city>
  <city name="Dongoro Ba">
    <latitude>13.3666667</latitude>
    <longitude>-15.35</longitude>
  </city>
  <city name="Dongoro">
    <latitude>13.3833333</latitude>
    <longitude>-15.2833333</longitude>
  </city>
  <city name="Dongoro Nding">
    <latitude>13.4666667</latitude>
    <longitude>-15.2166667</longitude>
  </city>
  <city name="Douassu">
    <latitude>13.1944444</latitude>
    <longitude>-16.5508333</longitude>
  </city>
  <city name="Dramane">
    <latitude>13.4333333</latitude>
    <longitude>-14.1166667</longitude>
  </city>
  <city name="Drame Joka">
    <latitude>13.5652778</latitude>
    <longitude>-16.1577778</longitude>
  </city>
  <city name="Drame Joku">
    <latitude>13.5652778</latitude>
    <longitude>-16.1577778</longitude>
  </city>
  <city name="Dula Kunda">
    <latitude>13.3166667</latitude>
    <longitude>-14.3</longitude>
  </city>
  <city name="Duma Sansang">
    <latitude>13.5166667</latitude>
    <longitude>-15.2833333</longitude>
  </city>
  <city name="Dumbutto">
    <latitude>13.2561111</latitude>
    <longitude>-16.0444444</longitude>
  </city>
  <city name="Dumbuttu">
    <latitude>13.35</latitude>
    <longitude>-15.8333333</longitude>
  </city>
  <city name="Dumbutu">
    <latitude>13.35</latitude>
    <longitude>-15.8333333</longitude>
  </city>
  <city name="Dumfoya">
    <latitude>13.4166667</latitude>
    <longitude>-14.2166667</longitude>
  </city>
  <city name="Dumungkareh">
    <latitude>13.3833333</latitude>
    <longitude>-16.3</longitude>
  </city>
  <city name="Dungal">
    <latitude>13.5</latitude>
    <longitude>-14.8333333</longitude>
  </city>
  <city name="Dungu">
    <latitude>13.5586111</latitude>
    <longitude>-16.3516667</longitude>
  </city>
  <city name="Duniajoe">
    <latitude>13.5702778</latitude>
    <longitude>-16.4669444</longitude>
  </city>
  <city name="Dunyo Joyo">
    <latitude>13.5702778</latitude>
    <longitude>-16.4669444</longitude>
  </city>
  <city name="Duonki">
    <latitude>13.1666667</latitude>
    <longitude>-15.8166667</longitude>
  </city>
  <city name="Dutabulu">
    <latitude>13.5666667</latitude>
    <longitude>-15.6166667</longitude>
  </city>
  <city name="Dutta Bullu">
    <latitude>13.5666667</latitude>
    <longitude>-15.6166667</longitude>
  </city>
  <city name="Ebadong">
    <latitude>13.4</latitude>
    <longitude>-14.6</longitude>
  </city>
  <city name="Eboe Town">
    <latitude>13.4352778</latitude>
    <longitude>-16.6763889</longitude>
  </city>
  <city name="Eloi">
    <latitude>13.25</latitude>
    <longitude>-16.2672222</longitude>
  </city>
  <city name="Elol">
    <latitude>13.25</latitude>
    <longitude>-16.2672222</longitude>
  </city>
  <city name="Erangalain">
    <latitude>13.2066667</latitude>
    <longitude>-16.1469444</longitude>
  </city>
  <city name="Essau">
    <latitude>13.4838889</latitude>
    <longitude>-16.5347222</longitude>
  </city>
  <city name="Faarla">
    <latitude>13.2847222</latitude>
    <longitude>-16.7644444</longitude>
  </city>
  <city name="Fadia Kunda">
    <latitude>13.6</latitude>
    <longitude>-15.0333333</longitude>
  </city>
  <city name="Fadiya Kunda">
    <latitude>13.4833333</latitude>
    <longitude>-14.2</longitude>
  </city>
  <city name="Fafanding">
    <latitude>13.5652778</latitude>
    <longitude>-16.3791667</longitude>
  </city>
  <city name="Fafending">
    <latitude>13.5652778</latitude>
    <longitude>-16.3791667</longitude>
  </city>
  <city name="Fajara">
    <latitude>13.47</latitude>
    <longitude>-16.6963889</longitude>
  </city>
  <city name="Faji Kunda">
    <latitude>13.4177778</latitude>
    <longitude>-16.6666667</longitude>
  </city>
  <city name="Famori">
    <latitude>13.55</latitude>
    <longitude>-16.0833333</longitude>
  </city>
  <city name="Fantumbu">
    <latitude>13.4</latitude>
    <longitude>-13.8666667</longitude>
  </city>
  <city name="Faraba Banta">
    <latitude>13.2472222</latitude>
    <longitude>-16.5263889</longitude>
  </city>
  <city name="Faraba Bantang">
    <latitude>13.2613889</latitude>
    <longitude>-16.52</longitude>
  </city>
  <city name="Faraba">
    <latitude>13.5333333</latitude>
    <longitude>-14.8166667</longitude>
  </city>
  <city name="Faraba Soto">
    <latitude>13.2033333</latitude>
    <longitude>-16.4844444</longitude>
  </city>
  <city name="Faraba Sutu">
    <latitude>13.2033333</latitude>
    <longitude>-16.4844444</longitude>
  </city>
  <city name="Farafenni">
    <latitude>13.5666667</latitude>
    <longitude>-15.6</longitude>
  </city>
  <city name="Farakunda">
    <latitude>13.3091667</latitude>
    <longitude>-16.7786111</longitude>
  </city>
  <city name="Fara Kunku">
    <latitude>13.3091667</latitude>
    <longitude>-16.7786111</longitude>
  </city>
  <city name="Faranabe">
    <latitude>13.3833333</latitude>
    <longitude>-14.5666667</longitude>
  </city>
  <city name="Farato">
    <latitude>13.55</latitude>
    <longitude>-15.4333333</longitude>
  </city>
  <city name="Farba N' Daw">
    <latitude>13.65</latitude>
    <longitude>-15.4166667</longitude>
  </city>
  <city name="Farem-Toumbo">
    <latitude>13.4</latitude>
    <longitude>-13.8666667</longitude>
  </city>
  <city name="Farintumbu">
    <latitude>13.4</latitude>
    <longitude>-13.8666667</longitude>
  </city>
  <city name="Farlah">
    <latitude>13.2847222</latitude>
    <longitude>-16.7644444</longitude>
  </city>
  <city name="Faro Ya">
    <latitude>13.4</latitude>
    <longitude>-15.45</longitude>
  </city>
  <city name="Fas Abdou">
    <latitude>13.4666667</latitude>
    <longitude>-14.9166667</longitude>
  </city>
  <city name="Fas">
    <latitude>13.4666667</latitude>
    <longitude>-14.9166667</longitude>
  </city>
  <city name="Fas Maundeh">
    <latitude>13.6</latitude>
    <longitude>-14.85</longitude>
  </city>
  <city name="Fas Omar Sahor">
    <latitude>13.4613889</latitude>
    <longitude>-16.3825</longitude>
  </city>
  <city name="Fass Bamba">
    <latitude>13.8</latitude>
    <longitude>-15.0666667</longitude>
  </city>
  <city name="Fass">
    <latitude>13.5833333</latitude>
    <longitude>-15.6166667</longitude>
  </city>
  <city name="Fass Mbaien">
    <latitude>13.7166667</latitude>
    <longitude>-15.4333333</longitude>
  </city>
  <city name="Fass Njama">
    <latitude>13.7666667</latitude>
    <longitude>-15.1833333</longitude>
  </city>
  <city name="Fass Omar Sahor">
    <latitude>13.4613889</latitude>
    <longitude>-16.3825</longitude>
  </city>
  <city name="Fatako">
    <latitude>13.35</latitude>
    <longitude>-14.4</longitude>
  </city>
  <city name="Fatotenda">
    <latitude>13.45</latitude>
    <longitude>-14.0666667</longitude>
  </city>
  <city name="Fatoto">
    <latitude>13.4</latitude>
    <longitude>-13.9</longitude>
  </city>
  <city name="Fattatenda">
    <latitude>13.45</latitude>
    <longitude>-14.0666667</longitude>
  </city>
  <city name="Felleng Kotor">
    <latitude>13.4666667</latitude>
    <longitude>-15.2333333</longitude>
  </city>
  <city name="Felling Kotor">
    <latitude>13.4666667</latitude>
    <longitude>-15.2333333</longitude>
  </city>
  <city name="Findefeto">
    <latitude>13.3833333</latitude>
    <longitude>-14.1166667</longitude>
  </city>
  <city name="Findofato">
    <latitude>13.3833333</latitude>
    <longitude>-14.1166667</longitude>
  </city>
  <city name="Firdausy">
    <latitude>13.7833333</latitude>
    <longitude>-14.9333333</longitude>
  </city>
  <city name="Fitu">
    <latitude>13.6</latitude>
    <longitude>-14.7</longitude>
  </city>
  <city name="Fitu Fula">
    <latitude>13.5833333</latitude>
    <longitude>-14.7</longitude>
  </city>
  <city name="Fitu Wollof">
    <latitude>13.6</latitude>
    <longitude>-14.7</longitude>
  </city>
  <city name="Fode Kounda">
    <latitude>13.5</latitude>
    <longitude>-13.9333333</longitude>
  </city>
  <city name="Fode Kunda">
    <latitude>13.5</latitude>
    <longitude>-13.9333333</longitude>
  </city>
  <city name="Fody Biran">
    <latitude>13.5883333</latitude>
    <longitude>-16.0091667</longitude>
  </city>
  <city name="Folonko">
    <latitude>13.0908333</latitude>
    <longitude>-16.7616667</longitude>
  </city>
  <city name="Fonkoi Kunda">
    <latitude>13.3833333</latitude>
    <longitude>-15.5666667</longitude>
  </city>
  <city name="Fori">
    <latitude>13.35</latitude>
    <longitude>-14.6666667</longitude>
  </city>
  <city name="Forlolor">
    <latitude>13.4</latitude>
    <longitude>-15.4</longitude>
  </city>
  <city name="Fuka">
    <latitude>13.4666667</latitude>
    <longitude>-14.7</longitude>
  </city>
  <city name="Fula Bantang">
    <latitude>13.5</latitude>
    <longitude>-14.8333333</longitude>
  </city>
  <city name="Fula">
    <latitude>13.35</latitude>
    <longitude>-14.0166667</longitude>
  </city>
  <city name="Fula Kolon">
    <latitude>13.6333333</latitude>
    <longitude>-15.1166667</longitude>
  </city>
  <city name="Fula Kolong">
    <latitude>13.6333333</latitude>
    <longitude>-15.1166667</longitude>
  </city>
  <city name="Fula Kulda">
    <latitude>13.2691667</latitude>
    <longitude>-16.6311111</longitude>
  </city>
  <city name="Fula Kunda">
    <latitude>13.5833333</latitude>
    <longitude>-14.8333333</longitude>
  </city>
  <city name="Fula Kunku">
    <latitude>13.2733333</latitude>
    <longitude>-16.7494444</longitude>
  </city>
  <city name="Fula More Boche">
    <latitude>13.3</latitude>
    <longitude>-14.35</longitude>
  </city>
  <city name="Funtang">
    <latitude>13.17</latitude>
    <longitude>-16.0797222</longitude>
  </city>
  <city name="Futa Yel">
    <latitude>13.4333333</latitude>
    <longitude>-14.7</longitude>
  </city>
  <city name="Gadafaro">
    <latitude>13.4</latitude>
    <longitude>-13.9</longitude>
  </city>
  <city name="Galleh Jolloff">
    <latitude>13.4333333</latitude>
    <longitude>-14.8</longitude>
  </city>
  <city name="Galleh Jollof">
    <latitude>13.4333333</latitude>
    <longitude>-14.8</longitude>
  </city>
  <city name="Galleh Manda">
    <latitude>13.4333333</latitude>
    <longitude>-14.7833333</longitude>
  </city>
  <city name="Galleh Wollof">
    <latitude>13.4333333</latitude>
    <longitude>-14.8</longitude>
  </city>
  <city name="Gallo-ya">
    <latitude>13.3311111</latitude>
    <longitude>-16.6175</longitude>
  </city>
  <city name="Gallo Ya">
    <latitude>13.5833333</latitude>
    <longitude>-15.8</longitude>
  </city>
  <city name="Galowya">
    <latitude>13.3311111</latitude>
    <longitude>-16.6175</longitude>
  </city>
  <city name="Gambissara Bondoh">
    <latitude>13.2666667</latitude>
    <longitude>-14.3</longitude>
  </city>
  <city name="Gambissara Fula">
    <latitude>13.2666667</latitude>
    <longitude>-14.3</longitude>
  </city>
  <city name="Gambissara">
    <latitude>13.2333333</latitude>
    <longitude>-14.3166667</longitude>
  </city>
  <city name="Gambissara Jawo">
    <latitude>13.25</latitude>
    <longitude>-14.3</longitude>
  </city>
  <city name="Gambissara Jawor">
    <latitude>13.25</latitude>
    <longitude>-14.3</longitude>
  </city>
  <city name="Gambissar">
    <latitude>13.3166667</latitude>
    <longitude>-13.95</longitude>
  </city>
  <city name="Garawol">
    <latitude>13.4166667</latitude>
    <longitude>-13.95</longitude>
  </city>
  <city name="Gauwa">
    <latitude>13.6</latitude>
    <longitude>-15.15</longitude>
  </city>
  <city name="Gayen Pate Gaie">
    <latitude>13.35</latitude>
    <longitude>-14.6833333</longitude>
  </city>
  <city name="Gayo">
    <latitude>13.5333333</latitude>
    <longitude>-14.1</longitude>
  </city>
  <city name="Gebangarr">
    <latitude>13.2025</latitude>
    <longitude>-16.1072222</longitude>
  </city>
  <city name="Gembissara">
    <latitude>13.3166667</latitude>
    <longitude>-13.95</longitude>
  </city>
  <city name="Genge">
    <latitude>13.7166667</latitude>
    <longitude>-15.3833333</longitude>
  </city>
  <city name="Genge Tukulor">
    <latitude>13.7333333</latitude>
    <longitude>-15.3833333</longitude>
  </city>
  <city name="Genge Wollof">
    <latitude>13.7166667</latitude>
    <longitude>-15.3833333</longitude>
  </city>
  <city name="Genieri">
    <latitude>13.4166667</latitude>
    <longitude>-15.6166667</longitude>
  </city>
  <city name="Georgetown">
    <latitude>13.5333333</latitude>
    <longitude>-14.7666667</longitude>
  </city>
  <city name="Ghana Town">
    <latitude>13.3844444</latitude>
    <longitude>-16.7711111</longitude>
  </city>
  <city name="Gibanak">
    <latitude>13.2141667</latitude>
    <longitude>-16.1408333</longitude>
  </city>
  <city name="Gidda">
    <latitude>13.4666667</latitude>
    <longitude>-14.8833333</longitude>
  </city>
  <city name="Giffin">
    <latitude>13.4166667</latitude>
    <longitude>-15.5833333</longitude>
  </city>
  <city name="Gikis Dandon">
    <latitude>13.1705556</latitude>
    <longitude>-16.0663889</longitude>
  </city>
  <city name="Gikis">
    <latitude>13.1705556</latitude>
    <longitude>-16.0663889</longitude>
  </city>
  <city name="Gillangel">
    <latitude>13.3333333</latitude>
    <longitude>-14.45</longitude>
  </city>
  <city name="Ginak Kajata">
    <latitude>13.5813889</latitude>
    <longitude>-16.5275</longitude>
  </city>
  <city name="Ginak Niji">
    <latitude>13.5744444</latitude>
    <longitude>-16.525</longitude>
  </city>
  <city name="Giniah">
    <latitude>13.2280556</latitude>
    <longitude>-16.0913889</longitude>
  </city>
  <city name="Ginoi">
    <latitude>13.4833333</latitude>
    <longitude>-15.5666667</longitude>
  </city>
  <city name="Giroba">
    <latitude>13.3</latitude>
    <longitude>-14.2</longitude>
  </city>
  <city name="Giroba Kunda">
    <latitude>13.3</latitude>
    <longitude>-14.2</longitude>
  </city>
  <city name="Gissay">
    <latitude>13.3108333</latitude>
    <longitude>-16.0883333</longitude>
  </city>
  <city name="Guidi Musa">
    <latitude>13.4666667</latitude>
    <longitude>-14.8333333</longitude>
  </city>
  <city name="Gui Jahanka">
    <latitude>13.7333333</latitude>
    <longitude>-15.2166667</longitude>
  </city>
  <city name="Gungorong">
    <latitude>13.7166667</latitude>
    <longitude>-14.8666667</longitude>
  </city>
  <city name="Gunjur">
    <latitude>13.6666667</latitude>
    <longitude>-15.0333333</longitude>
  </city>
  <city name="Gunjur Kuta">
    <latitude>13.5333333</latitude>
    <longitude>-14.1166667</longitude>
  </city>
  <city name="Gunkeru">
    <latitude>13.7166667</latitude>
    <longitude>-15.3833333</longitude>
  </city>
  <city name="Gunkoru Ker Hamet">
    <latitude>13.7166667</latitude>
    <longitude>-15.3833333</longitude>
  </city>
  <city name="Gunkoru Tukulor">
    <latitude>13.7166667</latitude>
    <longitude>-15.3833333</longitude>
  </city>
  <city name="Gunkoru Wolloff">
    <latitude>13.7166667</latitude>
    <longitude>-15.3833333</longitude>
  </city>
  <city name="Gunkoru Wollof">
    <latitude>13.7166667</latitude>
    <longitude>-15.3833333</longitude>
  </city>
  <city name="Hai-Rewan">
    <latitude>13.65</latitude>
    <longitude>-15.0833333</longitude>
  </city>
  <city name="Hamadalie">
    <latitude>13.3833333</latitude>
    <longitude>-14.2666667</longitude>
  </city>
  <city name="Hamawda">
    <latitude>13.4883333</latitude>
    <longitude>-16.4108333</longitude>
  </city>
  <city name="Hamdalae">
    <latitude>13.5</latitude>
    <longitude>-14.95</longitude>
  </city>
  <city name="Hamdalai">
    <latitude>13.3833333</latitude>
    <longitude>-15.3666667</longitude>
  </city>
  <city name="Hamdalie">
    <latitude>13.7833333</latitude>
    <longitude>-14.8666667</longitude>
  </city>
  <city name="Hela Kunda">
    <latitude>13.3</latitude>
    <longitude>-14.3666667</longitude>
  </city>
  <city name="Herabeh Konoh">
    <latitude>13.4833333</latitude>
    <longitude>-16.4333333</longitude>
  </city>
  <city name="Heramakono">
    <latitude>13.4333333</latitude>
    <longitude>-13.85</longitude>
  </city>
  <city name="Hibra">
    <latitude>13.7333333</latitude>
    <longitude>-15.3833333</longitude>
  </city>
  <city name="Hoi">
    <latitude>13.6666667</latitude>
    <longitude>-15.4</longitude>
  </city>
  <city name="Hosnan">
    <latitude>13.8</latitude>
    <longitude>-15.0166667</longitude>
  </city>
  <city name="How Ba">
    <latitude>13.2722222</latitude>
    <longitude>-16.7994444</longitude>
  </city>
  <city name="Ibo Town">
    <latitude>13.4352778</latitude>
    <longitude>-16.6763889</longitude>
  </city>
  <city name="Ida">
    <latitude>13.6666667</latitude>
    <longitude>-14.9333333</longitude>
  </city>
  <city name="Illiassa">
    <latitude>13.5666667</latitude>
    <longitude>-15.75</longitude>
  </city>
  <city name="India Baddibu">
    <latitude>13.5666667</latitude>
    <longitude>-15.75</longitude>
  </city>
  <city name="India">
    <latitude>13.5666667</latitude>
    <longitude>-15.75</longitude>
  </city>
  <city name="Inoman">
    <latitude>13.4333333</latitude>
    <longitude>-16.35</longitude>
  </city>
  <city name="Jababa">
    <latitude>13.3666667</latitude>
    <longitude>-14.3666667</longitude>
  </city>
  <city name="Jaba">
    <latitude>13.4333333</latitude>
    <longitude>-15.2166667</longitude>
  </city>
  <city name="Jabang">
    <latitude>13.3594444</latitude>
    <longitude>-16.7094444</longitude>
  </city>
  <city name="Jabbi Kunda">
    <latitude>13.5</latitude>
    <longitude>-15.6166667</longitude>
  </city>
  <city name="Jabel Kunda">
    <latitude>13.4</latitude>
    <longitude>-14.65</longitude>
  </city>
  <city name="Jabisa">
    <latitude>13.4666667</latitude>
    <longitude>-15.4666667</longitude>
  </city>
  <city name="Jabis">
    <latitude>13.4666667</latitude>
    <longitude>-15.4666667</longitude>
  </city>
  <city name="Jafai">
    <latitude>13.6666667</latitude>
    <longitude>-15.0833333</longitude>
  </city>
  <city name="Jafini">
    <latitude>13.4166667</latitude>
    <longitude>-15.4166667</longitude>
  </city>
  <city name="Jagel">
    <latitude>13.1916667</latitude>
    <longitude>-16.3688889</longitude>
  </city>
  <city name="Jaggle">
    <latitude>13.75</latitude>
    <longitude>-15.25</longitude>
  </city>
  <city name="Jaggli">
    <latitude>13.75</latitude>
    <longitude>-15.25</longitude>
  </city>
  <city name="Jagle">
    <latitude>13.75</latitude>
    <longitude>-15.2666667</longitude>
  </city>
  <city name="Jago">
    <latitude>13.5333333</latitude>
    <longitude>-16.2</longitude>
  </city>
  <city name="Jahabi">
    <latitude>13.3666667</latitude>
    <longitude>-14.3666667</longitude>
  </city>
  <city name="Jaha">
    <latitude>13.4166667</latitude>
    <longitude>-14.1166667</longitude>
  </city>
  <city name="Jahajan">
    <latitude>13.5833333</latitude>
    <longitude>-15.75</longitude>
  </city>
  <city name="Jahajari">
    <latitude>13.5833333</latitude>
    <longitude>-15.75</longitude>
  </city>
  <city name="Jaha Madina">
    <latitude>13.35</latitude>
    <longitude>-14.3166667</longitude>
  </city>
  <city name="Jahatuje">
    <latitude>13.5333333</latitude>
    <longitude>-14.1</longitude>
  </city>
  <city name="Jahawur Mandinka">
    <latitude>13.7</latitude>
    <longitude>-15.3666667</longitude>
  </city>
  <city name="Jahawur Tukulor">
    <latitude>13.7</latitude>
    <longitude>-15.3666667</longitude>
  </city>
  <city name="Jaidina">
    <latitude>13.4</latitude>
    <longitude>-15.5166667</longitude>
  </city>
  <city name="Jailan">
    <latitude>13.7166667</latitude>
    <longitude>-15.0166667</longitude>
  </city>
  <city name="Jaiteh Kunda">
    <latitude>13.5333333</latitude>
    <longitude>-15.2666667</longitude>
  </city>
  <city name="Jakaba">
    <latitude>13.65</latitude>
    <longitude>-14.8833333</longitude>
  </city>
  <city name="Jakadia">
    <latitude>13.5833333</latitude>
    <longitude>-15.75</longitude>
  </city>
  <city name="Jakau">
    <latitude>13.7</latitude>
    <longitude>-15.35</longitude>
  </city>
  <city name="Jakau-ur">
    <latitude>13.7</latitude>
    <longitude>-15.35</longitude>
  </city>
  <city name="Jakau-ur Sinchu">
    <latitude>13.7</latitude>
    <longitude>-15.35</longitude>
  </city>
  <city name="Jakhaly">
    <latitude>13.55</latitude>
    <longitude>-14.9666667</longitude>
  </city>
  <city name="Jakin">
    <latitude>13.1672222</latitude>
    <longitude>-16.2316667</longitude>
  </city>
  <city name="Jakisu">
    <latitude>13.1861111</latitude>
    <longitude>-16.2430556</longitude>
  </city>
  <city name="Jakoe">
    <latitude>13.2280556</latitude>
    <longitude>-16.1752778</longitude>
  </city>
  <city name="Jakoi Bintang">
    <latitude>13.2269444</latitude>
    <longitude>-16.2438889</longitude>
  </city>
  <city name="Jakoi">
    <latitude>13.2333333</latitude>
    <longitude>-16.3</longitude>
  </city>
  <city name="Jakoi Sibrik">
    <latitude>13.2708333</latitude>
    <longitude>-16.2922222</longitude>
  </city>
  <city name="Jako Kanjeru">
    <latitude>13.2280556</latitude>
    <longitude>-16.1752778</longitude>
  </city>
  <city name="Ja Koto">
    <latitude>13.65</latitude>
    <longitude>-15.3166667</longitude>
  </city>
  <city name="Jakotto">
    <latitude>13.65</latitude>
    <longitude>-15.3166667</longitude>
  </city>
  <city name="Jalaba">
    <latitude>13.3833333</latitude>
    <longitude>-15.3666667</longitude>
  </city>
  <city name="Jala Koto">
    <latitude>13.55</latitude>
    <longitude>-14.6666667</longitude>
  </city>
  <city name="Jalakoto">
    <latitude>13.205</latitude>
    <longitude>-16.2886111</longitude>
  </city>
  <city name="Jala Kunda">
    <latitude>13.2333333</latitude>
    <longitude>-14.3333333</longitude>
  </city>
  <city name="Jalambantang">
    <latitude>13.1958333</latitude>
    <longitude>-16.6280556</longitude>
  </city>
  <city name="Jalangbereh">
    <latitude>13.3833333</latitude>
    <longitude>-15.4</longitude>
  </city>
  <city name="Jalato Ali">
    <latitude>13.6666667</latitude>
    <longitude>-15.4166667</longitude>
  </city>
  <city name="Jalato Nderry">
    <latitude>13.6666667</latitude>
    <longitude>-15.4166667</longitude>
  </city>
  <city name="Jalato Sololi Mena">
    <latitude>13.6666667</latitude>
    <longitude>-15.4</longitude>
  </city>
  <city name="Jalew">
    <latitude>13.1833333</latitude>
    <longitude>-15.9333333</longitude>
  </city>
  <city name="Jali">
    <latitude>13.35</latitude>
    <longitude>-15.9666667</longitude>
  </city>
  <city name="Jali Kunda">
    <latitude>13.5666667</latitude>
    <longitude>-15.85</longitude>
  </city>
  <city name="Jallakotto">
    <latitude>13.6333333</latitude>
    <longitude>-15.3166667</longitude>
  </city>
  <city name="Jallal">
    <latitude>13.6166667</latitude>
    <longitude>-14.5</longitude>
  </city>
  <city name="Jallo Koto">
    <latitude>13.6333333</latitude>
    <longitude>-15.3166667</longitude>
  </city>
  <city name="Jallow Koto">
    <latitude>13.6333333</latitude>
    <longitude>-15.3166667</longitude>
  </city>
  <city name="Jallow Kunda">
    <latitude>13.35</latitude>
    <longitude>-15.3833333</longitude>
  </city>
  <city name="Jally Kunda">
    <latitude>13.55</latitude>
    <longitude>-15.75</longitude>
  </city>
  <city name="Jalo Kunda Abdu Secka">
    <latitude>13.7666667</latitude>
    <longitude>-14.9833333</longitude>
  </city>
  <city name="Jalo Kunda Bakari Sabali">
    <latitude>13.75</latitude>
    <longitude>-14.9666667</longitude>
  </city>
  <city name="Jalo Kunda Demba Sira">
    <latitude>13.7666667</latitude>
    <longitude>-14.9666667</longitude>
  </city>
  <city name="Jalo Kunda Fula">
    <latitude>13.75</latitude>
    <longitude>-14.9666667</longitude>
  </city>
  <city name="Jalo Kunda">
    <latitude>13.7833333</latitude>
    <longitude>-15.0</longitude>
  </city>
  <city name="Jalo Kunda Malick N'Yang">
    <latitude>13.75</latitude>
    <longitude>-14.9666667</longitude>
  </city>
  <city name="Jalo Kunda Mat Mbye">
    <latitude>13.7666667</latitude>
    <longitude>-14.9833333</longitude>
  </city>
  <city name="Jalo Kunda Sering Ceesay">
    <latitude>13.75</latitude>
    <longitude>-14.9833333</longitude>
  </city>
  <city name="Jaluby">
    <latitude>13.5833333</latitude>
    <longitude>-14.5833333</longitude>
  </city>
  <city name="Jaluby Koto">
    <latitude>13.6</latitude>
    <longitude>-14.6166667</longitude>
  </city>
  <city name="Jaluby Tukulor">
    <latitude>13.55</latitude>
    <longitude>-14.55</longitude>
  </city>
  <city name="Jamagain">
    <latitude>13.7666667</latitude>
    <longitude>-15.0166667</longitude>
  </city>
  <city name="Jamagen">
    <latitude>13.5666667</latitude>
    <longitude>-15.45</longitude>
  </city>
  <city name="Jama Gen">
    <latitude>13.65</latitude>
    <longitude>-14.65</longitude>
  </city>
  <city name="Jama">
    <latitude>13.65</latitude>
    <longitude>-15.3</longitude>
  </city>
  <city name="Jama Ken">
    <latitude>13.5336111</latitude>
    <longitude>-16.2530556</longitude>
  </city>
  <city name="Jamali Babou">
    <latitude>13.5666667</latitude>
    <longitude>-14.7666667</longitude>
  </city>
  <city name="Jamali Bere Jallow">
    <latitude>13.5833333</latitude>
    <longitude>-14.7666667</longitude>
  </city>
  <city name="Jamali Ganiado Njie">
    <latitude>13.5666667</latitude>
    <longitude>-14.75</longitude>
  </city>
  <city name="Jamali">
    <latitude>13.5833333</latitude>
    <longitude>-15.1833333</longitude>
  </city>
  <city name="Jamali Momodou Kuta">
    <latitude>13.5833333</latitude>
    <longitude>-14.75</longitude>
  </city>
  <city name="Jamali Tamsin Musa">
    <latitude>13.5833333</latitude>
    <longitude>-14.7666667</longitude>
  </city>
  <city name="Jamali Tamsir Secka">
    <latitude>13.5666667</latitude>
    <longitude>-14.7666667</longitude>
  </city>
  <city name="Jamal Mballo">
    <latitude>13.5833333</latitude>
    <longitude>-15.5166667</longitude>
  </city>
  <city name="Jamaly">
    <latitude>13.5833333</latitude>
    <longitude>-14.75</longitude>
  </city>
  <city name="Jamara">
    <latitude>13.6</latitude>
    <longitude>-15.2166667</longitude>
  </city>
  <city name="Jamara Nema">
    <latitude>13.6</latitude>
    <longitude>-15.2166667</longitude>
  </city>
  <city name="Jamara Wollof">
    <latitude>13.6</latitude>
    <longitude>-15.2333333</longitude>
  </city>
  <city name="Jamari">
    <latitude>13.5833333</latitude>
    <longitude>-14.75</longitude>
  </city>
  <city name="Jamarli">
    <latitude>13.5833333</latitude>
    <longitude>-14.75</longitude>
  </city>
  <city name="Jambanjali">
    <latitude>13.2802778</latitude>
    <longitude>-16.7294444</longitude>
  </city>
  <city name="Jambanjeli">
    <latitude>13.2802778</latitude>
    <longitude>-16.7294444</longitude>
  </city>
  <city name="Jambanya">
    <latitude>13.5333333</latitude>
    <longitude>-15.5166667</longitude>
  </city>
  <city name="Jambaruya">
    <latitude>13.5</latitude>
    <longitude>-14.1833333</longitude>
  </city>
  <city name="Jambour">
    <latitude>13.3155556</latitude>
    <longitude>-16.7019444</longitude>
  </city>
  <city name="Jambur">
    <latitude>13.3155556</latitude>
    <longitude>-16.7019444</longitude>
  </city>
  <city name="Jamisa">
    <latitude>13.4166667</latitude>
    <longitude>-16.7166667</longitude>
  </city>
  <city name="Jammeh Kunda">
    <latitude>13.5</latitude>
    <longitude>-16.0</longitude>
  </city>
  <city name="Jammi Kunda">
    <latitude>13.5</latitude>
    <longitude>-16.0</longitude>
  </city>
  <city name="Jamu">
    <latitude>13.3833333</latitude>
    <longitude>-14.7333333</longitude>
  </city>
  <city name="Jamweley">
    <latitude>13.2508333</latitude>
    <longitude>-16.6388889</longitude>
  </city>
  <city name="Jamwell">
    <latitude>13.55</latitude>
    <longitude>-15.3166667</longitude>
  </city>
  <city name="Jamwelly">
    <latitude>13.4666667</latitude>
    <longitude>-14.45</longitude>
  </city>
  <city name="Jamwilli">
    <latitude>13.7166667</latitude>
    <longitude>-15.35</longitude>
  </city>
  <city name="Janack">
    <latitude>13.1666667</latitude>
    <longitude>-16.2333333</longitude>
  </city>
  <city name="Jana Kuyel">
    <latitude>13.1677778</latitude>
    <longitude>-16.2677778</longitude>
  </city>
  <city name="Janding Ba">
    <latitude>13.2</latitude>
    <longitude>-15.9333333</longitude>
  </city>
  <city name="Janding Jilahar">
    <latitude>13.1866667</latitude>
    <longitude>-16.0086111</longitude>
  </city>
  <city name="Janeck">
    <latitude>13.1666667</latitude>
    <longitude>-16.2333333</longitude>
  </city>
  <city name="Janeh Kunda">
    <latitude>13.65</latitude>
    <longitude>-14.6166667</longitude>
  </city>
  <city name="Jane Kunda">
    <latitude>13.7166667</latitude>
    <longitude>-15.3333333</longitude>
  </city>
  <city name="Jangmarr">
    <latitude>13.3</latitude>
    <longitude>-15.9333333</longitude>
  </city>
  <city name="Jang-maru">
    <latitude>13.3</latitude>
    <longitude>-15.9333333</longitude>
  </city>
  <city name="Janna Kunda">
    <latitude>13.3802778</latitude>
    <longitude>-16.1383333</longitude>
  </city>
  <city name="Janneh Kunda">
    <latitude>13.3802778</latitude>
    <longitude>-16.1383333</longitude>
  </city>
  <city name="Janweley">
    <latitude>13.2508333</latitude>
    <longitude>-16.6388889</longitude>
  </city>
  <city name="Jappeni">
    <latitude>13.4166667</latitude>
    <longitude>-15.4166667</longitude>
  </city>
  <city name="Jarbang">
    <latitude>13.3594444</latitude>
    <longitude>-16.7094444</longitude>
  </city>
  <city name="Jareng Ker Modou Warr">
    <latitude>13.7166667</latitude>
    <longitude>-15.2833333</longitude>
  </city>
  <city name="Jareng Ker Sait Sowe">
    <latitude>13.7166667</latitude>
    <longitude>-15.2666667</longitude>
  </city>
  <city name="Jaring Alieu M'Boge">
    <latitude>13.7166667</latitude>
    <longitude>-15.2666667</longitude>
  </city>
  <city name="Jaring Madi Jama">
    <latitude>13.7166667</latitude>
    <longitude>-15.2666667</longitude>
  </city>
  <city name="Jaring Mandinka">
    <latitude>13.7</latitude>
    <longitude>-15.2666667</longitude>
  </city>
  <city name="Jarjangfara">
    <latitude>13.2666667</latitude>
    <longitude>-15.9</longitude>
  </city>
  <city name="Jarju Kunda">
    <latitude>13.1961111</latitude>
    <longitude>-16.3444444</longitude>
  </city>
  <city name="Jar Kunda">
    <latitude>13.4666667</latitude>
    <longitude>-14.1833333</longitude>
  </city>
  <city name="Jarlang">
    <latitude>13.2308333</latitude>
    <longitude>-16.2783333</longitude>
  </city>
  <city name="Jarreng">
    <latitude>13.6166667</latitude>
    <longitude>-15.1833333</longitude>
  </city>
  <city name="Jarrol">
    <latitude>13.25</latitude>
    <longitude>-15.85</longitude>
  </city>
  <city name="Jarrume Koto">
    <latitude>13.5833333</latitude>
    <longitude>-14.7833333</longitude>
  </city>
  <city name="Jarrume Kuta">
    <latitude>13.5666667</latitude>
    <longitude>-14.8666667</longitude>
  </city>
  <city name="Jarume Koto">
    <latitude>13.5833333</latitude>
    <longitude>-14.7833333</longitude>
  </city>
  <city name="Jarume Kuta">
    <latitude>13.5666667</latitude>
    <longitude>-14.8666667</longitude>
  </city>
  <city name="Jasobo">
    <latitude>13.4666667</latitude>
    <longitude>-15.6666667</longitude>
  </city>
  <city name="Jassong">
    <latitude>13.4</latitude>
    <longitude>-15.3166667</longitude>
  </city>
  <city name="Jatabba">
    <latitude>13.2666667</latitude>
    <longitude>-15.8333333</longitude>
  </city>
  <city name="Jata">
    <latitude>13.2833333</latitude>
    <longitude>-14.3166667</longitude>
  </city>
  <city name="Jataly">
    <latitude>13.6166667</latitude>
    <longitude>-14.7166667</longitude>
  </city>
  <city name="Jata Sutu">
    <latitude>13.55</latitude>
    <longitude>-15.25</longitude>
  </city>
  <city name="Jatikoi">
    <latitude>13.2833333</latitude>
    <longitude>-15.9833333</longitude>
  </city>
  <city name="Jattaba">
    <latitude>13.2666667</latitude>
    <longitude>-15.8333333</longitude>
  </city>
  <city name="Jatta Kunda">
    <latitude>13.4</latitude>
    <longitude>-15.7</longitude>
  </city>
  <city name="Jatta Sutu">
    <latitude>13.55</latitude>
    <longitude>-15.25</longitude>
  </city>
  <city name="Jau Kunda">
    <latitude>13.4166667</latitude>
    <longitude>-13.8666667</longitude>
  </city>
  <city name="Jawbeh Madeh">
    <latitude>13.35</latitude>
    <longitude>-14.4166667</longitude>
  </city>
  <city name="Jawbeh Modeh">
    <latitude>13.35</latitude>
    <longitude>-14.4166667</longitude>
  </city>
  <city name="Jawbe">
    <latitude>13.4166667</latitude>
    <longitude>-14.7166667</longitude>
  </city>
  <city name="Jawla">
    <latitude>13.4166667</latitude>
    <longitude>-14.1833333</longitude>
  </city>
  <city name="Jda">
    <latitude>13.6666667</latitude>
    <longitude>-14.9333333</longitude>
  </city>
  <city name="Jekka">
    <latitude>13.5333333</latitude>
    <longitude>-14.1166667</longitude>
  </city>
  <city name="Jendeh">
    <latitude>13.4</latitude>
    <longitude>-14.2833333</longitude>
  </city>
  <city name="Jenoi">
    <latitude>13.4833333</latitude>
    <longitude>-15.5666667</longitude>
  </city>
  <city name="Jenun Kunda">
    <latitude>13.1883333</latitude>
    <longitude>-16.5488889</longitude>
  </city>
  <city name="Jereh Kungoto">
    <latitude>13.3708333</latitude>
    <longitude>-16.4988889</longitude>
  </city>
  <city name="Jeriko">
    <latitude>13.5833333</latitude>
    <longitude>-15.6666667</longitude>
  </city>
  <city name="Jessadi">
    <latitude>13.6333333</latitude>
    <longitude>-15.3</longitude>
  </city>
  <city name="Jessadi Tenda">
    <latitude>13.65</latitude>
    <longitude>-15.2666667</longitude>
  </city>
  <city name="Jessadi Wharf Town">
    <latitude>13.65</latitude>
    <longitude>-15.2833333</longitude>
  </city>
  <city name="Jessida Tenda">
    <latitude>13.65</latitude>
    <longitude>-15.2666667</longitude>
  </city>
  <city name="Jeswang">
    <latitude>13.4425</latitude>
    <longitude>-16.6813889</longitude>
  </city>
  <city name="Jiboroh">
    <latitude>13.1794444</latitude>
    <longitude>-16.5761111</longitude>
  </city>
  <city name="Jiboroh Kotor">
    <latitude>13.1794444</latitude>
    <longitude>-16.5761111</longitude>
  </city>
  <city name="Jiboroh Kuta">
    <latitude>13.1883333</latitude>
    <longitude>-16.5736111</longitude>
  </city>
  <city name="Jida">
    <latitude>13.1877778</latitude>
    <longitude>-16.5972222</longitude>
  </city>
  <city name="Jifarong">
    <latitude>13.3</latitude>
    <longitude>-15.8666667</longitude>
  </city>
  <city name="Jiffarong">
    <latitude>13.3</latitude>
    <longitude>-15.8666667</longitude>
  </city>
  <city name="Jiffet">
    <latitude>13.4847222</latitude>
    <longitude>-16.5013889</longitude>
  </city>
  <city name="Jiffin">
    <latitude>13.4166667</latitude>
    <longitude>-15.5833333</longitude>
  </city>
  <city name="Jifoni">
    <latitude>13.2666667</latitude>
    <longitude>-15.9333333</longitude>
  </city>
  <city name="Jigimar">
    <latitude>13.5666667</latitude>
    <longitude>-15.6</longitude>
  </city>
  <city name="Jillimfara">
    <latitude>13.1722222</latitude>
    <longitude>-16.1180556</longitude>
  </city>
  <city name="Jimara">
    <latitude>13.2666667</latitude>
    <longitude>-14.4333333</longitude>
  </city>
  <city name="Jimbala Fel N'Goh">
    <latitude>13.75</latitude>
    <longitude>-15.3833333</longitude>
  </city>
  <city name="Jimbala Ker Chandou">
    <latitude>13.7333333</latitude>
    <longitude>-15.3833333</longitude>
  </city>
  <city name="Jimbala Ker Kara">
    <latitude>13.7333333</latitude>
    <longitude>-15.3833333</longitude>
  </city>
  <city name="Jimbana">
    <latitude>13.4197222</latitude>
    <longitude>-16.4486111</longitude>
  </city>
  <city name="Jinak">
    <latitude>13.5813889</latitude>
    <longitude>-16.5275</longitude>
  </city>
  <city name="Jingory Manga">
    <latitude>13.7166667</latitude>
    <longitude>-14.8666667</longitude>
  </city>
  <city name="Jingory Mustapha">
    <latitude>13.7333333</latitude>
    <longitude>-14.8666667</longitude>
  </city>
  <city name="Jiroff">
    <latitude>13.4166667</latitude>
    <longitude>-15.7</longitude>
  </city>
  <city name="Jiroff Tenda">
    <latitude>13.4333333</latitude>
    <longitude>-15.7166667</longitude>
  </city>
  <city name="Jirong">
    <latitude>13.5333333</latitude>
    <longitude>-15.7</longitude>
  </city>
  <city name="Jirrong">
    <latitude>13.5333333</latitude>
    <longitude>-15.7</longitude>
  </city>
  <city name="Jissa">
    <latitude>13.5736111</latitude>
    <longitude>-16.2088889</longitude>
  </city>
  <city name="Joba">
    <latitude>13.4333333</latitude>
    <longitude>-15.2166667</longitude>
  </city>
  <city name="Jobe Kunda">
    <latitude>13.4166667</latitude>
    <longitude>-15.4166667</longitude>
  </city>
  <city name="Jockul">
    <latitude>13.6166667</latitude>
    <longitude>-15.1666667</longitude>
  </city>
  <city name="Jogdu">
    <latitude>13.5166667</latitude>
    <longitude>-14.6</longitude>
  </city>
  <city name="Jokul">
    <latitude>13.7666667</latitude>
    <longitude>-14.9833333</longitude>
  </city>
  <city name="Jokul Ndowen">
    <latitude>13.7833333</latitude>
    <longitude>-14.9</longitude>
  </city>
  <city name="Joli Kah">
    <latitude>13.6166667</latitude>
    <longitude>-14.6666667</longitude>
  </city>
  <city name="Jollofin">
    <latitude>13.3666667</latitude>
    <longitude>-15.65</longitude>
  </city>
  <city name="Jomarr">
    <latitude>13.4333333</latitude>
    <longitude>-15.6666667</longitude>
  </city>
  <city name="Jombiya">
    <latitude>13.2166667</latitude>
    <longitude>-16.7333333</longitude>
  </city>
  <city name="Jom Kunda">
    <latitude>13.2666667</latitude>
    <longitude>-16.0</longitude>
  </city>
  <city name="Jongerr">
    <latitude>13.2833333</latitude>
    <longitude>-15.9833333</longitude>
  </city>
  <city name="Jorem Bunda Kunda">
    <latitude>13.25</latitude>
    <longitude>-15.8833333</longitude>
  </city>
  <city name="Jorem Drameh Kunda">
    <latitude>13.2333333</latitude>
    <longitude>-15.8833333</longitude>
  </city>
  <city name="Jorem">
    <latitude>13.2166667</latitude>
    <longitude>-15.9666667</longitude>
  </city>
  <city name="Joren">
    <latitude>13.2333333</latitude>
    <longitude>-15.8833333</longitude>
  </city>
  <city name="Jowara">
    <latitude>13.5766667</latitude>
    <longitude>-16.08</longitude>
  </city>
  <city name="Juburruya">
    <latitude>13.3</latitude>
    <longitude>-14.35</longitude>
  </city>
  <city name="Jufureh">
    <latitude>13.3386111</latitude>
    <longitude>-16.3825</longitude>
  </city>
  <city name="Jufuri">
    <latitude>13.3386111</latitude>
    <longitude>-16.3825</longitude>
  </city>
  <city name="Jula Kunda">
    <latitude>13.3305556</latitude>
    <longitude>-16.1769444</longitude>
  </city>
  <city name="Juma Kunda">
    <latitude>13.2419444</latitude>
    <longitude>-16.0172222</longitude>
  </city>
  <city name="Jumakunda">
    <latitude>13.2802778</latitude>
    <longitude>-16.0161111</longitude>
  </city>
  <city name="Jumansari">
    <latitude>13.5333333</latitude>
    <longitude>-15.75</longitude>
  </city>
  <city name="Jumansari Korto">
    <latitude>13.5</latitude>
    <longitude>-15.7333333</longitude>
  </city>
  <city name="Jumansari Koto">
    <latitude>13.5</latitude>
    <longitude>-15.7333333</longitude>
  </city>
  <city name="Jumaru">
    <latitude>13.3</latitude>
    <longitude>-15.9333333</longitude>
  </city>
  <city name="Jum Bakary">
    <latitude>13.3166667</latitude>
    <longitude>-14.45</longitude>
  </city>
  <city name="Jum Mankama">
    <latitude>13.3333333</latitude>
    <longitude>-14.45</longitude>
  </city>
  <city name="Junku">
    <latitude>13.4166667</latitude>
    <longitude>-14.6666667</longitude>
  </city>
  <city name="Juoli">
    <latitude>13.4005556</latitude>
    <longitude>-16.0955556</longitude>
  </city>
  <city name="Jurro Kunda">
    <latitude>13.2833333</latitude>
    <longitude>-14.3833333</longitude>
  </city>
  <city name="Jurunku">
    <latitude>13.4183333</latitude>
    <longitude>-16.2563889</longitude>
  </city>
  <city name="Jwenkelly">
    <latitude>13.1833333</latitude>
    <longitude>-15.8333333</longitude>
  </city>
  <city name="Ka-ai">
    <latitude>13.5833333</latitude>
    <longitude>-14.8833333</longitude>
  </city>
  <city name="Kabakama">
    <latitude>13.3</latitude>
    <longitude>-14.2</longitude>
  </city>
  <city name="Kaba Kotor">
    <latitude>13.4833333</latitude>
    <longitude>-16.2833333</longitude>
  </city>
  <city name="Kabamba">
    <latitude>13.6166667</latitude>
    <longitude>-15.2833333</longitude>
  </city>
  <city name="Kabekel">
    <latitude>13.2033333</latitude>
    <longitude>-16.6572222</longitude>
  </city>
  <city name="Kabokor">
    <latitude>13.2069444</latitude>
    <longitude>-16.2708333</longitude>
  </city>
  <city name="Kabomb">
    <latitude>13.1666667</latitude>
    <longitude>-15.8</longitude>
  </city>
  <city name="Kachow NDing">
    <latitude>13.3377778</latitude>
    <longitude>-16.7047222</longitude>
  </city>
  <city name="Kachuma">
    <latitude>13.2288889</latitude>
    <longitude>-16.7605556</longitude>
  </city>
  <city name="Kafaya">
    <latitude>13.1305556</latitude>
    <longitude>-16.7786111</longitude>
  </city>
  <city name="Kafenkena">
    <latitude>13.1716667</latitude>
    <longitude>-16.0022222</longitude>
  </city>
  <city name="Kafenkeng">
    <latitude>13.1716667</latitude>
    <longitude>-16.0022222</longitude>
  </city>
  <city name="Kaffenkeng">
    <latitude>13.1833333</latitude>
    <longitude>-15.9166667</longitude>
  </city>
  <city name="Kafuta">
    <latitude>13.1966667</latitude>
    <longitude>-16.4588889</longitude>
  </city>
  <city name="Kafuta Tubung">
    <latitude>13.1741667</latitude>
    <longitude>-16.4605556</longitude>
  </city>
  <city name="Kafuta Tumbung">
    <latitude>13.1741667</latitude>
    <longitude>-16.4605556</longitude>
  </city>
  <city name="Kahan">
    <latitude>13.5</latitude>
    <longitude>-14.8166667</longitude>
  </city>
  <city name="Kahone">
    <latitude>13.7166667</latitude>
    <longitude>-15.0166667</longitude>
  </city>
  <city name="Kahow">
    <latitude>13.4833333</latitude>
    <longitude>-14.8166667</longitude>
  </city>
  <city name="Kaiaf">
    <latitude>13.4</latitude>
    <longitude>-15.6166667</longitude>
  </city>
  <city name="Kaianga">
    <latitude>13.1761111</latitude>
    <longitude>-16.2038889</longitude>
  </city>
  <city name="Kaie">
    <latitude>13.2077778</latitude>
    <longitude>-16.3452778</longitude>
  </city>
  <city name="Kai Hai Fula Kunda">
    <latitude>13.5833333</latitude>
    <longitude>-14.8666667</longitude>
  </city>
  <city name="Kai Hai">
    <latitude>13.5833333</latitude>
    <longitude>-14.8833333</longitude>
  </city>
  <city name="Kaijara">
    <latitude>13.25</latitude>
    <longitude>-16.3166667</longitude>
  </city>
  <city name="Kaimbalaing">
    <latitude>13.3833333</latitude>
    <longitude>-16.3</longitude>
  </city>
  <city name="Kaimbujae">
    <latitude>13.3</latitude>
    <longitude>-16.6166667</longitude>
  </city>
  <city name="Kaimbujae NDing">
    <latitude>13.285</latitude>
    <longitude>-16.6213889</longitude>
  </city>
  <city name="Kaiyabor">
    <latitude>13.25</latitude>
    <longitude>-15.95</longitude>
  </city>
  <city name="Kajabina">
    <latitude>13.1702778</latitude>
    <longitude>-16.3225</longitude>
  </city>
  <city name="Kajata">
    <latitude>13.5813889</latitude>
    <longitude>-16.5275</longitude>
  </city>
  <city name="Kakudia">
    <latitude>13.2252778</latitude>
    <longitude>-16.7427778</longitude>
  </city>
  <city name="Kalagi">
    <latitude>13.25</latitude>
    <longitude>-15.8333333</longitude>
  </city>
  <city name="Kalaja">
    <latitude>13.25</latitude>
    <longitude>-15.8333333</longitude>
  </city>
  <city name="Kalaji">
    <latitude>13.25</latitude>
    <longitude>-15.8333333</longitude>
  </city>
  <city name="Kalang">
    <latitude>13.25</latitude>
    <longitude>-15.95</longitude>
  </city>
  <city name="Kalataba">
    <latitude>13.55</latitude>
    <longitude>-15.6166667</longitude>
  </city>
  <city name="Kalem Pol">
    <latitude>13.5833333</latitude>
    <longitude>-14.65</longitude>
  </city>
  <city name="Kaleng">
    <latitude>13.1747222</latitude>
    <longitude>-16.0563889</longitude>
  </city>
  <city name="Kalikajara">
    <latitude>13.6166667</latitude>
    <longitude>-15.3166667</longitude>
  </city>
  <city name="Kali Kunda">
    <latitude>13.4666667</latitude>
    <longitude>-14.5833333</longitude>
  </city>
  <city name="Kalimu">
    <latitude>13.2166667</latitude>
    <longitude>-16.0166667</longitude>
  </city>
  <city name="Kaling">
    <latitude>13.1747222</latitude>
    <longitude>-16.0563889</longitude>
  </city>
  <city name="Kallang">
    <latitude>13.25</latitude>
    <longitude>-15.95</longitude>
  </city>
  <city name="Kamamudu">
    <latitude>13.1833333</latitude>
    <longitude>-15.8</longitude>
  </city>
  <city name="Kambagali">
    <latitude>13.1847222</latitude>
    <longitude>-16.0822222</longitude>
  </city>
  <city name="Kambagol">
    <latitude>13.1847222</latitude>
    <longitude>-16.0822222</longitude>
  </city>
  <city name="Kambalayba">
    <latitude>13.2333333</latitude>
    <longitude>-15.8666667</longitude>
  </city>
  <city name="Kambalin">
    <latitude>13.18</latitude>
    <longitude>-16.0525</longitude>
  </city>
  <city name="Kambele">
    <latitude>13.5166667</latitude>
    <longitude>-13.9166667</longitude>
  </city>
  <city name="Kambi">
    <latitude>13.7166667</latitude>
    <longitude>-14.8</longitude>
  </city>
  <city name="Kambong">
    <latitude>13.2122222</latitude>
    <longitude>-16.1072222</longitude>
  </city>
  <city name="Kambuji">
    <latitude>13.2544444</latitude>
    <longitude>-16.5955556</longitude>
  </city>
  <city name="Kamemero">
    <latitude>13.2166667</latitude>
    <longitude>-15.8166667</longitude>
  </city>
  <city name="Kamenero">
    <latitude>13.2166667</latitude>
    <longitude>-15.8166667</longitude>
  </city>
  <city name="Kamessen">
    <latitude>13.1666667</latitude>
    <longitude>-15.9666667</longitude>
  </city>
  <city name="Kamessing">
    <latitude>13.1833333</latitude>
    <longitude>-15.8333333</longitude>
  </city>
  <city name="Kamfenda">
    <latitude>13.2152778</latitude>
    <longitude>-16.0558333</longitude>
  </city>
  <city name="Kamos">
    <latitude>13.1855556</latitude>
    <longitude>-16.2225</longitude>
  </city>
  <city name="Kampant">
    <latitude>13.2022222</latitude>
    <longitude>-16.1097222</longitude>
  </city>
  <city name="Kampassa">
    <latitude>13.1833333</latitude>
    <longitude>-15.8166667</longitude>
  </city>
  <city name="Kamunakore">
    <latitude>13.2666667</latitude>
    <longitude>-14.3833333</longitude>
  </city>
  <city name="Kanape">
    <latitude>13.5666667</latitude>
    <longitude>-13.9333333</longitude>
  </city>
  <city name="Kanau">
    <latitude>13.25</latitude>
    <longitude>-16.2333333</longitude>
  </city>
  <city name="Kandimai">
    <latitude>13.4</latitude>
    <longitude>-14.2833333</longitude>
  </city>
  <city name="Kandong">
    <latitude>13.245</latitude>
    <longitude>-16.3136111</longitude>
  </city>
  <city name="Kandonk">
    <latitude>13.245</latitude>
    <longitude>-16.3136111</longitude>
  </city>
  <city name="Kanfinda">
    <latitude>13.2152778</latitude>
    <longitude>-16.0558333</longitude>
  </city>
  <city name="Kangalabata">
    <latitude>13.1669444</latitude>
    <longitude>-16.0680556</longitude>
  </city>
  <city name="Kangiramba">
    <latitude>13.2</latitude>
    <longitude>-15.8666667</longitude>
  </city>
  <city name="Kangwalli">
    <latitude>13.2</latitude>
    <longitude>-15.9333333</longitude>
  </city>
