<?xml version="1.0" encoding="UTF-8"?>
<country code="gt" name="Guatemala">
  <city name="Acacar">
    <latitude>15.566667</latitude>
    <longitude>-89.3</longitude>
  </city>
  <city name="Acamal">
    <latitude>15.45</latitude>
    <longitude>-90.383333</longitude>
  </city>
  <city name="Acapán">
    <latitude>14.366667</latitude>
    <longitude>-91.983333</longitude>
  </city>
  <city name="Acasaguastlán">
    <latitude>14.916667</latitude>
    <longitude>-89.883333</longitude>
  </city>
  <city name="Acatán">
    <latitude>14.616667</latitude>
    <longitude>-90.466667</longitude>
  </city>
  <city name="Acatempa">
    <latitude>14.265278</latitude>
    <longitude>-90.126944</longitude>
  </city>
  <city name="Acatenango">
    <latitude>14.551944</latitude>
    <longitude>-90.942222</longitude>
  </city>
  <city name="Aceitillal">
    <latitude>14.583333</latitude>
    <longitude>-89.516667</longitude>
  </city>
  <city name="Aceituno">
    <latitude>14.633333</latitude>
    <longitude>-90.466667</longitude>
  </city>
  <city name="Acequia">
    <latitude>14.333333</latitude>
    <longitude>-89.85</longitude>
  </city>
  <city name="Achiote">
    <latitude>15.133333</latitude>
    <longitude>-89.4</longitude>
  </city>
  <city name="Achiotes">
    <latitude>14.9</latitude>
    <longitude>-90.233333</longitude>
  </city>
  <city name="Achiotes Jumay">
    <latitude>14.666667</latitude>
    <longitude>-89.983333</longitude>
  </city>
  <city name="Achitos">
    <latitude>13.981944</latitude>
    <longitude>-90.088056</longitude>
  </city>
  <city name="Achuté">
    <latitude>15.233333</latitude>
    <longitude>-92.166667</longitude>
  </city>
  <city name="Acintal">
    <latitude>14.6</latitude>
    <longitude>-91.733333</longitude>
  </city>
  <city name="Actelá">
    <latitude>15.666667</latitude>
    <longitude>-89.883333</longitude>
  </city>
  <city name="Acualcheyá">
    <latitude>14.816667</latitude>
    <longitude>-90.9</longitude>
  </city>
  <city name="Acul">
    <latitude>15.405</latitude>
    <longitude>-91.188333</longitude>
  </city>
  <city name="Adelanto">
    <latitude>14.166667</latitude>
    <longitude>-89.833333</longitude>
  </city>
  <city name="Aercochoch">
    <latitude>15.7</latitude>
    <longitude>-89.433333</longitude>
  </city>
  <city name="Agrícola">
    <latitude>14.416667</latitude>
    <longitude>-91.866667</longitude>
  </city>
  <city name="Agua Alegre">
    <latitude>15.452222</latitude>
    <longitude>-91.494444</longitude>
  </city>
  <city name="Agua Blanca">
    <latitude>14.733333</latitude>
    <longitude>-89.333333</longitude>
  </city>
  <city name="Agua Caliente">
    <latitude>15.333333</latitude>
    <longitude>-89.75</longitude>
  </city>
  <city name="Agua Caliente Chìquita">
    <latitude>14.933333</latitude>
    <longitude>-91.783333</longitude>
  </city>
  <city name="Agua Caliente Grande">
    <latitude>14.933333</latitude>
    <longitude>-91.766667</longitude>
  </city>
  <city name="Agua Caliente Segundo">
    <latitude>14.9</latitude>
    <longitude>-89.733333</longitude>
  </city>
  <city name="Aguacatán">
    <latitude>15.343056</latitude>
    <longitude>-91.311667</longitude>
  </city>
  <city name="Aguacate">
    <latitude>14.6</latitude>
    <longitude>-90.833333</longitude>
  </city>
  <city name="Agua de Las Minas">
    <latitude>14.483333</latitude>
    <longitude>-90.65</longitude>
  </city>
  <city name="Agua Dulce">
    <latitude>14.866667</latitude>
    <longitude>-90.3</longitude>
  </city>
  <city name="Agua Escondida">
    <latitude>14.816667</latitude>
    <longitude>-91.033333</longitude>
  </city>
  <city name="Agua Fría">
    <latitude>14.866667</latitude>
    <longitude>-89.35</longitude>
  </city>
  <city name="Agua Helada">
    <latitude>15.083333</latitude>
    <longitude>-89.15</longitude>
  </city>
  <city name="Aguahiel Arriba">
    <latitude>14.966667</latitude>
    <longitude>-90.016667</longitude>
  </city>
  <city name="Aguajal">
    <latitude>14.483333</latitude>
    <longitude>-89.416667</longitude>
  </city>
  <city name="Agua Ligera">
    <latitude>14.966667</latitude>
    <longitude>-91.116667</longitude>
  </city>
  <city name="Aguamecate">
    <latitude>14.633333</latitude>
    <longitude>-89.783333</longitude>
  </city>
  <city name="Agua Negra">
    <latitude>15.966667</latitude>
    <longitude>-89.733333</longitude>
  </city>
  <city name="Agua Salóbrega">
    <latitude>14.8</latitude>
    <longitude>-90.166667</longitude>
  </city>
  <city name="Agua Sembrada">
    <latitude>15.383333</latitude>
    <longitude>-91.983333</longitude>
  </city>
  <city name="Aguas Finas">
    <latitude>14.283333</latitude>
    <longitude>-89.766667</longitude>
  </city>
  <city name="Agua Tibia">
    <latitude>14.933333</latitude>
    <longitude>-90.466667</longitude>
  </city>
  <city name="Agua Zarca">
    <latitude>14.683333</latitude>
    <longitude>-89.533333</longitude>
  </city>
  <city name="Agüero">
    <latitude>14.2</latitude>
    <longitude>-91.05</longitude>
  </city>
  <city name="Aguijotes">
    <latitude>14.55</latitude>
    <longitude>-90.066667</longitude>
  </city>
  <city name="Aguirre">
    <latitude>14.733333</latitude>
    <longitude>-90.216667</longitude>
  </city>
  <city name="Agujitas">
    <latitude>14.716667</latitude>
    <longitude>-89.85</longitude>
  </city>
  <city name="Ahorcado">
    <latitude>14.55</latitude>
    <longitude>-89.45</longitude>
  </city>
  <city name="Ahumado">
    <latitude>13.828889</latitude>
    <longitude>-90.308056</longitude>
  </city>
  <city name="Ainatal">
    <latitude>14.55</latitude>
    <longitude>-89.3</longitude>
  </city>
  <city name="Ajaxá">
    <latitude>14.6</latitude>
    <longitude>-91.6</longitude>
  </city>
  <city name="Ajbalché">
    <latitude>14.8</latitude>
    <longitude>-90.733333</longitude>
  </city>
  <city name="Alambradas">
    <latitude>14.433333</latitude>
    <longitude>-89.466667</longitude>
  </city>
  <city name="Albores">
    <latitude>15.05</latitude>
    <longitude>-89.966667</longitude>
  </city>
  <city name="Aldea Agüero">
    <latitude>14.2</latitude>
    <longitude>-91.05</longitude>
  </city>
  <city name="Aldea Nueva">
    <latitude>14.416667</latitude>
    <longitude>-89.8</longitude>
  </city>
  <city name="Allahan">
    <latitude>17.068611</latitude>
    <longitude>-89.152222</longitude>
  </city>
  <city name="Almolonga">
    <latitude>14.816667</latitude>
    <longitude>-91.5</longitude>
  </city>
  <city name="Almorzadero">
    <latitude>14.783333</latitude>
    <longitude>-91.683333</longitude>
  </city>
  <city name="Almorzadoro">
    <latitude>14.783333</latitude>
    <longitude>-91.683333</longitude>
  </city>
  <city name="Alotenango">
    <latitude>14.480278</latitude>
    <longitude>-90.8075</longitude>
  </city>
  <city name="Alto Sepacay">
    <latitude>15.35</latitude>
    <longitude>-90.066667</longitude>
  </city>
  <city name="Alvarado">
    <latitude>14.55</latitude>
    <longitude>-89.783333</longitude>
  </city>
  <city name="Alzatate">
    <latitude>14.497778</latitude>
    <longitude>-90.060278</longitude>
  </city>
  <city name="Amachel">
    <latitude>15.7</latitude>
    <longitude>-90.983333</longitude>
  </city>
  <city name="Amatal">
    <latitude>14.55</latitude>
    <longitude>-89.3</longitude>
  </city>
  <city name="Amate Blanco">
    <latitude>14.196667</latitude>
    <longitude>-89.694167</longitude>
  </city>
  <city name="Amatepeque">
    <latitude>14.166667</latitude>
    <longitude>-89.7</longitude>
  </city>
  <city name="Amates">
    <latitude>14.616667</latitude>
    <longitude>-89.6</longitude>
  </city>
  <city name="Amatillo">
    <latitude>14.533333</latitude>
    <longitude>-89.6</longitude>
  </city>
  <city name="Amatitlán">
    <latitude>14.4875</latitude>
    <longitude>-90.615278</longitude>
  </city>
  <city name="Amaya">
    <latitude>13.915278</latitude>
    <longitude>-90.933611</longitude>
  </city>
  <city name="Amayito">
    <latitude>14.266667</latitude>
    <longitude>-89.95</longitude>
  </city>
  <city name="Amayo Ingenio">
    <latitude>14.333333</latitude>
    <longitude>-89.966667</longitude>
  </city>
  <city name="Amayo Sitio">
    <latitude>14.3</latitude>
    <longitude>-89.95</longitude>
  </city>
  <city name="Amberes">
    <latitude>14.4</latitude>
    <longitude>-90.333333</longitude>
  </city>
  <city name="Amelco">
    <latitude>15.755556</latitude>
    <longitude>-91.245833</longitude>
  </city>
  <city name="Anchagua">
    <latitude>14.833333</latitude>
    <longitude>-90.0</longitude>
  </city>
  <city name="Angeles">
    <latitude>14.316667</latitude>
    <longitude>-91.9</longitude>
  </city>
  <city name="Angostura">
    <latitude>15.066667</latitude>
    <longitude>-89.166667</longitude>
  </city>
  <city name="Angosturas">
    <latitude>15.066667</latitude>
    <longitude>-89.166667</longitude>
  </city>
  <city name="Anguiatú">
    <latitude>14.416667</latitude>
    <longitude>-89.45</longitude>
  </city>
  <city name="Anguiatú Arriba">
    <latitude>14.416667</latitude>
    <longitude>-89.45</longitude>
  </city>
  <city name="Anicillo">
    <latitude>14.866667</latitude>
    <longitude>-89.25</longitude>
  </city>
  <city name="Ánimas Lomas">
    <latitude>14.266667</latitude>
    <longitude>-89.8</longitude>
  </city>
  <city name="Anisillo">
    <latitude>14.866667</latitude>
    <longitude>-89.25</longitude>
  </city>
  <city name="Anonas">
    <latitude>14.55</latitude>
    <longitude>-89.55</longitude>
  </city>
  <city name="Anshagua">
    <latitude>14.833333</latitude>
    <longitude>-90.0</longitude>
  </city>
  <city name="Anshigua">
    <latitude>14.8</latitude>
    <longitude>-89.95</longitude>
  </city>
  <city name="Antigua">
    <latitude>14.561111</latitude>
    <longitude>-90.734444</longitude>
  </city>
  <city name="Antigua Guatemala">
    <latitude>14.561111</latitude>
    <longitude>-90.734444</longitude>
  </city>
  <city name="Antombrán">
    <latitude>14.95</latitude>
    <longitude>-89.75</longitude>
  </city>
  <city name="Apantén">
    <latitude>14.116667</latitude>
    <longitude>-89.933333</longitude>
  </city>
  <city name="Apantes">
    <latitude>14.55</latitude>
    <longitude>-89.416667</longitude>
  </city>
  <city name="Apersogadero">
    <latitude>14.116667</latitude>
    <longitude>-90.1</longitude>
  </city>
  <city name="Aquil">
    <latitude>15.583333</latitude>
    <longitude>-90.383333</longitude>
  </city>
  <city name="Aradona">
    <latitude>14.6</latitude>
    <longitude>-89.166667</longitude>
  </city>
  <city name="Arcopec">
    <latitude>15.883333</latitude>
    <longitude>-90.25</longitude>
  </city>
  <city name="Arena">
    <latitude>14.166667</latitude>
    <longitude>-90.966667</longitude>
  </city>
  <city name="Arenal">
    <latitude>14.166667</latitude>
    <longitude>-90.966667</longitude>
  </city>
  <city name="Arenales">
    <latitude>15.916667</latitude>
    <longitude>-89.283333</longitude>
  </city>
  <city name="Argueta">
    <latitude>14.816667</latitude>
    <longitude>-91.233333</longitude>
  </city>
  <city name="Aristondo">
    <latitude>14.933333</latitude>
    <longitude>-90.116667</longitude>
  </city>
  <city name="Aristondos">
    <latitude>14.933333</latitude>
    <longitude>-90.116667</longitude>
  </city>
  <city name="Arizona">
    <latitude>13.958056</latitude>
    <longitude>-90.820278</longitude>
  </city>
  <city name="Arloroma">
    <latitude>14.6</latitude>
    <longitude>-90.016667</longitude>
  </city>
  <city name="Aroche">
    <latitude>14.05</latitude>
    <longitude>-90.516667</longitude>
  </city>
  <city name="Arrayanas">
    <latitude>14.333333</latitude>
    <longitude>-89.933333</longitude>
  </city>
  <city name="Arrinconada">
    <latitude>14.266667</latitude>
    <longitude>-89.75</longitude>
  </city>
  <city name="Arriquín">
    <latitude>15.0</latitude>
    <longitude>-90.883333</longitude>
  </city>
  <city name="Arroyo del Guarda">
    <latitude>17.121944</latitude>
    <longitude>-89.151667</longitude>
  </city>
  <city name="Arrozal">
    <latitude>15.0</latitude>
    <longitude>-89.95</longitude>
  </city>
  <city name="Arrozales">
    <latitude>14.55</latitude>
    <longitude>-89.55</longitude>
  </city>
  <city name="Asich">
    <latitude>15.4025</latitude>
    <longitude>-91.040278</longitude>
  </city>
  <city name="Asilo La Piedad">
    <latitude>14.683333</latitude>
    <longitude>-90.483333</longitude>
  </city>
  <city name="Asintal">
    <latitude>14.6</latitude>
    <longitude>-91.733333</longitude>
  </city>
  <city name="Aspitia">
    <latitude>14.2</latitude>
    <longitude>-89.766667</longitude>
  </city>
  <city name="Astillero">
    <latitude>13.85</latitude>
    <longitude>-90.35</longitude>
  </city>
  <city name="Astillero Municipal">
    <latitude>15.766667</latitude>
    <longitude>-89.566667</longitude>
  </city>
  <city name="Asuncion">
    <latitude>14.330833</latitude>
    <longitude>-89.710833</longitude>
  </city>
  <city name="Asunción">
    <latitude>14.916667</latitude>
    <longitude>-91.7</longitude>
  </city>
  <city name="Asuncioncita">
    <latitude>14.333333</latitude>
    <longitude>-89.766667</longitude>
  </city>
  <city name="Asunción Grande">
    <latitude>14.333333</latitude>
    <longitude>-89.783333</longitude>
  </city>
  <city name="Asunción Mita">
    <latitude>14.330833</latitude>
    <longitude>-89.710833</longitude>
  </city>
  <city name="Atescatempa">
    <latitude>14.174444</latitude>
    <longitude>-89.7425</longitude>
  </city>
  <city name="Atitán">
    <latitude>13.935833</latitude>
    <longitude>-90.704722</longitude>
  </city>
  <city name="Atitancito">
    <latitude>13.932222</latitude>
    <longitude>-90.689722</longitude>
  </city>
  <city name="Atitlán">
    <latitude>13.935833</latitude>
    <longitude>-90.704722</longitude>
  </city>
  <city name="Atlántida">
    <latitude>14.65</latitude>
    <longitude>-90.483333</longitude>
  </city>
  <city name="Atulapa">
    <latitude>14.566667</latitude>
    <longitude>-89.316667</longitude>
  </city>
  <city name="Aurora">
    <latitude>14.483333</latitude>
    <longitude>-90.883333</longitude>
  </city>
  <city name="Avellana">
    <latitude>13.919722</latitude>
    <longitude>-90.467778</longitude>
  </city>
  <city name="Ayarza">
    <latitude>14.414444</latitude>
    <longitude>-90.062778</longitude>
  </city>
  <city name="Ayucinapa">
    <latitude>14.35</latitude>
    <longitude>-89.716667</longitude>
  </city>
  <city name="Ayutilla">
    <latitude>14.516667</latitude>
    <longitude>-91.716667</longitude>
  </city>
  <city name="Ayutla">
    <latitude>14.666667</latitude>
    <longitude>-92.15</longitude>
  </city>
  <city name="Azacualpa">
    <latitude>14.666667</latitude>
    <longitude>-89.433333</longitude>
  </city>
  <city name="Azacualpilla">
    <latitude>14.716667</latitude>
    <longitude>-90.366667</longitude>
  </city>
  <city name="Azulco">
    <latitude>14.083333</latitude>
    <longitude>-90.05</longitude>
  </city>
  <city name="Bacadilla">
    <latitude>15.633333</latitude>
    <longitude>-88.516667</longitude>
  </city>
  <city name="Bajual">
    <latitude>15.646944</latitude>
    <longitude>-91.386389</longitude>
  </city>
  <city name="Balamabaj">
    <latitude>14.816667</latitude>
    <longitude>-91.316667</longitude>
  </city>
  <city name="Balam">
    <latitude>16.118333</latitude>
    <longitude>-89.345</longitude>
  </city>
  <city name="Balamché">
    <latitude>14.983333</latitude>
    <longitude>-90.533333</longitude>
  </city>
  <city name="Balamtún">
    <latitude>17.025268</latitude>
    <longitude>-90.075644</longitude>
  </city>
  <city name="Balanché">
    <latitude>14.983333</latitude>
    <longitude>-90.533333</longitude>
  </city>
  <city name="Balconcillo">
    <latitude>14.85</latitude>
    <longitude>-90.166667</longitude>
  </city>
  <city name="Balijá">
    <latitude>15.397222</latitude>
    <longitude>-91.216389</longitude>
  </city>
  <city name="Ballí">
    <latitude>15.783333</latitude>
    <longitude>-91.333333</longitude>
  </city>
  <city name="Baltimore">
    <latitude>15.783333</latitude>
    <longitude>-88.7</longitude>
  </city>
  <city name="Bañadero Colorado">
    <latitude>15.2</latitude>
    <longitude>-89.133333</longitude>
  </city>
  <city name="Bananera">
    <latitude>15.466667</latitude>
    <longitude>-88.833333</longitude>
  </city>
  <city name="Bancab">
    <latitude>15.516667</latitude>
    <longitude>-90.266667</longitude>
  </city>
  <city name="Bandera Colorada">
    <latitude>15.2</latitude>
    <longitude>-89.133333</longitude>
  </city>
  <city name="Bandera Colorado">
    <latitude>15.2</latitude>
    <longitude>-89.133333</longitude>
  </city>
  <city name="Barbarena">
    <latitude>14.309444</latitude>
    <longitude>-90.361111</longitude>
  </city>
  <city name="Barbasco">
    <latitude>15.216667</latitude>
    <longitude>-89.216667</longitude>
  </city>
  <city name="Barberena">
    <latitude>14.309444</latitude>
    <longitude>-90.361111</longitude>
  </city>
  <city name="Barillas">
    <latitude>14.405</latitude>
    <longitude>-90.544444</longitude>
  </city>
  <city name="Barracas">
    <latitude>15.416667</latitude>
    <longitude>-88.833333</longitude>
  </city>
  <city name="Barra de la Gabina">
    <latitude>13.770556</latitude>
    <longitude>-90.187222</longitude>
  </city>
  <city name="Barra del Jiote">
    <latitude>13.781667</latitude>
    <longitude>-90.216111</longitude>
  </city>
  <city name="Barra del Limón">
    <latitude>13.770556</latitude>
    <longitude>-90.187222</longitude>
  </city>
  <city name="Barra del Motagua">
    <latitude>15.733333</latitude>
    <longitude>-88.233333</longitude>
  </city>
  <city name="Barra Madre Vieja">
    <latitude>14.016667</latitude>
    <longitude>-91.433333</longitude>
  </city>
  <city name="Barranca">
    <latitude>15.433333</latitude>
    <longitude>-88.833333</longitude>
  </city>
  <city name="Barranca Grande">
    <latitude>14.883333</latitude>
    <longitude>-91.766667</longitude>
  </city>
  <city name="Barranca Honda">
    <latitude>13.956389</latitude>
    <longitude>-90.101389</longitude>
  </city>
  <city name="Barrancas">
    <latitude>14.75</latitude>
    <longitude>-89.2</longitude>
  </city>
  <city name="Barrancas de Gálvez">
    <latitude>14.983333</latitude>
    <longitude>-91.85</longitude>
  </city>
  <city name="Barranca Seca">
    <latitude>15.0</latitude>
    <longitude>-89.7</longitude>
  </city>
  <city name="Barranco">
    <latitude>14.966667</latitude>
    <longitude>-90.066667</longitude>
  </city>
  <city name="Barranco Blanco">
    <latitude>15.733333</latitude>
    <longitude>-89.066667</longitude>
  </city>
  <city name="Barranco Colorado">
    <latitude>14.916667</latitude>
    <longitude>-89.6</longitude>
  </city>
  <city name="Barranqillo">
    <latitude>14.8</latitude>
    <longitude>-90.116667</longitude>
  </city>
  <city name="Barranquilla">
    <latitude>14.8</latitude>
    <longitude>-90.116667</longitude>
  </city>
  <city name="Barranquillo">
    <latitude>14.8</latitude>
    <longitude>-90.116667</longitude>
  </city>
  <city name="Barra San Marcos">
    <latitude>15.6</latitude>
    <longitude>-88.966667</longitude>
  </city>
  <city name="Barrel">
    <latitude>14.883333</latitude>
    <longitude>-91.766667</longitude>
  </city>
  <city name="Barreneché">
    <latitude>14.816667</latitude>
    <longitude>-91.216667</longitude>
  </city>
  <city name="Barrial">
    <latitude>14.85</latitude>
    <longitude>-90.083333</longitude>
  </city>
  <city name="Barrientos">
    <latitude>14.283333</latitude>
    <longitude>-90.8</longitude>
  </city>
  <city name="Barrio Nuevo">
    <latitude>14.966667</latitude>
    <longitude>-89.3</longitude>
  </city>
  <city name="Barrios">
    <latitude>14.516667</latitude>
    <longitude>-90.183333</longitude>
  </city>
  <city name="Barritas">
    <latitude>13.765278</latitude>
    <longitude>-90.16</longitude>
  </city>
  <city name="Barrita Vieja">
    <latitude>13.920556</latitude>
    <longitude>-90.895278</longitude>
  </city>
  <city name="Batzajá">
    <latitude>15.435</latitude>
    <longitude>-91.111944</longitude>
  </city>
  <city name="Batzmachil">
    <latitude>15.406944</latitude>
    <longitude>-91.016944</longitude>
  </city>
  <city name="Batzumal">
    <latitude>15.556667</latitude>
    <longitude>-91.189722</longitude>
  </city>
  <city name="Baúl">
    <latitude>14.383333</latitude>
    <longitude>-91.016667</longitude>
  </city>
  <city name="Beatriz">
    <latitude>15.2</latitude>
    <longitude>-89.083333</longitude>
  </city>
  <city name="Bejucal">
    <latitude>14.416667</latitude>
    <longitude>-90.6</longitude>
  </city>
  <city name="Belejub">
    <latitude>15.316667</latitude>
    <longitude>-90.466667</longitude>
  </city>
  <city name="Belejú">
    <latitude>15.316667</latitude>
    <longitude>-90.466667</longitude>
  </city>
  <city name="Belén">
    <latitude>14.6</latitude>
    <longitude>-89.35</longitude>
  </city>
  <city name="Bella Vista">
    <latitude>14.8</latitude>
    <longitude>-89.583333</longitude>
  </city>
  <city name="Benipec">
    <latitude>15.333333</latitude>
    <longitude>-90.083333</longitude>
  </city>
  <city name="Benjá Chibut">
    <latitude>15.733333</latitude>
    <longitude>-90.166667</longitude>
  </city>
  <city name="Benque Abajo">
    <latitude>15.8</latitude>
    <longitude>-89.183333</longitude>
  </city>
  <city name="Benque Arriba">
    <latitude>15.8</latitude>
    <longitude>-89.15</longitude>
  </city>
  <city name="Betejub">
    <latitude>15.316667</latitude>
    <longitude>-90.466667</longitude>
  </city>
  <city name="Bethania">
    <latitude>14.05</latitude>
    <longitude>-90.116667</longitude>
  </city>
  <city name="Bexoncán">
    <latitude>15.2</latitude>
    <longitude>-91.95</longitude>
  </city>
  <city name="Biafra">
    <latitude>15.133333</latitude>
    <longitude>-89.3</longitude>
  </city>
  <city name="Bibitz">
    <latitude>15.415278</latitude>
    <longitude>-91.007778</longitude>
  </city>
  <city name="Bicalamá">
    <latitude>15.511667</latitude>
    <longitude>-91.219722</longitude>
  </city>
  <city name="Bictoz">
    <latitude>15.501667</latitude>
    <longitude>-91.140278</longitude>
  </city>
  <city name="Bijagual">
    <latitude>13.780278</latitude>
    <longitude>-90.116667</longitude>
  </city>
  <city name="Bilil">
    <latitude>15.85</latitude>
    <longitude>-91.65</longitude>
  </city>
  <city name="Biltac">
    <latitude>15.8</latitude>
    <longitude>-91.65</longitude>
  </city>
  <city name="Bipecbalam">
    <latitude>15.465</latitude>
    <longitude>-91.184444</longitude>
  </city>
  <city name="Bisán">
    <latitude>15.4275</latitude>
    <longitude>-91.131111</longitude>
  </city>
  <city name="Bisich">
    <latitude>15.583333</latitude>
    <longitude>-91.083333</longitude>
  </city>
  <city name="Bitzuchú">
    <latitude>15.468611</latitude>
    <longitude>-91.035556</longitude>
  </city>
  <city name="Blackfoot">
    <latitude>15.616667</latitude>
    <longitude>-88.5</longitude>
  </city>
  <city name="Blanco Creek">
    <latitude>15.716667</latitude>
    <longitude>-88.8</longitude>
  </city>
  <city name="Blue Creek">
    <latitude>15.85</latitude>
    <longitude>-89.0</longitude>
  </city>
  <city name="Bobos">
    <latitude>15.35</latitude>
    <longitude>-88.8</longitude>
  </city>
  <city name="Boca Ancha">
    <latitude>15.516667</latitude>
    <longitude>-88.983333</longitude>
  </city>
  <city name="Boca del Monte">
    <latitude>14.550833</latitude>
    <longitude>-90.524167</longitude>
  </city>
  <city name="Boca Monte">
    <latitude>14.550833</latitude>
    <longitude>-90.524167</longitude>
  </city>
  <city name="Bocana">
    <latitude>14.538889</latitude>
    <longitude>-92.147778</longitude>
  </city>
  <city name="Bocol">
    <latitude>14.816667</latitude>
    <longitude>-91.8</longitude>
  </city>
  <city name="Bocol San Rafael">
    <latitude>14.816667</latitude>
    <longitude>-91.8</longitude>
  </city>
  <city name="Bojorjes">
    <latitude>14.583333</latitude>
    <longitude>-89.283333</longitude>
  </city>
  <city name="Bola de Oro">
    <latitude>14.7</latitude>
    <longitude>-90.8</longitude>
  </city>
  <city name="Bolívar">
    <latitude>14.566667</latitude>
    <longitude>-91.85</longitude>
  </city>
  <city name="Bolivia">
    <latitude>14.166667</latitude>
    <longitude>-91.466667</longitude>
  </city>
  <city name="Boloncó">
    <latitude>15.85</latitude>
    <longitude>-89.733333</longitude>
  </city>
  <city name="Bonanchán">
    <latitude>17.006013</latitude>
    <longitude>-90.020548</longitude>
  </city>
  <city name="Boquerón">
    <latitude>15.516667</latitude>
    <longitude>-92.016667</longitude>
  </city>
  <city name="Borbollón">
    <latitude>14.15</latitude>
    <longitude>-89.8</longitude>
  </city>
  <city name="Bordo Alto">
    <latitude>14.25</latitude>
    <longitude>-90.05</longitude>
  </city>
  <city name="Bordo">
    <latitude>14.866667</latitude>
    <longitude>-89.266667</longitude>
  </city>
  <city name="Botón Blanco">
    <latitude>13.992222</latitude>
    <longitude>-90.93</longitude>
  </city>
  <city name="Boxomá">
    <latitude>14.466667</latitude>
    <longitude>-91.65</longitude>
  </city>
  <city name="Boyero">
    <latitude>14.566667</latitude>
    <longitude>-89.466667</longitude>
  </city>
  <city name="Boyeros">
    <latitude>14.566667</latitude>
    <longitude>-89.466667</longitude>
  </city>
  <city name="Bracitos">
    <latitude>14.25</latitude>
    <longitude>-91.55</longitude>
  </city>
  <city name="Bramaderos">
    <latitude>14.9</latitude>
    <longitude>-90.25</longitude>
  </city>
  <city name="Brasilar">
    <latitude>14.866667</latitude>
    <longitude>-90.65</longitude>
  </city>
  <city name="Brasil">
    <latitude>14.85</latitude>
    <longitude>-90.383333</longitude>
  </city>
  <city name="Briceños">
    <latitude>15.566667</latitude>
    <longitude>-89.1</longitude>
  </city>
  <city name="Brigada">
    <latitude>14.633333</latitude>
    <longitude>-90.583333</longitude>
  </city>
  <city name="Brisas Azules">
    <latitude>14.85</latitude>
    <longitude>-91.783333</longitude>
  </city>
  <city name="Briseña">
    <latitude>15.566667</latitude>
    <longitude>-89.1</longitude>
  </city>
  <city name="Briseño">
    <latitude>15.566667</latitude>
    <longitude>-89.1</longitude>
  </city>
  <city name="Brito">
    <latitude>14.140556</latitude>
    <longitude>-90.661111</longitude>
  </city>
  <city name="Buenaventura">
    <latitude>14.9</latitude>
    <longitude>-90.433333</longitude>
  </city>
  <city name="Buena Vista">
    <latitude>15.433333</latitude>
    <longitude>-89.666667</longitude>
  </city>
  <city name="Buena Vista Las Flores">
    <latitude>14.866667</latitude>
    <longitude>-92.033333</longitude>
  </city>
  <city name="Buenos Aires">
    <latitude>15.35</latitude>
    <longitude>-91.45</longitude>
  </city>
  <city name="Buen Retiro">
    <latitude>14.916667</latitude>
    <longitude>-90.583333</longitude>
  </city>
  <city name="Bujxub">
    <latitude>15.716667</latitude>
    <longitude>-91.783333</longitude>
  </city>
  <city name="Bulej">
    <latitude>15.933333</latitude>
    <longitude>-91.566667</longitude>
  </city>
  <city name="Bullaj">
    <latitude>15.083333</latitude>
    <longitude>-92.033333</longitude>
  </city>
  <city name="Burgos">
    <latitude>16.443333</latitude>
    <longitude>-89.127222</longitude>
  </city>
  <city name="Buxup">
    <latitude>15.716667</latitude>
    <longitude>-91.783333</longitude>
  </city>
  <city name="Caaché">
    <latitude>15.983333</latitude>
    <longitude>-89.25</longitude>
  </city>
  <city name="Cabá">
    <latitude>15.633333</latitude>
    <longitude>-90.95</longitude>
  </city>
  <city name="Caballo Blanco">
    <latitude>14.483333</latitude>
    <longitude>-91.833333</longitude>
  </city>
  <city name="Cabañas">
    <latitude>14.566667</latitude>
    <longitude>-91.7</longitude>
  </city>
  <city name="Cabeza de Vaca">
    <latitude>15.883333</latitude>
    <longitude>-88.95</longitude>
  </city>
  <city name="Cabezas">
    <latitude>14.733333</latitude>
    <longitude>-90.083333</longitude>
  </city>
  <city name="Cabrera">
    <latitude>15.0</latitude>
    <longitude>-90.566667</longitude>
  </city>
  <city name="Cabricán">
    <latitude>15.133333</latitude>
    <longitude>-91.616667</longitude>
  </city>
  <city name="Cabro">
    <latitude>16.411667</latitude>
    <longitude>-89.0625</longitude>
  </city>
  <city name="Cacabal">
    <latitude>15.066667</latitude>
    <longitude>-90.966667</longitude>
  </city>
  <city name="Cacaguatepeque">
    <latitude>14.533333</latitude>
    <longitude>-89.55</longitude>
  </city>
  <city name="Cacahuatepeque">
    <latitude>14.533333</latitude>
    <longitude>-89.55</longitude>
  </city>
  <city name="Cacao">
    <latitude>15.583333</latitude>
    <longitude>-88.433333</longitude>
  </city>
  <city name="Cacaotepeque">
    <latitude>14.533333</latitude>
    <longitude>-89.55</longitude>
  </city>
  <city name="Cacao Viejo">
    <latitude>14.983333</latitude>
    <longitude>-90.183333</longitude>
  </city>
  <city name="Cacchixlá">
    <latitude>15.647222</latitude>
    <longitude>-91.084167</longitude>
  </city>
  <city name="Cachichoch">
    <latitude>15.8</latitude>
    <longitude>-89.333333</longitude>
  </city>
  <city name="Cachil">
    <latitude>15.15</latitude>
    <longitude>-90.25</longitude>
  </city>
  <city name="Cacualtzul">
    <latitude>15.583333</latitude>
    <longitude>-90.083333</longitude>
  </city>
  <city name="Cacubén">
    <latitude>15.160833</latitude>
    <longitude>-91.285833</longitude>
  </city>
  <city name="Cacum">
    <latitude>15.248611</latitude>
    <longitude>-91.486667</longitude>
  </city>
  <city name="Cadena">
    <latitude>15.883333</latitude>
    <longitude>-89.216667</longitude>
  </city>
  <city name="Cadenas">
    <latitude>15.883333</latitude>
    <longitude>-89.216667</longitude>
  </city>
  <city name="Cafetales">
    <latitude>14.616667</latitude>
    <longitude>-89.166667</longitude>
  </city>
  <city name="Cahabón">
    <latitude>15.566667</latitude>
    <longitude>-89.816667</longitude>
  </city>
  <city name="Cahaboncillo">
    <latitude>15.45</latitude>
    <longitude>-89.583333</longitude>
  </city>
  <city name="Cahaboncito">
    <latitude>15.45</latitude>
    <longitude>-89.583333</longitude>
  </city>
  <city name="Caín">
    <latitude>16.196944</latitude>
    <longitude>-89.486111</longitude>
  </city>
  <city name="Cajataví">
    <latitude>15.816667</latitude>
    <longitude>-91.716667</longitude>
  </city>
  <city name="Cajixaj">
    <latitude>15.433333</latitude>
    <longitude>-90.933333</longitude>
  </city>
  <city name="Cajixay">
    <latitude>15.433333</latitude>
    <longitude>-90.933333</longitude>
  </city>
  <city name="Cajolá">
    <latitude>14.916667</latitude>
    <longitude>-91.616667</longitude>
  </city>
  <city name="Cajolá Chiquito">
    <latitude>14.933333</latitude>
    <longitude>-91.6</longitude>
  </city>
  <city name="Cajón del Río">
    <latitude>14.816667</latitude>
    <longitude>-89.266667</longitude>
  </city>
  <city name="Cajtabi">
    <latitude>15.816667</latitude>
    <longitude>-91.716667</longitude>
  </city>
  <city name="Cajuíl">
    <latitude>15.633333</latitude>
    <longitude>-91.766667</longitude>
  </city>
  <city name="Cajux">
    <latitude>15.65</latitude>
    <longitude>-89.983333</longitude>
  </city>
  <city name="Calabasco">
    <latitude>17.479444</latitude>
    <longitude>-89.969444</longitude>
  </city>
  <city name="Calabaza">
    <latitude>17.479444</latitude>
    <longitude>-89.969444</longitude>
  </city>
  <city name="Calabazal">
    <latitude>17.479444</latitude>
    <longitude>-89.969444</longitude>
  </city>
  <city name="Calá">
    <latitude>15.4</latitude>
    <longitude>-90.65</longitude>
  </city>
  <city name="Calanté">
    <latitude>15.466667</latitude>
    <longitude>-90.833333</longitude>
  </city>
  <city name="Calapté">
    <latitude>15.15</latitude>
    <longitude>-91.85</longitude>
  </city>
  <city name="Calaveras">
    <latitude>15.45</latitude>
    <longitude>-91.466667</longitude>
  </city>
  <city name="Calaví">
    <latitude>15.816667</latitude>
    <longitude>-91.716667</longitude>
  </city>
  <city name="Calderas">
    <latitude>14.416667</latitude>
    <longitude>-90.6</longitude>
  </city>
  <city name="Calel">
    <latitude>15.066667</latitude>
    <longitude>-91.566667</longitude>
  </city>
  <city name="Caliaj">
    <latitude>14.75</latitude>
    <longitude>-91.083333</longitude>
  </city>
  <city name="California">
    <latitude>14.566667</latitude>
    <longitude>-89.716667</longitude>
  </city>
  <city name="Calix">
    <latitude>15.8</latitude>
    <longitude>-88.883333</longitude>
  </city>
  <city name="Cálix Creek">
    <latitude>15.8</latitude>
    <longitude>-88.883333</longitude>
  </city>
  <city name="Camaché">
    <latitude>14.616667</latitude>
    <longitude>-91.4</longitude>
  </city>
  <city name="Camacutz">
    <latitude>15.009167</latitude>
    <longitude>-90.948333</longitude>
  </city>
  <city name="Camalmapa">
    <latitude>15.183333</latitude>
    <longitude>-90.416667</longitude>
  </city>
  <city name="Camalotal">
    <latitude>17.003056</latitude>
    <longitude>-89.178056</longitude>
  </city>
  <city name="Camalote">
    <latitude>14.733333</latitude>
    <longitude>-89.266667</longitude>
  </city>
  <city name="Camán">
    <latitude>14.683333</latitude>
    <longitude>-90.933333</longitude>
  </city>
  <city name="Camanchaj">
    <latitude>14.866667</latitude>
    <longitude>-91.133333</longitude>
  </city>
  <city name="Camanibal">
    <latitude>14.916667</latitude>
    <longitude>-91.083333</longitude>
  </city>
  <city name="Camantulul">
    <latitude>14.316667</latitude>
    <longitude>-91.05</longitude>
  </city>
  <city name="Camarón">
    <latitude>14.716667</latitude>
    <longitude>-89.683333</longitude>
  </city>
  <city name="Camarones">
    <latitude>14.066667</latitude>
    <longitude>-89.75</longitude>
  </city>
  <city name="Cambalache">
    <latitude>15.916667</latitude>
    <longitude>-88.566667</longitude>
  </city>
  <city name="Cambalam">
    <latitude>15.434444</latitude>
    <longitude>-91.175278</longitude>
  </city>
  <city name="Cambalcol">
    <latitude>14.733333</latitude>
    <longitude>-90.816667</longitude>
  </city>
  <city name="Cambayal">
    <latitude>15.7</latitude>
    <longitude>-90.183333</longitude>
  </city>
  <city name="Cambote">
    <latitude>15.303611</latitude>
    <longitude>-91.4925</longitude>
  </city>
  <city name="Camelias">
    <latitude>15.666667</latitude>
    <longitude>-88.95</longitude>
  </city>
  <city name="Camino de San Pedro">
    <latitude>14.7</latitude>
    <longitude>-90.65</longitude>
  </city>
  <city name="Camino Real">
    <latitude>14.883333</latitude>
    <longitude>-89.333333</longitude>
  </city>
  <city name="Camojá">
    <latitude>15.583333</latitude>
    <longitude>-91.9</longitude>
  </city>
  <city name="Camojá Grande">
    <latitude>15.583333</latitude>
    <longitude>-91.9</longitude>
  </city>
  <city name="Camojalillo">
    <latitude>15.55</latitude>
    <longitude>-91.85</longitude>
  </city>
  <city name="Camojalito">
    <latitude>15.55</latitude>
    <longitude>-91.85</longitude>
  </city>
  <city name="Camojallito">
    <latitude>15.55</latitude>
    <longitude>-91.85</longitude>
  </city>
  <city name="Camotán">
    <latitude>14.816667</latitude>
    <longitude>-89.366667</longitude>
  </city>
  <city name="Campamac">
    <latitude>15.766667</latitude>
    <longitude>-89.733333</longitude>
  </city>
  <city name="Campamento">
    <latitude>16.183333</latitude>
    <longitude>-90.333333</longitude>
  </city>
  <city name="Campamento Petrolero Rubelsanto">
    <latitude>15.983333</latitude>
    <longitude>-90.45</longitude>
  </city>
  <city name="Campanapec">
    <latitude>15.666667</latitude>
    <longitude>-89.75</longitude>
  </city>
  <city name="Campanario">
    <latitude>14.966667</latitude>
    <longitude>-89.266667</longitude>
  </city>
  <city name="Campat">
    <latitude>15.383333</latitude>
    <longitude>-90.3</longitude>
  </city>
  <city name="Campo Dos">
    <latitude>15.4</latitude>
    <longitude>-89.05</longitude>
  </city>
  <city name="Campo Tres">
    <latitude>15.4</latitude>
    <longitude>-89.05</longitude>
  </city>
  <city name="Campur">
    <latitude>15.633333</latitude>
    <longitude>-90.05</longitude>
  </city>
  <city name="Canabaj">
    <latitude>15.35</latitude>
    <longitude>-91.5</longitude>
  </city>
  <city name="Cañada">
    <latitude>14.466667</latitude>
    <longitude>-89.433333</longitude>
  </city>
  <city name="Cañada del Pino">
    <latitude>14.733333</latitude>
    <longitude>-89.2</longitude>
  </city>
  <city name="Canalitos">
    <latitude>14.624444</latitude>
    <longitude>-90.452222</longitude>
  </city>
  <city name="Canamixtoj">
    <latitude>15.095833</latitude>
    <longitude>-91.24</longitude>
  </city>
  <city name="Cananá">
    <latitude>15.861111</latitude>
    <longitude>-91.413056</longitude>
  </city>
  <city name="Canán">
    <latitude>14.8</latitude>
    <longitude>-89.566667</longitude>
  </city>
  <city name="Cananté">
    <latitude>15.65</latitude>
    <longitude>-89.6</longitude>
  </city>
  <city name="Canapará">
    <latitude>14.766667</latitude>
    <longitude>-89.383333</longitude>
  </city>
  <city name="Canaquil">
    <latitude>15.466389</latitude>
    <longitude>-91.237222</longitude>
  </city>
  <city name="Cañas">
    <latitude>14.633333</latitude>
    <longitude>-89.25</longitude>
  </city>
  <city name="Caña Vieja">
    <latitude>14.566667</latitude>
    <longitude>-89.566667</longitude>
  </city>
  <city name="Cancábal">
    <latitude>15.238889</latitude>
    <longitude>-91.436389</longitude>
  </city>
  <city name="Canchacán">
    <latitude>16.273333</latitude>
    <longitude>-89.418889</longitude>
  </city>
  <city name="Canchón">
    <latitude>15.216667</latitude>
    <longitude>-90.433333</longitude>
  </city>
  <city name="Canchún">
    <latitude>15.216667</latitude>
    <longitude>-90.433333</longitude>
  </city>
  <city name="Cancín">
    <latitude>14.466667</latitude>
    <longitude>-91.483333</longitude>
  </city>
  <city name="Cancuela">
    <latitude>16.0</latitude>
    <longitude>-89.933333</longitude>
  </city>
  <city name="Cancuén">
    <latitude>16.0</latitude>
    <longitude>-89.933333</longitude>
  </city>
  <city name="Candelaria">
    <latitude>15.35</latitude>
    <longitude>-90.183333</longitude>
  </city>
  <city name="Candelita">
    <latitude>14.416667</latitude>
    <longitude>-89.966667</longitude>
  </city>
  <city name="Cangrejal">
    <latitude>16.230278</latitude>
    <longitude>-89.472222</longitude>
  </city>
  <city name="Cangrejitos">
    <latitude>14.416667</latitude>
    <longitude>-89.983333</longitude>
  </city>
  <city name="Caníbal">
    <latitude>15.4</latitude>
    <longitude>-92.033333</longitude>
  </city>
  <city name="Canillá">
    <latitude>15.166667</latitude>
    <longitude>-90.85</longitude>
  </city>
  <city name="Caniyá">
    <latitude>15.166667</latitude>
    <longitude>-90.85</longitude>
  </city>
  <city name="Canjón del Río">
    <latitude>14.816667</latitude>
    <longitude>-89.266667</longitude>
  </city>
  <city name="Canlún">
    <latitude>15.3</latitude>
    <longitude>-89.783333</longitude>
  </city>
  <city name="Canoas">
    <latitude>14.566667</latitude>
    <longitude>-89.266667</longitude>
  </city>
  <city name="Canoguitas">
    <latitude>14.983333</latitude>
    <longitude>-89.483333</longitude>
  </city>
  <city name="Canoj">
    <latitude>14.733333</latitude>
    <longitude>-91.85</longitude>
  </city>
  <city name="Canquintic">
    <latitude>15.9</latitude>
    <longitude>-91.65</longitude>
  </city>
  <city name="Canquixjá">
    <latitude>15.119722</latitude>
    <longitude>-91.351389</longitude>
  </city>
  <city name="Canrujá">
    <latitude>15.85</latitude>
    <longitude>-90.283333</longitude>
  </city>
  <city name="Cansís Arriba">
    <latitude>16.191944</latitude>
    <longitude>-89.367222</longitude>
  </city>
  <city name="Cansís">
    <latitude>16.125278</latitude>
    <longitude>-89.382222</longitude>
  </city>
  <city name="Cansupe">
    <latitude>14.933333</latitude>
    <longitude>-91.8</longitude>
  </city>
  <city name="Canta Rana">
    <latitude>13.966667</latitude>
    <longitude>-90.983333</longitude>
  </city>
  <city name="Cantarrana">
    <latitude>13.966667</latitude>
    <longitude>-90.983333</longitude>
  </city>
  <city name="Canteada">
    <latitude>14.261389</latitude>
    <longitude>-89.562778</longitude>
  </city>
  <city name="Cantel">
    <latitude>15.666667</latitude>
    <longitude>-91.369722</longitude>
  </city>
  <city name="Cantetaj">
    <latitude>15.683333</latitude>
    <longitude>-91.566667</longitude>
  </city>
  <city name="Canton Barrios">
    <latitude>14.516667</latitude>
    <longitude>-90.183333</longitude>
  </city>
  <city name="Cantutú">
    <latitude>16.266667</latitude>
    <longitude>-89.399444</longitude>
  </city>
  <city name="Cantzelá">
    <latitude>15.368611</latitude>
    <longitude>-91.352222</longitude>
  </city>
  <city name="Cantzum">
    <latitude>15.55</latitude>
    <longitude>-89.883333</longitude>
  </city>
  <city name="Canuleu">
    <latitude>15.783333</latitude>
    <longitude>-91.716667</longitude>
  </city>
  <city name="Capac">
    <latitude>15.85</latitude>
    <longitude>-91.616667</longitude>
  </city>
  <city name="Caparjá">
    <latitude>14.85</latitude>
    <longitude>-89.233333</longitude>
  </city>
  <city name="Caparrosa">
    <latitude>14.133333</latitude>
    <longitude>-89.883333</longitude>
  </city>
  <city name="Capucal">
    <latitude>14.933333</latitude>
    <longitude>-89.266667</longitude>
  </city>
  <city name="Capucalito">
    <latitude>14.933333</latitude>
    <longitude>-89.25</longitude>
  </city>
  <city name="Capuchinas">
    <latitude>15.028056</latitude>
    <longitude>-90.944722</longitude>
  </city>
  <city name="Capulín">
    <latitude>14.55</latitude>
    <longitude>-89.433333</longitude>
  </city>
  <city name="Caquichoch">
    <latitude>15.8</latitude>
    <longitude>-89.333333</longitude>
  </city>
  <city name="Caqui Creek">
    <latitude>15.816667</latitude>
    <longitude>-89.2</longitude>
  </city>
  <city name="Caquil">
    <latitude>15.0</latitude>
    <longitude>-90.75</longitude>
  </city>
  <city name="Caquintie">
    <latitude>15.9</latitude>
    <longitude>-91.65</longitude>
  </city>
  <city name="Caquipec">
    <latitude>15.383333</latitude>
    <longitude>-90.15</longitude>
  </city>
  <city name="Caquitón">
    <latitude>15.533333</latitude>
    <longitude>-90.233333</longitude>
  </city>
  <city name="Caquixajay">
    <latitude>14.783333</latitude>
    <longitude>-91.066667</longitude>
  </city>
  <city name="Carbonera">
    <latitude>14.366667</latitude>
    <longitude>-89.766667</longitude>
  </city>
  <city name="Carboneras">
    <latitude>14.516667</latitude>
    <longitude>-89.566667</longitude>
  </city>
  <city name="Carchá">
    <latitude>15.483333</latitude>
    <longitude>-90.266667</longitude>
  </city>
  <city name="Cardenas">
    <latitude>15.883333</latitude>
    <longitude>-89.216667</longitude>
  </city>
  <city name="Carí Albayeros">
    <latitude>14.966667</latitude>
    <longitude>-89.366667</longitude>
  </city>
  <city name="Caribe">
    <latitude>14.783333</latitude>
    <longitude>-90.25</longitude>
  </city>
  <city name="Carí">
    <latitude>14.95</latitude>
    <longitude>-89.366667</longitude>
  </city>
  <city name="Carmelita">
    <latitude>17.46216</latitude>
    <longitude>-90.05634</longitude>
  </city>
  <city name="Carmen">
    <latitude>14.966667</latitude>
    <longitude>-92.133333</longitude>
  </city>
  <city name="Carretas">
    <latitude>15.1</latitude>
    <longitude>-89.383333</longitude>
  </city>
  <city name="Carrillo">
    <latitude>14.983333</latitude>
    <longitude>-91.216667</longitude>
  </city>
  <city name="Carrizal">
    <latitude>15.866667</latitude>
    <longitude>-89.95</longitude>
  </city>
  <city name="Carrizal Grande">
    <latitude>14.766667</latitude>
    <longitude>-89.9</longitude>
  </city>
  <city name="Carrizalito">
    <latitude>14.7</latitude>
    <longitude>-89.233333</longitude>
  </city>
  <city name="Carrizo">
    <latitude>14.933333</latitude>
    <longitude>-90.233333</longitude>
  </city>
  <city name="Carrizo Grande">
    <latitude>14.933333</latitude>
    <longitude>-90.233333</longitude>
  </city>
  <city name="Casaca">
    <latitude>15.4</latitude>
    <longitude>-91.783333</longitude>
  </city>
  <city name="Casa de Tablas">
    <latitude>14.533333</latitude>
    <longitude>-89.916667</longitude>
  </city>
  <city name="Casa Quemada">
    <latitude>14.55</latitude>
    <longitude>-89.433333</longitude>
  </city>
  <city name="Casas de Pinto">
    <latitude>15.033333</latitude>
    <longitude>-89.616667</longitude>
  </city>
  <city name="Casas de Teja">
    <latitude>13.860278</latitude>
    <longitude>-90.105</longitude>
  </city>
  <city name="Casas Viejas">
    <latitude>14.916667</latitude>
    <longitude>-90.55</longitude>
  </city>
  <city name="Cascajal">
    <latitude>14.533333</latitude>
    <longitude>-89.3</longitude>
  </city>
  <city name="Casillas">
    <latitude>14.422222</latitude>
    <longitude>-90.244167</longitude>
  </city>
  <city name="Castalia">
    <latitude>14.916667</latitude>
    <longitude>-91.75</longitude>
  </city>
  <city name="Castaño">
    <latitude>13.98</latitude>
    <longitude>-90.656667</longitude>
  </city>
  <city name="Castillo de San Felipe">
    <latitude>15.633333</latitude>
    <longitude>-89.0</longitude>
  </city>
  <city name="Cástulo Creek">
    <latitude>15.766667</latitude>
    <longitude>-89.0</longitude>
  </city>
  <city name="Catá">
    <latitude>15.4</latitude>
    <longitude>-90.65</longitude>
  </city>
  <city name="Cataltzul">
    <latitude>15.8</latitude>
    <longitude>-90.233333</longitude>
  </city>
  <city name="Catarata La Clarisa">
    <latitude>17.11</latitude>
    <longitude>-89.126389</longitude>
  </city>
  <city name="Catarina">
    <latitude>15.766667</latitude>
    <longitude>-91.75</longitude>
  </city>
  <city name="Catjaví">
    <latitude>15.816667</latitude>
    <longitude>-91.716667</longitude>
  </city>
  <city name="Catocha">
    <latitude>14.783333</latitude>
    <longitude>-89.65</longitude>
  </city>
  <city name="Caulotales">
    <latitude>15.033333</latitude>
    <longitude>-89.75</longitude>
  </city>
  <city name="Caulote">
    <latitude>14.65</latitude>
    <longitude>-89.45</longitude>
  </city>
  <city name="Caulotes">
    <latitude>14.65</latitude>
    <longitude>-89.45</longitude>
  </city>
  <city name="Caxlampom">
    <latitude>15.35</latitude>
    <longitude>-89.316667</longitude>
  </city>
  <city name="Caxlampón">
    <latitude>15.35</latitude>
    <longitude>-89.316667</longitude>
  </city>
  <city name="Cayetano">
    <latitude>14.533333</latitude>
    <longitude>-89.633333</longitude>
  </city>
  <city name="Cayo de Piedra">
    <latitude>15.683333</latitude>
    <longitude>-88.9</longitude>
  </city>
  <city name="Cayo Grande">
    <latitude>15.783333</latitude>
    <longitude>-88.833333</longitude>
  </city>
  <city name="Cayo Palomo">
    <latitude>15.766667</latitude>
    <longitude>-88.833333</longitude>
  </city>
  <city name="Cayo Piedra">
    <latitude>15.683333</latitude>
    <longitude>-88.9</longitude>
  </city>
  <city name="Cayo Quemado">
    <latitude>15.766667</latitude>
    <longitude>-88.833333</longitude>
  </city>
  <city name="Cayuga">
    <latitude>15.533333</latitude>
    <longitude>-88.7</longitude>
  </city>
  <city name="Cayur">
    <latitude>14.7</latitude>
    <longitude>-89.316667</longitude>
  </city>
  <city name="Cebadilla Grande">
    <latitude>14.65</latitude>
    <longitude>-90.383333</longitude>
  </city>
  <city name="Cebadillita">
    <latitude>14.65</latitude>
    <longitude>-90.383333</longitude>
  </city>
  <city name="Cebollas">
    <latitude>14.583333</latitude>
    <longitude>-89.416667</longitude>
  </city>
  <city name="Cebollín">
    <latitude>15.217778</latitude>
    <longitude>-91.415278</longitude>
  </city>
  <city name="Cececapa">
    <latitude>14.683333</latitude>
    <longitude>-89.616667</longitude>
  </city>
  <city name="Cedral">
    <latitude>14.883333</latitude>
    <longitude>-89.333333</longitude>
  </city>
  <city name="Cedro">
    <latitude>14.4</latitude>
    <longitude>-90.616667</longitude>
  </city>
  <city name="Ceiba Amelia">
    <latitude>14.1675</latitude>
    <longitude>-90.965</longitude>
  </city>
  <city name="Ceiba Blanca">
    <latitude>14.583333</latitude>
    <longitude>-91.616667</longitude>
  </city>
  <city name="Ceiba">
    <latitude>14.733333</latitude>
    <longitude>-89.45</longitude>
  </city>
  <city name="Ceibal">
    <latitude>16.55</latitude>
    <longitude>-90.05</longitude>
  </city>
  <city name="Ceiba Mocha">
    <latitude>13.934444</latitude>
    <longitude>-90.7525</longitude>
  </city>
  <city name="Ceibita">
    <latitude>14.616667</latitude>
    <longitude>-89.266667</longitude>
  </city>
  <city name="Cementerio">
    <latitude>14.883333</latitude>
    <longitude>-91.766667</longitude>
  </city>
  <city name="Ceníceras">
    <latitude>14.633333</latitude>
    <longitude>-89.566667</longitude>
  </city>
  <city name="Central">
    <latitude>16.4525</latitude>
    <longitude>-89.080833</longitude>
  </city>
  <city name="Central Edwards">
    <latitude>16.339167</latitude>
    <longitude>-89.153333</longitude>
  </city>
  <city name="Centroamérica">
    <latitude>14.333333</latitude>
    <longitude>-91.383333</longitude>
  </city>
  <city name="Cercadito">
    <latitude>14.433333</latitude>
    <longitude>-89.583333</longitude>
  </city>
  <city name="Cerco de Piedra">
    <latitude>14.883333</latitude>
    <longitude>-89.75</longitude>
  </city>
  <city name="Cerrito">
    <latitude>14.433333</latitude>
    <longitude>-90.45</longitude>
  </city>
  <city name="Cerritos">
    <latitude>14.766667</latitude>
    <longitude>-90.116667</longitude>
  </city>
  <city name="Cerro Alto">
    <latitude>14.7</latitude>
    <longitude>-90.8</longitude>
  </city>
  <city name="Cerro Blanco">
    <latitude>14.866667</latitude>
    <longitude>-90.35</longitude>
  </city>
  <city name="Cerro Chino">
    <latitude>14.433333</latitude>
    <longitude>-89.95</longitude>
  </city>
  <city name="Cerro Chiquito">
    <latitude>14.966667</latitude>
    <longitude>-89.466667</longitude>
  </city>
  <city name="Cerro Colorado">
    <latitude>14.166667</latitude>
    <longitude>-91.166667</longitude>
  </city>
  <city name="Cerro de Cal">
    <latitude>14.683333</latitude>
    <longitude>-89.55</longitude>
  </city>
  <city name="Cerro de Flores">
    <latitude>14.233333</latitude>
    <longitude>-89.583333</longitude>
  </city>
  <city name="Cerro del Manaco">
    <latitude>15.133333</latitude>
    <longitude>-89.066667</longitude>
  </city>
  <city name="Cerro de Oro">
    <latitude>14.666667</latitude>
    <longitude>-91.166667</longitude>
  </city>
  <city name="Cerro de Pinos">
    <latitude>14.466667</latitude>
    <longitude>-89.65</longitude>
  </city>
  <city name="Cerro de San Juan">
    <latitude>14.383333</latitude>
    <longitude>-90.1</longitude>
  </city>
  <city name="Cerro Gordo">
    <latitude>14.95</latitude>
    <longitude>-90.216667</longitude>
  </city>
  <city name="Cerro Grande">
    <latitude>15.466667</latitude>
    <longitude>-91.85</longitude>
  </city>
  <city name="Cerro Liso">
    <latitude>14.25</latitude>
    <longitude>-89.75</longitude>
  </city>
  <city name="Cerrón">
    <latitude>14.366667</latitude>
    <longitude>-89.7</longitude>
  </city>
  <city name="Cerro Redondo">
    <latitude>14.15</latitude>
    <longitude>-89.816667</longitude>
  </city>
  <city name="Chabilchoch">
    <latitude>15.783333</latitude>
    <longitude>-89.95</longitude>
  </city>
  <city name="Chacalté Aparicio">
    <latitude>14.516667</latitude>
    <longitude>-91.566667</longitude>
  </city>
  <city name="Chacalté">
    <latitude>15.5</latitude>
    <longitude>-90.2</longitude>
  </city>
  <city name="Chacalté Sis">
    <latitude>14.516667</latitude>
    <longitude>-91.583333</longitude>
  </city>
  <city name="Chacayá">
    <latitude>15.286944</latitude>
    <longitude>-91.109444</longitude>
  </city>
  <city name="Chachagualilla">
    <latitude>15.533333</latitude>
    <longitude>-88.5</longitude>
  </city>
  <city name="Chacmaic">
    <latitude>15.75</latitude>
    <longitude>-89.933333</longitude>
  </city>
  <city name="Chacón">
    <latitude>15.8</latitude>
    <longitude>-89.233333</longitude>
  </city>
  <city name="Chacté">
    <latitude>16.105833</latitude>
    <longitude>-89.363889</longitude>
  </city>
  <city name="Chagüite">
    <latitude>14.966667</latitude>
    <longitude>-90.233333</longitude>
  </city>
  <city name="Chagüites">
    <latitude>14.983333</latitude>
    <longitude>-89.366667</longitude>
  </city>
  <city name="Chagüitillo">
    <latitude>14.7</latitude>
    <longitude>-89.8</longitude>
  </city>
  <city name="Chagüitillo Segundo">
    <latitude>14.466667</latitude>
    <longitude>-89.6</longitude>
  </city>
  <city name="Chagüitón">
    <latitude>14.55</latitude>
    <longitude>-89.383333</longitude>
  </city>
  <city name="Chahal">
    <latitude>15.75</latitude>
    <longitude>-89.566667</longitude>
  </city>
  <city name="Chahuitán">
    <latitude>14.5</latitude>
    <longitude>-89.3</longitude>
  </city>
  <city name="Chahuite">
    <latitude>14.633333</latitude>
    <longitude>-89.583333</longitude>
  </city>
  <city name="Chahuitón">
    <latitude>14.95</latitude>
    <longitude>-89.25</longitude>
  </city>
  <city name="Chajabal">
    <latitude>14.9</latitude>
    <longitude>-91.5</longitude>
  </city>
  <city name="Chajalajyá">
    <latitude>14.816667</latitude>
    <longitude>-90.983333</longitude>
  </city>
  <city name="Chajalayá">
    <latitude>14.816667</latitude>
    <longitude>-90.983333</longitude>
  </city>
  <city name="Chajaneb">
    <latitude>15.4</latitude>
    <longitude>-90.216667</longitude>
  </city>
  <city name="Chajaval">
    <latitude>14.9</latitude>
    <longitude>-91.5</longitude>
  </city>
  <city name="Chajbal">
    <latitude>15.1</latitude>
    <longitude>-91.116667</longitude>
  </city>
  <city name="Chajbelén">
    <latitude>15.6</latitude>
    <longitude>-89.7</longitude>
  </city>
  <city name="Chajchacán">
    <latitude>15.7</latitude>
    <longitude>-90.316667</longitude>
  </city>
  <city name="Chajcorech">
    <latitude>15.75</latitude>
    <longitude>-89.55</longitude>
  </city>
  <city name="Chajil">
    <latitude>14.45</latitude>
    <longitude>-90.6</longitude>
  </city>
  <city name="Chajleu">
    <latitude>15.25</latitude>
    <longitude>-92.15</longitude>
  </city>
  <city name="Chajmaic Cajbón">
    <latitude>15.833333</latitude>
    <longitude>-89.9</longitude>
  </city>
  <city name="Chajmaic">
    <latitude>15.75</latitude>
    <longitude>-89.933333</longitude>
  </city>
  <city name="Chajmayic">
    <latitude>15.75</latitude>
    <longitude>-89.933333</longitude>
  </city>
  <city name="Chajul">
    <latitude>15.485278</latitude>
    <longitude>-91.034167</longitude>
  </city>
  <city name="Chalchal">
    <latitude>15.833333</latitude>
    <longitude>-91.466667</longitude>
  </city>
  <city name="Chalum">
    <latitude>15.6</latitude>
    <longitude>-91.983333</longitude>
  </city>
  <city name="Chamac">
    <latitude>15.433333</latitude>
    <longitude>-90.833333</longitude>
  </city>
  <city name="Chamelco">
    <latitude>15.433333</latitude>
    <longitude>-90.333333</longitude>
  </city>
  <city name="Chamil">
    <latitude>15.416667</latitude>
    <longitude>-90.216667</longitude>
  </city>
  <city name="Chamisún">
    <latitude>15.366667</latitude>
    <longitude>-90.233333</longitude>
  </city>
  <city name="Champas Corrientes">
    <latitude>15.55</latitude>
    <longitude>-88.433333</longitude>
  </city>
  <city name="Champerico">
    <latitude>14.3</latitude>
    <longitude>-91.916667</longitude>
  </city>
  <city name="Champollap">
    <latitude>14.95</latitude>
    <longitude>-91.766667</longitude>
  </city>
  <city name="Champona">
    <latitude>15.183333</latitude>
    <longitude>-89.066667</longitude>
  </city>
  <city name="Chamtacá">
    <latitude>15.55</latitude>
    <longitude>-90.183333</longitude>
  </city>
  <city name="Chanchicub">
    <latitude>15.016667</latitude>
    <longitude>-91.95</longitude>
  </city>
  <city name="Chanchicupé">
    <latitude>15.016667</latitude>
    <longitude>-91.95</longitude>
  </city>
  <city name="Chanchil">
    <latitude>14.883333</latitude>
    <longitude>-91.733333</longitude>
  </city>
  <city name="Chanchocal">
    <latitude>15.6</latitude>
    <longitude>-91.516667</longitude>
  </city>
  <city name="Chanchoc">
    <latitude>15.401111</latitude>
    <longitude>-91.253056</longitude>
  </city>
  <city name="Chancó">
    <latitude>14.716667</latitude>
    <longitude>-89.45</longitude>
  </city>
  <city name="Chancol">
    <latitude>15.5</latitude>
    <longitude>-91.35</longitude>
  </city>
  <city name="Chancolín">
    <latitude>15.936111</latitude>
    <longitude>-91.235833</longitude>
  </city>
  <city name="Chanjulé">
    <latitude>15.3</latitude>
    <longitude>-92.116667</longitude>
  </city>
  <city name="Chanmagua">
    <latitude>14.616667</latitude>
    <longitude>-89.2</longitude>
  </city>
  <city name="Chanrío">
    <latitude>17.067841</latitude>
    <longitude>-90.005341</longitude>
  </city>
  <city name="Chantiago">
    <latitude>14.85</latitude>
    <longitude>-89.283333</longitude>
  </city>
  <city name="Chantuoui">
    <latitude>17.53103</latitude>
    <longitude>-90.10531</longitude>
  </city>
  <city name="Chantuqui">
    <latitude>17.53103</latitude>
    <longitude>-90.10531</longitude>
  </city>
  <city name="Chaparrón">
    <latitude>14.516667</latitude>
    <longitude>-89.766667</longitude>
  </city>
  <city name="Chaparroncito">
    <latitude>14.566667</latitude>
    <longitude>-89.65</longitude>
  </city>
  <city name="Chapas">
    <latitude>14.433333</latitude>
    <longitude>-90.283333</longitude>
  </city>
  <city name="Chapayal">
    <latitude>15.966667</latitude>
    <longitude>-89.766667</longitude>
  </city>
  <city name="Chapetón">
    <latitude>13.835278</latitude>
    <longitude>-90.331944</longitude>
  </city>
  <city name="Chapín">
    <latitude>15.366667</latitude>
    <longitude>-89.283333</longitude>
  </city>
  <city name="Chapotán">
    <latitude>13.835278</latitude>
    <longitude>-90.331944</longitude>
  </city>
  <city name="Chapotón">
    <latitude>13.835278</latitude>
    <longitude>-90.331944</longitude>
  </city>
  <city name="Chapulco">
    <latitude>15.233333</latitude>
    <longitude>-89.083333</longitude>
  </city>
  <city name="Chapulín">
    <latitude>14.8</latitude>
    <longitude>-89.2</longitude>
  </city>
  <city name="Chaque">
    <latitude>15.174444</latitude>
    <longitude>-91.499167</longitude>
  </city>
  <city name="Chaquiex">
    <latitude>16.444167</latitude>
    <longitude>-89.432222</longitude>
  </city>
  <city name="Chaquiquiché">
    <latitude>15.833333</latitude>
    <longitude>-90.3</longitude>
  </city>
  <city name="Chaquirojá">
    <latitude>15.8</latitude>
    <longitude>-90.266667</longitude>
  </city>
  <city name="Charagüín">
    <latitude>14.666667</latitude>
    <longitude>-89.366667</longitude>
  </city>
  <city name="Chato">
    <latitude>14.704722</latitude>
    <longitude>-90.397222</longitude>
  </city>
  <city name="Chaucó">
    <latitude>14.716667</latitude>
    <longitude>-89.45</longitude>
  </city>
  <city name="Chaumagua">
    <latitude>14.616667</latitude>
    <longitude>-89.2</longitude>
  </city>
  <city name="Chavacal">
    <latitude>15.333333</latitude>
    <longitude>-89.833333</longitude>
  </city>
  <city name="Chavá">
    <latitude>14.883333</latitude>
    <longitude>-90.316667</longitude>
  </city>
  <city name="Chavarría">
    <latitude>14.35</latitude>
    <longitude>-89.75</longitude>
  </city>
  <city name="Chavilchoch">
    <latitude>15.783333</latitude>
    <longitude>-89.95</longitude>
  </city>
  <city name="Chayen">
    <latitude>14.916667</latitude>
    <longitude>-91.95</longitude>
  </city>
  <city name="Cheché">
    <latitude>15.366667</latitude>
    <longitude>-91.216667</longitude>
  </city>
  <city name="Chechimes">
    <latitude>15.516667</latitude>
    <longitude>-91.766667</longitude>
  </city>
  <city name="Chechó">
    <latitude>15.366667</latitude>
    <longitude>-91.216667</longitude>
  </city>
  <city name="Chegüez">
    <latitude>14.466667</latitude>
    <longitude>-91.4</longitude>
  </city>
  <city name="Chejel">
    <latitude>15.283333</latitude>
    <longitude>-90.05</longitude>
  </city>
  <city name="Chejoj">
    <latitude>15.4</latitude>
    <longitude>-91.883333</longitude>
  </city>
  <city name="Chelac">
    <latitude>15.566667</latitude>
    <longitude>-90.283333</longitude>
  </city>
  <city name="Chel">
    <latitude>15.641667</latitude>
    <longitude>-91.066111</longitude>
  </city>
  <city name="Chemal">
    <latitude>15.5</latitude>
    <longitude>-90.95</longitude>
  </city>
  <city name="Chenén">
    <latitude>15.85</latitude>
    <longitude>-91.583333</longitude>
  </city>
  <city name="Chepol">
    <latitude>14.883333</latitude>
    <longitude>-91.083333</longitude>
  </city>
  <city name="Chequé">
    <latitude>15.8</latitude>
    <longitude>-91.383333</longitude>
  </city>
  <city name="Chex">
    <latitude>15.381389</latitude>
    <longitude>-91.303889</longitude>
  </city>
  <city name="Chexjoj">
    <latitude>15.845</latitude>
    <longitude>-91.493056</longitude>
  </city>
  <city name="Chiacal">
    <latitude>15.316667</latitude>
    <longitude>-90.383333</longitude>
  </city>
  <city name="Chiacalté">
    <latitude>15.5</latitude>
    <longitude>-90.2</longitude>
  </city>
  <city name="Chiacam">
    <latitude>15.55</latitude>
    <longitude>-90.116667</longitude>
  </city>
  <city name="Chiac">
    <latitude>15.1</latitude>
    <longitude>-90.516667</longitude>
  </city>
  <city name="Chiachal">
    <latitude>15.683333</latitude>
    <longitude>-90.266667</longitude>
  </city>
  <city name="Chiá">
    <latitude>15.833056</latitude>
    <longitude>-91.3625</longitude>
  </city>
  <city name="Chiaján">
    <latitude>15.55</latitude>
    <longitude>-90.116667</longitude>
  </city>
  <city name="Chiaj">
    <latitude>15.033333</latitude>
    <longitude>-91.233333</longitude>
  </city>
  <city name="Chiantla">
    <latitude>15.354722</latitude>
    <longitude>-91.458333</longitude>
  </city>
  <city name="Chibalchen">
    <latitude>15.793056</latitude>
    <longitude>-91.334167</longitude>
  </city>
  <city name="Chibal">
    <latitude>15.666667</latitude>
    <longitude>-91.533333</longitude>
  </city>
  <city name="Chibal Chiquito">
    <latitude>15.717222</latitude>
    <longitude>-91.391944</longitude>
  </city>
  <city name="Chibalo">
    <latitude>14.85</latitude>
    <longitude>-90.9</longitude>
  </city>
  <city name="Chibarreto">
    <latitude>15.0</latitude>
    <longitude>-91.533333</longitude>
  </city>
  <city name="Chibatutuy">
    <latitude>14.821667</latitude>
    <longitude>-90.508611</longitude>
  </city>
  <city name="Chiblac Buena Vista">
    <latitude>15.883333</latitude>
    <longitude>-91.2575</longitude>
  </city>
  <city name="Chiblac">
    <latitude>15.815556</latitude>
    <longitude>-91.204722</longitude>
  </city>
  <city name="Chiboy">
    <latitude>15.233333</latitude>
    <longitude>-90.866667</longitude>
  </city>
  <city name="Chicabracán">
    <latitude>15.0</latitude>
    <longitude>-91.1</longitude>
  </city>
  <city name="Chicacao">
    <latitude>15.5</latitude>
    <longitude>-90.166667</longitude>
  </city>
  <city name="Chicago">
    <latitude>14.083333</latitude>
    <longitude>-91.616667</longitude>
  </city>
  <city name="Chicajalaj">
    <latitude>15.1</latitude>
    <longitude>-91.683333</longitude>
  </city>
  <city name="Chicajay">
    <latitude>14.65</latitude>
    <longitude>-91.3</longitude>
  </city>
  <city name="Chicalajá">
    <latitude>14.883333</latitude>
    <longitude>-91.483333</longitude>
  </city>
  <city name="Chical">
    <latitude>14.883333</latitude>
    <longitude>-90.183333</longitude>
  </city>
  <city name="Chicalté">
    <latitude>14.966667</latitude>
    <longitude>-91.166667</longitude>
  </city>
  <city name="Chicamán">
    <latitude>15.4</latitude>
    <longitude>-90.766667</longitude>
  </city>
  <city name="Chicanutz">
    <latitude>15.516667</latitude>
    <longitude>-89.933333</longitude>
  </city>
  <city name="Chicao">
    <latitude>14.083333</latitude>
    <longitude>-91.616667</longitude>
  </city>
  <city name="Chicasanga">
    <latitude>14.583333</latitude>
    <longitude>-90.866667</longitude>
  </city>
  <city name="Chicastellanos">
    <latitude>14.783333</latitude>
    <longitude>-90.716667</longitude>
  </city>
  <city name="Chicavioc">
    <latitude>14.783333</latitude>
    <longitude>-91.533333</longitude>
  </city>
  <city name="Chicazanga">
    <latitude>14.583333</latitude>
    <longitude>-90.866667</longitude>
  </city>
  <city name="Chicerá">
    <latitude>14.966667</latitude>
    <longitude>-91.5</longitude>
  </city>
  <city name="Chichac">
    <latitude>14.883333</latitude>
    <longitude>-91.0</longitude>
  </city>
  <city name="Chiché">
    <latitude>15.008611</latitude>
    <longitude>-91.065</longitude>
  </city>
  <city name="Chichicaste">
    <latitude>14.883333</latitude>
    <longitude>-90.216667</longitude>
  </city>
  <city name="Chichicastenango">
    <latitude>14.933333</latitude>
    <longitude>-91.116667</longitude>
  </city>
  <city name="Chichihuitán">
    <latitude>14.833333</latitude>
    <longitude>-91.466667</longitude>
  </city>
  <city name="Chichijá">
    <latitude>16.173611</latitude>
    <longitude>-89.323056</longitude>
  </city>
  <city name="Chichimecas">
    <latitude>14.0</latitude>
    <longitude>-91.283333</longitude>
  </city>
  <city name="Chichimecos">
    <latitude>14.0</latitude>
    <longitude>-91.283333</longitude>
  </city>
  <city name="Chichimes">
    <latitude>15.516667</latitude>
    <longitude>-91.766667</longitude>
  </city>
  <city name="Chichimuch">
    <latitude>14.783333</latitude>
    <longitude>-91.25</longitude>
  </city>
  <city name="Chichipate">
    <latitude>15.483333</latitude>
    <longitude>-89.466667</longitude>
  </city>
  <city name="Chicho">
    <latitude>15.005278</latitude>
    <longitude>-91.246944</longitude>
  </city>
  <city name="Chicholom">
    <latitude>15.266667</latitude>
    <longitude>-90.35</longitude>
  </city>
  <city name="Chichoque">
    <latitude>15.335278</latitude>
    <longitude>-91.284722</longitude>
  </city>
  <city name="Chichoy">
    <latitude>14.683333</latitude>
    <longitude>-91.066667</longitude>
  </city>
  <city name="Chichulón">
    <latitude>15.266667</latitude>
    <longitude>-90.35</longitude>
  </city>
  <city name="Chichupac">
    <latitude>15.05</latitude>
    <longitude>-90.433333</longitude>
  </city>
  <city name="Chichuxtín">
    <latitude>15.183333</latitude>
    <longitude>-90.6</longitude>
  </city>
  <city name="Chicoc">
    <latitude>15.716667</latitude>
    <longitude>-89.666667</longitude>
  </city>
  <city name="Chico Cimarrón">
    <latitude>14.283333</latitude>
    <longitude>-90.8</longitude>
  </city>
  <city name="Chico Hilario">
    <latitude>14.45</latitude>
    <longitude>-89.933333</longitude>
  </city>
  <city name="Chicoji">
    <latitude>15.533333</latitude>
    <longitude>-90.233333</longitude>
  </city>
  <city name="Chicojil">
    <latitude>15.533333</latitude>
    <longitude>-90.233333</longitude>
  </city>
  <city name="Chicojl">
    <latitude>15.533333</latitude>
    <longitude>-90.233333</longitude>
  </city>
  <city name="Chicojom">
    <latitude>14.8</latitude>
    <longitude>-90.716667</longitude>
  </city>
  <city name="Chicol">
    <latitude>15.333333</latitude>
    <longitude>-91.583333</longitude>
  </city>
  <city name="Chicorral">
    <latitude>15.466667</latitude>
    <longitude>-90.75</longitude>
  </city>
  <city name="Chicoy">
    <latitude>15.55</latitude>
    <longitude>-91.6</longitude>
  </city>
  <city name="Chicoyoj">
    <latitude>15.35</latitude>
    <longitude>-90.416667</longitude>
  </city>
  <city name="Chicuacab">
    <latitude>14.883333</latitude>
    <longitude>-91.116667</longitude>
  </city>
  <city name="Chicuá">
    <latitude>14.883333</latitude>
    <longitude>-91.133333</longitude>
  </city>
  <city name="Chicuá Primero">
    <latitude>14.883333</latitude>
    <longitude>-91.133333</longitude>
  </city>
  <city name="Chicuá Segundo">
    <latitude>14.883333</latitude>
    <longitude>-91.116667</longitude>
  </city>
  <city name="Chicuxab">
    <latitude>15.416667</latitude>
    <longitude>-90.416667</longitude>
  </city>
  <city name="Chicuxub">
    <latitude>15.683333</latitude>
    <longitude>-90.316667</longitude>
  </city>
  <city name="Chidonjuan">
    <latitude>14.783333</latitude>
    <longitude>-90.716667</longitude>
  </city>
  <city name="Chieljá">
    <latitude>15.7</latitude>
    <longitude>-90.083333</longitude>
  </city>
  <city name="Chignautla">
    <latitude>14.708333</latitude>
    <longitude>-90.499444</longitude>
  </city>
  <city name="Chigonzález">
    <latitude>14.783333</latitude>
    <longitude>-90.8</longitude>
  </city>
  <city name="Chiguán">
    <latitude>15.11</latitude>
    <longitude>-91.213611</longitude>
  </city>
  <city name="Chiguarabal">
    <latitude>14.733333</latitude>
    <longitude>-91.033333</longitude>
  </city>
  <city name="Chiguaxté">
    <latitude>14.55</latitude>
    <longitude>-91.466667</longitude>
  </city>
  <city name="Chihul">
    <latitude>15.166667</latitude>
    <longitude>-90.616667</longitude>
  </city>
  <city name="Chijabaj">
    <latitude>14.883333</latitude>
    <longitude>-90.933333</longitude>
  </city>
  <city name="Chijacinto">
    <latitude>14.866667</latitude>
    <longitude>-91.016667</longitude>
  </city>
  <city name="Chijocom">
    <latitude>14.8</latitude>
    <longitude>-90.716667</longitude>
  </city>
  <city name="Chijocón">
    <latitude>14.8</latitude>
    <longitude>-90.716667</longitude>
  </city>
  <city name="Chijolom">
    <latitude>15.45</latitude>
    <longitude>-89.933333</longitude>
  </city>
  <city name="Chijoú">
    <latitude>15.45</latitude>
    <longitude>-90.433333</longitude>
  </city>
  <city name="Chijtinimit">
    <latitude>14.95</latitude>
    <longitude>-91.133333</longitude>
  </city>
  <city name="Chijtzac">
    <latitude>14.85</latitude>
    <longitude>-90.933333</longitude>
  </city>
  <city name="Chilar">
    <latitude>14.716667</latitude>
    <longitude>-89.65</longitude>
  </city>
  <city name="Chilascó">
    <latitude>15.116667</latitude>
    <longitude>-90.1</longitude>
  </city>
  <city name="Chilatz">
    <latitude>15.516667</latitude>
    <longitude>-90.333333</longitude>
  </city>
  <city name="Chile Arriba">
    <latitude>14.533333</latitude>
    <longitude>-89.65</longitude>
  </city>
  <city name="Chilebé">
    <latitude>15.216667</latitude>
    <longitude>-91.766667</longitude>
  </city>
  <city name="Chile">
    <latitude>14.8</latitude>
    <longitude>-90.266667</longitude>
  </city>
  <city name="Chilil">
    <latitude>15.25</latitude>
    <longitude>-90.933333</longitude>
  </city>
  <city name="Chilimaton">
    <latitude>15.377222</latitude>
    <longitude>-91.194167</longitude>
  </city>
  <city name="Chilive">
    <latitude>15.216667</latitude>
    <longitude>-91.766667</longitude>
  </city>
  <city name="Chillaní">
    <latitude>14.716667</latitude>
    <longitude>-90.55</longitude>
  </city>
  <city name="Chillar">
    <latitude>14.85</latitude>
    <longitude>-90.083333</longitude>
  </city>
  <city name="Chilzapote">
    <latitude>14.8</latitude>
    <longitude>-90.05</longitude>
  </city>
  <city name="Chimachoy">
    <latitude>14.566667</latitude>
    <longitude>-90.85</longitude>
  </city>
  <city name="Chimaltenango">
    <latitude>14.668611</latitude>
    <longitude>-90.816667</longitude>
  </city>
  <city name="Chimanzana">
    <latitude>15.35</latitude>
    <longitude>-90.983333</longitude>
  </city>
  <city name="Chimasat">
    <latitude>14.7</latitude>
    <longitude>-90.95</longitude>
  </city>
  <city name="Chimasayul">
    <latitude>15.583333</latitude>
    <longitude>-90.45</longitude>
  </city>
  <city name="Chimaxyat">
    <latitude>15.5</latitude>
    <longitude>-89.733333</longitude>
  </city>
  <city name="Chimay">
    <latitude>16.1</latitude>
    <longitude>-89.516667</longitude>
  </city>
  <city name="Chim">
    <latitude>14.916667</latitude>
    <longitude>-91.75</longitude>
  </city>
  <city name="Chimelb">
    <latitude>15.566667</latitude>
    <longitude>-90.016667</longitude>
  </city>
  <city name="Chimel">
    <latitude>15.566667</latitude>
    <longitude>-90.016667</longitude>
  </city>
  <city name="Chimenjá">
    <latitude>15.75</latitude>
    <longitude>-89.716667</longitude>
  </city>
  <city name="Chimente">
    <latitude>14.95</latitude>
    <longitude>-91.233333</longitude>
  </city>
  <city name="Chimixayá">
    <latitude>14.85</latitude>
    <longitude>-90.916667</longitude>
  </city>
  <city name="Chimochuc">
    <latitude>15.7</latitude>
    <longitude>-89.766667</longitude>
  </city>
  <city name="Chimolón">
    <latitude>15.316667</latitude>
    <longitude>-90.266667</longitude>
  </city>
  <city name="Chimoté">
    <latitude>15.55</latitude>
    <longitude>-90.333333</longitude>
  </city>
  <city name="Chimoxán">
    <latitude>15.633333</latitude>
    <longitude>-89.65</longitude>
  </city>
  <city name="Chim Petz">
    <latitude>14.916667</latitude>
    <longitude>-91.766667</longitude>
  </city>
  <city name="Chimuchuch">
    <latitude>15.7</latitude>
    <longitude>-89.766667</longitude>
  </city>
  <city name="Chimul">
    <latitude>15.233333</latitude>
    <longitude>-90.833333</longitude>
  </city>
  <city name="Chimulhuá">
    <latitude>14.5</latitude>
    <longitude>-91.5</longitude>
  </city>
  <city name="Chimusinique">
    <latitude>15.316667</latitude>
    <longitude>-91.516667</longitude>
  </city>
  <city name="Chimuy">
    <latitude>15.65</latitude>
    <longitude>-89.8</longitude>
  </city>
  <city name="Chinabenque">
    <latitude>15.65</latitude>
    <longitude>-89.333333</longitude>
  </city>
  <city name="Chinacá">
    <latitude>15.316111</latitude>
    <longitude>-91.428333</longitude>
  </city>
  <city name="Chinajá">
    <latitude>16.016667</latitude>
    <longitude>-90.216667</longitude>
  </city>
  <city name="China Machaca">
    <latitude>15.816667</latitude>
    <longitude>-88.933333</longitude>
  </city>
  <city name="Chinamas">
    <latitude>14.166667</latitude>
    <longitude>-89.883333</longitude>
  </city>
  <city name="Chinantón">
    <latitude>15.233333</latitude>
    <longitude>-90.95</longitude>
  </city>
  <city name="Chinaranx">
    <latitude>15.716667</latitude>
    <longitude>-89.466667</longitude>
  </city>
  <city name="Chinarranx">
    <latitude>15.716667</latitude>
    <longitude>-89.466667</longitude>
  </city>
  <city name="Chinasayup">
    <latitude>15.583333</latitude>
    <longitude>-90.45</longitude>
  </city>
  <city name="Chinasejal">
    <latitude>15.816667</latitude>
    <longitude>-89.333333</longitude>
  </city>
  <city name="Chinasis">
    <latitude>15.45</latitude>
    <longitude>-90.216667</longitude>
  </city>
  <city name="Chinautla">
    <latitude>14.708333</latitude>
    <longitude>-90.499444</longitude>
  </city>
  <city name="Chinchilá">
    <latitude>16.121111</latitude>
    <longitude>-89.449444</longitude>
  </city>
  <city name="Chinchilla">
    <latitude>14.416667</latitude>
    <longitude>-89.65</longitude>
  </city>
  <city name="Chinchintor">
    <latitude>14.516667</latitude>
    <longitude>-89.65</longitude>
  </city>
  <city name="Chinebal">
    <latitude>15.333333</latitude>
    <longitude>-89.45</longitude>
  </city>
  <city name="Chinillá">
    <latitude>15.25</latitude>
    <longitude>-90.883333</longitude>
  </city>
  <city name="Chinimachavac">
    <latitude>14.85</latitude>
    <longitude>-91.0</longitude>
  </city>
  <city name="Chinimachicaj">
    <latitude>14.65</latitude>
    <longitude>-91.066667</longitude>
  </city>
  <city name="Chinimaquim">
    <latitude>15.416667</latitude>
    <longitude>-90.9</longitude>
  </city>
  <city name="Chinimaquín">
    <latitude>15.416667</latitude>
    <longitude>-90.9</longitude>
  </city>
  <city name="Chinique">
    <latitude>15.044722</latitude>
    <longitude>-91.025833</longitude>
  </city>
  <city name="Chino Creek">
    <latitude>15.816667</latitude>
    <longitude>-88.766667</longitude>
  </city>
  <city name="Chinook">
    <latitude>15.683333</latitude>
    <longitude>-88.366667</longitude>
  </city>
  <city name="Chipacacab">
    <latitude>14.933333</latitude>
    <longitude>-91.05</longitude>
  </city>
  <city name="Chipacacajib">
    <latitude>14.866667</latitude>
    <longitude>-91.083333</longitude>
  </city>
  <city name="Chipacá">
    <latitude>14.916667</latitude>
    <longitude>-91.066667</longitude>
  </city>
  <city name="Chipacaoxib">
    <latitude>14.883333</latitude>
    <longitude>-91.083333</longitude>
  </city>
  <city name="Chipacá Primero">
    <latitude>14.916667</latitude>
    <longitude>-91.066667</longitude>
  </city>
  <city name="Chipacá Segundo">
    <latitude>14.933333</latitude>
    <longitude>-91.05</longitude>
  </city>
  <city name="Chipachec">
    <latitude>14.966667</latitude>
    <longitude>-91.3</longitude>
  </city>
  <city name="Chipajché">
    <latitude>15.633333</latitude>
    <longitude>-89.866667</longitude>
  </city>
  <city name="Chipaj">
    <latitude>15.4</latitude>
    <longitude>-90.783333</longitude>
  </city>
  <city name="Chipam">
    <latitude>15.633333</latitude>
    <longitude>-89.983333</longitude>
  </city>
  <city name="Chipap">
    <latitude>15.583333</latitude>
    <longitude>-89.9</longitude>
  </city>
  <city name="Chipastor">
    <latitude>14.85</latitude>
    <longitude>-90.666667</longitude>
  </city>
  <city name="Chipatá">
    <latitude>14.816667</latitude>
    <longitude>-90.933333</longitude>
  </city>
  <city name="Chipatán">
    <latitude>14.816667</latitude>
    <longitude>-90.933333</longitude>
  </city>
  <city name="Chipaxché">
    <latitude>15.633333</latitude>
    <longitude>-89.866667</longitude>
  </city>
  <city name="Chipiacul">
    <latitude>14.666667</latitude>
    <longitude>-91.066667</longitude>
  </city>
  <city name="Chipilapa">
    <latitude>14.1</latitude>
    <longitude>-91.05</longitude>
  </city>
  <city name="Chipoc">
    <latitude>15.533333</latitude>
    <longitude>-89.933333</longitude>
  </city>
  <city name="Chipoclaj">
    <latitude>15.5</latitude>
    <longitude>-91.616667</longitude>
  </city>
  <city name="Chipocolaj">
    <latitude>14.766667</latitude>
    <longitude>-90.816667</longitude>
  </city>
  <city name="Chipuac">
    <latitude>14.866667</latitude>
    <longitude>-91.383333</longitude>
  </city>
  <city name="Chiqueleu">
    <latitude>15.533333</latitude>
    <longitude>-90.233333</longitude>
  </city>
  <city name="Chiquero">
    <latitude>14.083333</latitude>
    <longitude>-91.616667</longitude>
  </city>
  <city name="Chiquex">
    <latitude>14.8</latitude>
    <longitude>-90.933333</longitude>
  </city>
  <city name="Chiquibal">
    <latitude>15.166667</latitude>
    <longitude>-91.55</longitude>
  </city>
  <city name="Chiquigüital">
    <latitude>15.316667</latitude>
    <longitude>-90.416667</longitude>
  </city>
  <city name="Chiquihuil">
    <latitude>15.45</latitude>
    <longitude>-92.033333</longitude>
  </city>
  <city name="Chiquiliabaj">
    <latitude>15.254167</latitude>
    <longitude>-91.4125</longitude>
  </city>
  <city name="Chiquimula">
    <latitude>14.8</latitude>
    <longitude>-89.55</longitude>
  </city>
  <city name="Chiquimulilla">
    <latitude>15.783333</latitude>
    <longitude>-88.85</longitude>
  </city>
  <city name="Chiquín">
    <latitude>14.833333</latitude>
    <longitude>-90.483333</longitude>
  </city>
  <city name="Chiquinjuyú">
    <latitude>14.716667</latitude>
    <longitude>-90.983333</longitude>
  </city>
  <city name="Chiquip">
    <latitude>15.3</latitude>
    <longitude>-90.2</longitude>
  </city>
  <city name="Chiquirá">
    <latitude>14.433333</latitude>
    <longitude>-90.0</longitude>
  </city>
  <city name="Chiquirines">
    <latitude>14.565833</latitude>
    <longitude>-92.055</longitude>
  </city>
  <city name="Chiquirines Viejo">
    <latitude>14.586111</latitude>
    <longitude>-92.065833</longitude>
  </city>
  <city name="Chiquistepeque">
    <latitude>14.116667</latitude>
    <longitude>-91.65</longitude>
  </city>
  <city name="Chiquival">
    <latitude>15.166667</latitude>
    <longitude>-91.55</longitude>
  </city>
  <city name="Chiramay">
    <latitude>14.616667</latitude>
    <longitude>-89.366667</longitude>
  </city>
  <city name="Chiraxaj">
    <latitude>14.783333</latitude>
    <longitude>-90.933333</longitude>
  </city>
  <city name="Chireacté">
    <latitude>15.683333</latitude>
    <longitude>-89.983333</longitude>
  </city>
  <city name="Chirijalimá">
    <latitude>14.633333</latitude>
    <longitude>-91.466667</longitude>
  </city>
  <city name="Chirijay">
    <latitude>14.7</latitude>
    <longitude>-91.116667</longitude>
  </city>
  <city name="Chirijmasá">
    <latitude>14.65</latitude>
    <longitude>-91.4</longitude>
  </city>
  <city name="Chirijox">
    <latitude>14.816667</latitude>
    <longitude>-91.333333</longitude>
  </city>
  <city name="Chirijquiac">
    <latitude>14.833333</latitude>
    <longitude>-91.416667</longitude>
  </city>
  <city name="Chirijquiaj">
    <latitude>14.833333</latitude>
    <longitude>-91.416667</longitude>
  </city>
  <city name="Chirijuyú">
    <latitude>14.7</latitude>
    <longitude>-90.866667</longitude>
  </city>
  <city name="Chirinjuyú">
    <latitude>14.7</latitude>
    <longitude>-90.966667</longitude>
  </city>
  <city name="Chiriquiac">
    <latitude>14.833333</latitude>
    <longitude>-91.416667</longitude>
  </city>
  <city name="Chirixitzul">
    <latitude>16.0</latitude>
    <longitude>-89.233333</longitude>
  </city>
  <city name="Chirixquitzac">
    <latitude>15.483333</latitude>
    <longitude>-89.716667</longitude>
  </city>
  <city name="Chirreacté">
    <latitude>15.683333</latitude>
    <longitude>-89.983333</longitude>
  </city>
  <city name="Chirrenox">
    <latitude>14.966667</latitude>
    <longitude>-91.466667</longitude>
  </city>
  <city name="Chirreojob">
    <latitude>15.75</latitude>
    <longitude>-90.183333</longitude>
  </city>
  <city name="Chirrequim">
    <latitude>15.616667</latitude>
    <longitude>-89.683333</longitude>
  </city>
  <city name="Chirriquim">
    <latitude>15.616667</latitude>
    <longitude>-89.683333</longitude>
  </city>
  <city name="Chirrumán">
    <latitude>15.1</latitude>
    <longitude>-90.566667</longitude>
  </city>
  <city name="Chirrum">
    <latitude>15.05</latitude>
    <longitude>-90.45</longitude>
  </city>
  <city name="Chisal">
    <latitude>14.666667</latitude>
    <longitude>-91.016667</longitude>
  </city>
  <city name="Chisantiago">
    <latitude>15.166667</latitude>
    <longitude>-90.666667</longitude>
  </city>
  <city name="Chiscú">
    <latitude>14.75</latitude>
    <longitude>-89.633333</longitude>
  </city>
  <city name="Chisec">
    <latitude>15.816667</latitude>
    <longitude>-90.283333</longitude>
  </city>
  <city name="Chisiram">
    <latitude>15.316667</latitude>
    <longitude>-90.45</longitude>
  </city>
  <city name="Chisis">
    <latitude>15.416667</latitude>
    <longitude>-90.95</longitude>
  </city>
  <city name="Chisjá">
    <latitude>14.8</latitude>
    <longitude>-89.416667</longitude>
  </city>
  <city name="Chispal">
    <latitude>15.183333</latitude>
    <longitude>-89.1</longitude>
  </city>
  <city name="Chispan">
    <latitude>14.7</latitude>
    <longitude>-89.4</longitude>
  </city>
  <city name="Chispán">
    <latitude>15.033333</latitude>
    <longitude>-89.566667</longitude>
  </city>
  <city name="Chispán Jaral">
    <latitude>14.7</latitude>
    <longitude>-89.4</longitude>
  </city>
  <city name="Chisté">
    <latitude>15.316667</latitude>
    <longitude>-92.0</longitude>
  </city>
  <city name="Chisubín">
    <latitude>15.566667</latitude>
    <longitude>-89.966667</longitude>
  </city>
  <city name="Chitac">
    <latitude>15.266667</latitude>
    <longitude>-90.75</longitude>
  </city>
  <city name="Chitá">
    <latitude>14.633333</latitude>
    <longitude>-91.5</longitude>
  </city>
  <city name="Chitaj">
    <latitude>15.4</latitude>
    <longitude>-90.783333</longitude>
  </city>
  <city name="Chitanil">
    <latitude>15.166667</latitude>
    <longitude>-90.7</longitude>
  </city>
  <city name="Chitap">
    <latitude>15.466667</latitude>
    <longitude>-90.133333</longitude>
  </city>
  <city name="Chitay">
    <latitude>14.85</latitude>
    <longitude>-91.483333</longitude>
  </city>
  <city name="Chiticoy">
    <latitude>15.083333</latitude>
    <longitude>-90.416667</longitude>
  </city>
  <city name="Chitix">
    <latitude>15.366667</latitude>
    <longitude>-90.3</longitude>
  </city>
  <city name="Chitixl">
    <latitude>15.366667</latitude>
    <longitude>-90.3</longitude>
  </city>
  <city name="Chitocán">
    <latitude>15.65</latitude>
    <longitude>-90.416667</longitude>
  </city>
  <city name="Chitoc">
    <latitude>15.6</latitude>
    <longitude>-90.333333</longitude>
  </city>
  <city name="Chitó">
    <latitude>16.331667</latitude>
    <longitude>-89.4975</longitude>
  </city>
  <city name="Chitraj">
    <latitude>15.116667</latitude>
    <longitude>-90.8</longitude>
  </city>
  <city name="Chitucán">
    <latitude>15.2</latitude>
    <longitude>-90.5</longitude>
  </city>
  <city name="Chitul">
    <latitude>15.4</latitude>
    <longitude>-90.416667</longitude>
  </city>
  <city name="Chitulul">
    <latitude>14.65</latitude>
    <longitude>-91.1</longitude>
  </city>
  <city name="Chitún">
    <latitude>14.783333</latitude>
    <longitude>-90.716667</longitude>
  </city>
  <city name="Chitutul">
    <latitude>14.65</latitude>
    <longitude>-91.1</longitude>
  </city>
  <city name="Chitux">
    <latitude>14.85</latitude>
    <longitude>-91.566667</longitude>
  </city>
  <city name="Chitzajay">
    <latitude>15.366667</latitude>
    <longitude>-90.3</longitude>
  </city>
  <city name="Chitzoy">
    <latitude>15.349722</latitude>
    <longitude>-91.095556</longitude>
  </city>
  <city name="Chiuchituj">
    <latitude>14.983333</latitude>
    <longitude>-91.283333</longitude>
  </city>
  <city name="Chiúl">
    <latitude>15.166667</latitude>
    <longitude>-90.616667</longitude>
  </city>
  <city name="Chiul">
    <latitude>15.346111</latitude>
    <longitude>-91.084444</longitude>
  </city>
  <city name="Chiuleu">
    <latitude>14.783333</latitude>
    <longitude>-90.75</longitude>
  </city>
  <city name="Chivac">
    <latitude>14.933333</latitude>
    <longitude>-90.416667</longitude>
  </city>
  <city name="Chival">
    <latitude>15.666667</latitude>
    <longitude>-91.533333</longitude>
  </city>
  <city name="Chivarreto">
    <latitude>15.0</latitude>
    <longitude>-91.533333</longitude>
  </city>
  <city name="Chivoc">
    <latitude>14.766667</latitude>
    <longitude>-90.683333</longitude>
  </city>
  <city name="Chivoy">
    <latitude>15.233333</latitude>
    <longitude>-90.866667</longitude>
  </city>
  <city name="Chixajau">
    <latitude>15.433333</latitude>
    <longitude>-90.333333</longitude>
  </city>
  <city name="Chixiquín">
    <latitude>15.4</latitude>
    <longitude>-90.733333</longitude>
  </city>
  <city name="Chixocol">
    <latitude>15.066667</latitude>
    <longitude>-90.883333</longitude>
  </city>
  <city name="Chixolot">
    <latitude>14.733333</latitude>
    <longitude>-91.066667</longitude>
  </city>
  <city name="Chixoy">
    <latitude>15.383333</latitude>
    <longitude>-90.65</longitude>
  </city>
  <city name="Chiyax">
    <latitude>14.9</latitude>
    <longitude>-91.35</longitude>
  </city>
  <city name="Chiyó">
    <latitude>15.5</latitude>
    <longitude>-90.183333</longitude>
  </city>
  <city name="Choacorral">
    <latitude>14.583333</latitude>
    <longitude>-90.633333</longitude>
  </city>
  <city name="Choanlá">
    <latitude>15.2</latitude>
    <longitude>-91.916667</longitude>
  </city>
  <city name="Choapequez">
    <latitude>15.133333</latitude>
    <longitude>-91.866667</longitude>
  </city>
  <city name="Choaquec">
    <latitude>14.733333</latitude>
    <longitude>-91.1</longitude>
  </city>
  <city name="Choatacaj">
    <latitude>14.816667</latitude>
    <longitude>-90.9</longitude>
  </city>
  <city name="Choatalum">
    <latitude>14.815833</latitude>
    <longitude>-90.755833</longitude>
  </city>
  <city name="Choaxán">
    <latitude>15.011944</latitude>
    <longitude>-90.980278</longitude>
  </city>
  <city name="Chócal">
    <latitude>15.4</latitude>
    <longitude>-91.533333</longitude>
  </city>
  <city name="Chocantel">
    <latitude>14.816667</latitude>
    <longitude>-91.483333</longitude>
  </city>
  <city name="Chocchoc">
    <latitude>15.883333</latitude>
    <longitude>-89.233333</longitude>
  </city>
  <city name="Chochal">
    <latitude>15.4</latitude>
    <longitude>-91.533333</longitude>
  </city>
  <city name="Chocón">
    <latitude>15.8</latitude>
    <longitude>-89.233333</longitude>
  </city>
  <city name="Chocox">
    <latitude>15.316667</latitude>
    <longitude>-90.85</longitude>
  </city>
  <city name="Chocoyos">
    <latitude>14.7</latitude>
    <longitude>-91.05</longitude>
  </city>
  <city name="Chocruz">
    <latitude>14.966667</latitude>
    <longitude>-91.516667</longitude>
  </city>
  <city name="Chojimula">
    <latitude>16.35</latitude>
    <longitude>-89.5</longitude>
  </city>
  <city name="Chojomá">
    <latitude>14.766667</latitude>
    <longitude>-90.783333</longitude>
  </city>
  <city name="Chojox">
    <latitude>15.316667</latitude>
    <longitude>-90.85</longitude>
  </city>
  <city name="Chojzunil">
    <latitude>15.728056</latitude>
    <longitude>-91.258889</longitude>
  </city>
  <city name="Cholá">
    <latitude>15.366667</latitude>
    <longitude>-90.85</longitude>
  </city>
  <city name="Cholhuitz">
    <latitude>15.866667</latitude>
    <longitude>-91.55</longitude>
  </city>
  <city name="Cholimá">
    <latitude>14.9</latitude>
    <longitude>-91.033333</longitude>
  </city>
  <city name="Chonoxté">
    <latitude>14.866667</latitude>
    <longitude>-90.783333</longitude>
  </city>
  <city name="Chontalá">
    <latitude>14.916667</latitude>
    <longitude>-91.083333</longitude>
  </city>
  <city name="Chontal">
    <latitude>14.0</latitude>
    <longitude>-91.233333</longitude>
  </city>
  <city name="Choquí">
    <latitude>14.85</latitude>
    <longitude>-91.5</longitude>
  </city>
  <city name="Chororagua">
    <latitude>14.766667</latitude>
    <longitude>-89.583333</longitude>
  </city>
  <city name="Chortiz">
    <latitude>15.421944</latitude>
    <longitude>-91.285</longitude>
  </city>
  <city name="Chotacaj">
    <latitude>14.916667</latitude>
    <longitude>-91.366667</longitude>
  </city>
  <city name="Chotocoy">
    <latitude>15.083333</latitude>
    <longitude>-90.416667</longitude>
  </city>
  <city name="Choyomché">
    <latitude>14.95</latitude>
    <longitude>-90.983333</longitude>
  </city>
  <city name="Chuabaj">
    <latitude>14.9</latitude>
    <longitude>-90.783333</longitude>
  </city>
  <city name="Chuabajito">
    <latitude>14.9</latitude>
    <longitude>-90.8</longitude>
  </city>
  <city name="Chuabux">
    <latitude>14.783333</latitude>
    <longitude>-90.966667</longitude>
  </city>
  <city name="Chuacacay">
    <latitude>14.833333</latitude>
    <longitude>-90.933333</longitude>
  </city>
  <city name="Chuachacalté">
    <latitude>15.083333</latitude>
    <longitude>-90.683333</longitude>
  </city>
  <city name="Chuachinub">
    <latitude>14.8</latitude>
    <longitude>-90.716667</longitude>
  </city>
  <city name="Chuachituj">
    <latitude>14.983333</latitude>
    <longitude>-91.283333</longitude>
  </city>
  <city name="Chuachuacalté">
    <latitude>15.083333</latitude>
    <longitude>-90.683333</longitude>
  </city>
  <city name="Chuachún">
    <latitude>14.8</latitude>
    <longitude>-90.966667</longitude>
  </city>
  <city name="Chuachunub">
    <latitude>14.8</latitude>
    <longitude>-90.716667</longitude>
  </city>
  <city name="Chuacús">
    <latitude>14.983333</latitude>
    <longitude>-90.316667</longitude>
  </city>
  <city name="Chuacusito">
    <latitude>14.983333</latitude>
    <longitude>-90.333333</longitude>
  </city>
  <city name="Chuaguerum">
    <latitude>14.983333</latitude>
    <longitude>-90.766389</longitude>
  </city>
  <city name="Chuajercoc">
    <latitude>14.8</latitude>
    <longitude>-90.95</longitude>
  </city>
  <city name="Chuantonio">
    <latitude>14.8</latitude>
    <longitude>-90.95</longitude>
  </city>
  <city name="Chuanuj">
    <latitude>14.866667</latitude>
    <longitude>-91.4</longitude>
  </city>
  <city name="Chuaparal">
    <latitude>14.8</latitude>
    <longitude>-90.966667</longitude>
  </city>
  <city name="Chuapec">
    <latitude>14.983333</latitude>
    <longitude>-90.633333</longitude>
  </city>
  <city name="Chuaquenún">
    <latitude>14.633333</latitude>
    <longitude>-91.066667</longitude>
  </city>
  <city name="Chuaquerún">
    <latitude>14.633333</latitude>
    <longitude>-91.066667</longitude>
  </city>
  <city name="Chuaracanjay">
    <latitude>14.916667</latitude>
    <longitude>-90.983333</longitude>
  </city>
  <city name="Chuarrancho">
    <latitude>14.821667</latitude>
    <longitude>-90.508611</longitude>
  </city>
  <city name="Chuatalum">
    <latitude>14.815833</latitude>
    <longitude>-90.755833</longitude>
  </city>
  <city name="Chuatroj">
    <latitude>14.85</latitude>
    <longitude>-91.416667</longitude>
  </city>
  <city name="Chuatuj">
    <latitude>14.983333</latitude>
    <longitude>-91.6</longitude>
  </city>
  <city name="Chuatzán">
    <latitude>14.733333</latitude>
    <longitude>-91.016667</longitude>
  </city>
  <city name="Chuatzunuj">
    <latitude>14.733333</latitude>
    <longitude>-91.033333</longitude>
  </city>
  <city name="Chuaxajil">
    <latitude>14.816667</latitude>
    <longitude>-91.333333</longitude>
  </city>
  <city name="Chuaxán">
    <latitude>14.816667</latitude>
    <longitude>-90.733333</longitude>
  </city>
  <city name="Chuaxic">
    <latitude>14.783333</latitude>
    <longitude>-91.2</longitude>
  </city>
  <city name="Chubillil">
    <latitude>15.3</latitude>
    <longitude>-91.1</longitude>
  </city>
  <city name="Chubixac">
    <latitude>14.783333</latitude>
    <longitude>-90.883333</longitude>
  </city>
  <city name="Chucá">
    <latitude>15.15</latitude>
    <longitude>-90.8</longitude>
  </city>
  <city name="Chucaj">
    <latitude>15.383333</latitude>
    <longitude>-91.483333</longitude>
  </city>
  <city name="Chucalibal">
    <latitude>14.85</latitude>
    <longitude>-91.083333</longitude>
  </city>
  <city name="Chucam">
    <latitude>14.95</latitude>
    <longitude>-91.116667</longitude>
  </city>
  <city name="Chuchexic">
    <latitude>14.8</latitude>
