<?xml version="1.0" encoding="UTF-8"?>
<country code="gw" name="Guinée-Bissau">
  <city name="Abene">
    <latitude>11.1666667</latitude>
    <longitude>-15.9666667</longitude>
  </city>
  <city name="Abigna">
    <latitude>11.8833333</latitude>
    <longitude>-15.7833333</longitude>
  </city>
  <city name="Abu">
    <latitude>11.15</latitude>
    <longitude>-16.0166667</longitude>
  </city>
  <city name="Abul">
    <latitude>12.34</latitude>
    <longitude>-15.8880556</longitude>
  </city>
  <city name="Abulzinho">
    <latitude>12.3872222</latitude>
    <longitude>-15.8880556</longitude>
  </city>
  <city name="Acajiriba">
    <latitude>11.5333333</latitude>
    <longitude>-15.9833333</longitude>
  </city>
  <city name="Acampamento">
    <latitude>11.45</latitude>
    <longitude>-15.7</longitude>
  </city>
  <city name="Acanhe">
    <latitude>11.15</latitude>
    <longitude>-15.9166667</longitude>
  </city>
  <city name="Acanho">
    <latitude>11.15</latitude>
    <longitude>-15.9166667</longitude>
  </city>
  <city name="Acarabe">
    <latitude>11.2166667</latitude>
    <longitude>-16.2</longitude>
  </city>
  <city name="Achada do Burro">
    <latitude>11.8666667</latitude>
    <longitude>-15.5833333</longitude>
  </city>
  <city name="Achinde">
    <latitude>12.35</latitude>
    <longitude>-15.9666667</longitude>
  </city>
  <city name="Acnú">
    <latitude>11.4833333</latitude>
    <longitude>-15.9166667</longitude>
  </city>
  <city name="Acôcó">
    <latitude>11.4666667</latitude>
    <longitude>-15.9166667</longitude>
  </city>
  <city name="Acom">
    <latitude>11.95</latitude>
    <longitude>-15.5666667</longitude>
  </city>
  <city name="Acubedé">
    <latitude>11.5</latitude>
    <longitude>-16.3</longitude>
  </city>
  <city name="Acuminca">
    <latitude>11.5333333</latitude>
    <longitude>-16.4</longitude>
  </city>
  <city name="Acuno">
    <latitude>11.4833333</latitude>
    <longitude>-15.9166667</longitude>
  </city>
  <city name="Afanque">
    <latitude>12.4333333</latitude>
    <longitude>-16.1</longitude>
  </city>
  <city name="Áfià">
    <latitude>12.0833333</latitude>
    <longitude>-14.4833333</longitude>
  </city>
  <city name="Áfia">
    <latitude>12.4138889</latitude>
    <longitude>-15.7819444</longitude>
  </city>
  <city name="Áfia Ba Demba">
    <latitude>12.3666667</latitude>
    <longitude>-13.6666667</longitude>
  </city>
  <city name="Áfià Demba">
    <latitude>12.3666667</latitude>
    <longitude>-13.6666667</longitude>
  </city>
  <city name="Áfià Demba Jamanca">
    <latitude>12.2166667</latitude>
    <longitude>-14.3666667</longitude>
  </city>
  <city name="Áfià do Governador">
    <latitude>12.65</latitude>
    <longitude>-14.1666667</longitude>
  </city>
  <city name="Afuossa Nabiole">
    <latitude>11.15</latitude>
    <longitude>-15.3166667</longitude>
  </city>
  <city name="Agongo de Corêto">
    <latitude>11.5166667</latitude>
    <longitude>-16.3833333</longitude>
  </city>
  <city name="Agongo de Eguba">
    <latitude>11.5666667</latitude>
    <longitude>-16.2666667</longitude>
  </city>
  <city name="Agongo-Eguba">
    <latitude>11.5666667</latitude>
    <longitude>-16.2666667</longitude>
  </city>
  <city name="Água Verde">
    <latitude>12.0166667</latitude>
    <longitude>-14.85</longitude>
  </city>
  <city name="Águirà">
    <latitude>12.1833333</latitude>
    <longitude>-14.7166667</longitude>
  </city>
  <city name="Áidarà Balanta">
    <latitude>11.5</latitude>
    <longitude>-15.1666667</longitude>
  </city>
  <city name="Áidarà Beafada">
    <latitude>11.4833333</latitude>
    <longitude>-15.1666667</longitude>
  </city>
  <city name="Alabato">
    <latitude>12.4891667</latitude>
    <longitude>-15.3555556</longitude>
  </city>
  <city name="Alafissa">
    <latitude>12.4166667</latitude>
    <longitude>-13.9333333</longitude>
  </city>
  <city name="Aldeia">
    <latitude>12.1666667</latitude>
    <longitude>-14.7666667</longitude>
  </city>
  <city name="Aldeia de Cuor">
    <latitude>12.1</latitude>
    <longitude>-14.85</longitude>
  </city>
  <city name="Aldeia do Cuhor">
    <latitude>12.1</latitude>
    <longitude>-14.85</longitude>
  </city>
  <city name="Aldeia Formosa">
    <latitude>11.5333333</latitude>
    <longitude>-14.7666667</longitude>
  </city>
  <city name="Aldeia Nova">
    <latitude>11.7</latitude>
    <longitude>-15.3833333</longitude>
  </city>
  <city name="Alfá">
    <latitude>12.3</latitude>
    <longitude>-14.1</longitude>
  </city>
  <city name="Algodão">
    <latitude>12.45</latitude>
    <longitude>-15.2166667</longitude>
  </city>
  <city name="Álià">
    <latitude>11.6166667</latitude>
    <longitude>-14.3833333</longitude>
  </city>
  <city name="Aliel">
    <latitude>11.9166667</latitude>
    <longitude>-14.7333333</longitude>
  </city>
  <city name="Alimo">
    <latitude>12.1166667</latitude>
    <longitude>-14.5833333</longitude>
  </city>
  <city name="Aliu">
    <latitude>12.2666667</latitude>
    <longitude>-14.25</longitude>
  </city>
  <city name="Aliu Burè">
    <latitude>12.3666667</latitude>
    <longitude>-14.3166667</longitude>
  </city>
  <city name="Aliu Jaia">
    <latitude>12.0166667</latitude>
    <longitude>-14.7666667</longitude>
  </city>
  <city name="Aliu Jai">
    <latitude>12.0166667</latitude>
    <longitude>-14.7666667</longitude>
  </city>
  <city name="Aliu Jau">
    <latitude>12.0166667</latitude>
    <longitude>-14.7666667</longitude>
  </city>
  <city name="Almane Fonsom">
    <latitude>12.05</latitude>
    <longitude>-14.0166667</longitude>
  </city>
  <city name="Ama Seidi">
    <latitude>12.4166667</latitude>
    <longitude>-14.2333333</longitude>
  </city>
  <city name="Ambacanã">
    <latitude>11.4666667</latitude>
    <longitude>-15.7333333</longitude>
  </city>
  <city name="Ambacanan">
    <latitude>11.4666667</latitude>
    <longitude>-15.7333333</longitude>
  </city>
  <city name="Ambanhe">
    <latitude>11.5</latitude>
    <longitude>-16.2166667</longitude>
  </city>
  <city name="Ambduco">
    <latitude>11.45</latitude>
    <longitude>-16.0333333</longitude>
  </city>
  <city name="Ambeduco">
    <latitude>11.15</latitude>
    <longitude>-16.1</longitude>
  </city>
  <city name="Ambeno">
    <latitude>11.2</latitude>
    <longitude>-15.75</longitude>
  </city>
  <city name="Ambereno">
    <latitude>11.5</latitude>
    <longitude>-16.3166667</longitude>
  </city>
  <city name="Ambiur">
    <latitude>11.2666667</latitude>
    <longitude>-15.7166667</longitude>
  </city>
  <city name="Amboim">
    <latitude>11.0</latitude>
    <longitude>-15.0333333</longitude>
  </city>
  <city name="Amboje">
    <latitude>11.5166667</latitude>
    <longitude>-16.1833333</longitude>
  </city>
  <city name="Ambonhe">
    <latitude>11.5</latitude>
    <longitude>-16.2166667</longitude>
  </city>
  <city name="Ambuduco">
    <latitude>11.25</latitude>
    <longitude>-15.7333333</longitude>
  </city>
  <city name="Ambum">
    <latitude>12.1086111</latitude>
    <longitude>-15.1619444</longitude>
  </city>
  <city name="Amburco">
    <latitude>11.2833333</latitude>
    <longitude>-16.2166667</longitude>
  </city>
  <city name="Amedalai">
    <latitude>12.1833333</latitude>
    <longitude>-14.6666667</longitude>
  </city>
  <city name="Amehie">
    <latitude>11.4833333</latitude>
    <longitude>-15.6833333</longitude>
  </city>
  <city name="América">
    <latitude>11.5666667</latitude>
    <longitude>-15.3</longitude>
  </city>
  <city name="Ameta">
    <latitude>11.2166667</latitude>
    <longitude>-15.8833333</longitude>
  </city>
  <city name="Ametite">
    <latitude>11.4833333</latitude>
    <longitude>-15.6833333</longitude>
  </city>
  <city name="Amidara">
    <latitude>11.2833333</latitude>
    <longitude>-14.9833333</longitude>
  </city>
  <city name="Amina Dala">
    <latitude>12.3511111</latitude>
    <longitude>-15.3861111</longitude>
  </city>
  <city name="Amizade">
    <latitude>11.45</latitude>
    <longitude>-15.4333333</longitude>
  </city>
  <city name="Amone">
    <latitude>12.3558333</latitude>
    <longitude>-15.9477778</longitude>
  </city>
  <city name="Amonho">
    <latitude>11.2333333</latitude>
    <longitude>-16.15</longitude>
  </city>
  <city name="Amora">
    <latitude>12.45</latitude>
    <longitude>-13.7</longitude>
  </city>
  <city name="Ampincha">
    <latitude>11.5166667</latitude>
    <longitude>-16.1833333</longitude>
  </city>
  <city name="Anaburu">
    <latitude>11.3</latitude>
    <longitude>-16.45</longitude>
  </city>
  <city name="Anambê">
    <latitude>12.0333333</latitude>
    <longitude>-14.6333333</longitude>
  </city>
  <city name="Anambe Balanta">
    <latitude>12.1166667</latitude>
    <longitude>-14.8166667</longitude>
  </city>
  <city name="Anane">
    <latitude>11.2666667</latitude>
    <longitude>-16.1666667</longitude>
  </city>
  <city name="Ananhô">
    <latitude>11.2333333</latitude>
    <longitude>-16.15</longitude>
  </city>
  <city name="Ancabasse">
    <latitude>11.25</latitude>
    <longitude>-15.8833333</longitude>
  </city>
  <city name="Ancabine">
    <latitude>11.2833333</latitude>
    <longitude>-15.7</longitude>
  </city>
  <city name="Ancádáque">
    <latitude>11.1</latitude>
    <longitude>-16.15</longitude>
  </city>
  <city name="Ancadena">
    <latitude>11.2833333</latitude>
    <longitude>-15.8333333</longitude>
  </city>
  <city name="Ancadona">
    <latitude>11.2333333</latitude>
    <longitude>-16.1833333</longitude>
  </city>
  <city name="Ancagumé">
    <latitude>11.1</latitude>
    <longitude>-16.15</longitude>
  </city>
  <city name="Ancajibe">
    <latitude>11.2833333</latitude>
    <longitude>-15.7</longitude>
  </city>
  <city name="Ancalhe">
    <latitude>11.3166667</latitude>
    <longitude>-16.1166667</longitude>
  </city>
  <city name="Ancalho">
    <latitude>11.3166667</latitude>
    <longitude>-16.1166667</longitude>
  </city>
  <city name="Ancamba">
    <latitude>11.7833333</latitude>
    <longitude>-15.0</longitude>
  </city>
  <city name="Ancaminha">
    <latitude>11.35</latitude>
    <longitude>-15.85</longitude>
  </city>
  <city name="Ancaminho">
    <latitude>11.35</latitude>
    <longitude>-15.85</longitude>
  </city>
  <city name="Ancamona">
    <latitude>11.15</latitude>
    <longitude>-16.1</longitude>
  </city>
  <city name="Ancamone">
    <latitude>11.15</latitude>
    <longitude>-16.1</longitude>
  </city>
  <city name="Ancaname">
    <latitude>11.2833333</latitude>
    <longitude>-15.6833333</longitude>
  </city>
  <city name="Ancaninho">
    <latitude>11.35</latitude>
    <longitude>-15.85</longitude>
  </city>
  <city name="Ancano">
    <latitude>11.4666667</latitude>
    <longitude>-15.6666667</longitude>
  </city>
  <city name="Ancaquéa">
    <latitude>11.1333333</latitude>
    <longitude>-16.1</longitude>
  </city>
  <city name="Ancaquiá">
    <latitude>11.1333333</latitude>
    <longitude>-16.1</longitude>
  </city>
  <city name="Anchorope">
    <latitude>11.2833333</latitude>
    <longitude>-15.6833333</longitude>
  </city>
  <city name="Anchorupe">
    <latitude>11.2833333</latitude>
    <longitude>-15.6833333</longitude>
  </city>
  <city name="Anconhi">
    <latitude>11.95</latitude>
    <longitude>-15.25</longitude>
  </city>
  <city name="Ancopado">
    <latitude>11.0333333</latitude>
    <longitude>-16.1333333</longitude>
  </city>
  <city name="Ancopate">
    <latitude>11.3</latitude>
    <longitude>-16.1</longitude>
  </city>
  <city name="Ancoronho">
    <latitude>11.45</latitude>
    <longitude>-15.7</longitude>
  </city>
  <city name="Ancumba">
    <latitude>11.2666667</latitude>
    <longitude>-15.8666667</longitude>
  </city>
  <city name="Ancumbo">
    <latitude>11.3</latitude>
    <longitude>-16.0833333</longitude>
  </city>
  <city name="Andebe">
    <latitude>11.9666667</latitude>
    <longitude>-14.25</longitude>
  </city>
  <city name="Andom">
    <latitude>12.35</latitude>
    <longitude>-14.7</longitude>
  </city>
  <city name="André">
    <latitude>11.8</latitude>
    <longitude>-15.2333333</longitude>
  </city>
  <city name="Anecuene">
    <latitude>11.1666667</latitude>
    <longitude>-16.0333333</longitude>
  </city>
  <city name="Angá">
    <latitude>11.5333333</latitude>
    <longitude>-16.0</longitude>
  </city>
  <city name="Angane">
    <latitude>11.2666667</latitude>
    <longitude>-16.1666667</longitude>
  </city>
  <city name="Angaura">
    <latitude>11.2833333</latitude>
    <longitude>-15.7</longitude>
  </city>
  <city name="Angodigo">
    <latitude>11.2166667</latitude>
    <longitude>-16.2</longitude>
  </city>
  <city name="Angojiga">
    <latitude>11.2833333</latitude>
    <longitude>-15.6833333</longitude>
  </city>
  <city name="Angongo">
    <latitude>11.5166667</latitude>
    <longitude>-16.3833333</longitude>
  </city>
  <city name="Anguba">
    <latitude>11.5166667</latitude>
    <longitude>-16.3833333</longitude>
  </city>
  <city name="Angumba">
    <latitude>11.2833333</latitude>
    <longitude>-15.6833333</longitude>
  </city>
  <city name="Angumpa">
    <latitude>11.2666667</latitude>
    <longitude>-15.8666667</longitude>
  </city>
  <city name="Anha">
    <latitude>12.05</latitude>
    <longitude>-15.2666667</longitude>
  </city>
  <city name="Anha Futa-Fula">
    <latitude>12.0727778</latitude>
    <longitude>-15.2472222</longitude>
  </city>
  <city name="Anha Futa-Fulag">
    <latitude>12.0727778</latitude>
    <longitude>-15.2472222</longitude>
  </city>
  <city name="Anhaura">
    <latitude>11.2833333</latitude>
    <longitude>-15.7</longitude>
  </city>
  <city name="Anhimango">
    <latitude>11.2833333</latitude>
    <longitude>-15.8666667</longitude>
  </city>
  <city name="Aniamango">
    <latitude>11.2833333</latitude>
    <longitude>-15.8666667</longitude>
  </city>
  <city name="Aniguna">
    <latitude>11.5666667</latitude>
    <longitude>-16.2666667</longitude>
  </city>
  <city name="Anipoco">
    <latitude>11.5833333</latitude>
    <longitude>-16.2833333</longitude>
  </city>
  <city name="An-onhe">
    <latitude>11.2333333</latitude>
    <longitude>-16.15</longitude>
  </city>
  <city name="Anonhô">
    <latitude>11.2333333</latitude>
    <longitude>-16.15</longitude>
  </city>
  <city name="Anóra">
    <latitude>11.0666667</latitude>
    <longitude>-16.2166667</longitude>
  </city>
  <city name="Anôr">
    <latitude>11.0666667</latitude>
    <longitude>-16.2166667</longitude>
  </city>
  <city name="Anpinche">
    <latitude>11.5166667</latitude>
    <longitude>-16.1833333</longitude>
  </city>
  <city name="Ansonhe">
    <latitude>11.95</latitude>
    <longitude>-15.25</longitude>
  </city>
  <city name="Antotinha">
    <latitude>12.2808333</latitude>
    <longitude>-15.7986111</longitude>
  </city>
  <city name="Antotinhamezinho">
    <latitude>12.2858333</latitude>
    <longitude>-15.7747222</longitude>
  </city>
  <city name="Antpostos">
    <latitude>11.9666667</latitude>
    <longitude>-15.55</longitude>
  </city>
  <city name="Antuane">
    <latitude>11.5333333</latitude>
    <longitude>-15.0833333</longitude>
  </city>
  <city name="Apilho">
    <latitude>12.3361111</latitude>
    <longitude>-15.9436111</longitude>
  </city>
  <city name="Apilho Balanta">
    <latitude>12.3461111</latitude>
    <longitude>-15.9347222</longitude>
  </city>
  <city name="Aquinchá">
    <latitude>12.4019444</latitude>
    <longitude>-15.9758333</longitude>
  </city>
  <city name="Arame">
    <latitude>12.3</latitude>
    <longitude>-16.4341667</longitude>
  </city>
  <city name="Areia">
    <latitude>11.2833333</latitude>
    <longitude>-15.2833333</longitude>
  </city>
  <city name="Areia Branca">
    <latitude>11.5</latitude>
    <longitude>-15.55</longitude>
  </city>
  <city name="Aria">
    <latitude>12.0833333</latitude>
    <longitude>-15.3166667</longitude>
  </city>
  <city name="Arranja a Vida de Baixo">
    <latitude>11.55</latitude>
    <longitude>-15.5166667</longitude>
  </city>
  <city name="Arranja a Vida de Cima">
    <latitude>11.55</latitude>
    <longitude>-15.5333333</longitude>
  </city>
  <city name="Arria">
    <latitude>12.0833333</latitude>
    <longitude>-15.3166667</longitude>
  </city>
  <city name="Assela">
    <latitude>12.1605556</latitude>
    <longitude>-15.4088889</longitude>
  </city>
  <city name="Atanque">
    <latitude>12.4333333</latitude>
    <longitude>-16.1</longitude>
  </city>
  <city name="Auja">
    <latitude>11.5166667</latitude>
    <longitude>-16.1833333</longitude>
  </city>
  <city name="Babacha">
    <latitude>12.0666667</latitude>
    <longitude>-16.2166667</longitude>
  </city>
  <city name="Babanda">
    <latitude>12.0869444</latitude>
    <longitude>-16.0325</longitude>
  </city>
  <city name="Bãbeme">
    <latitude>12.2216667</latitude>
    <longitude>-15.7644444</longitude>
  </city>
  <city name="Babol">
    <latitude>12.1747222</latitude>
    <longitude>-16.11</longitude>
  </city>
  <city name="Babonda">
    <latitude>12.4333333</latitude>
    <longitude>-16.2833333</longitude>
  </city>
  <city name="Babul">
    <latitude>12.4166667</latitude>
    <longitude>-15.8333333</longitude>
  </city>
  <city name="Bacalã">
    <latitude>11.7833333</latitude>
    <longitude>-16.05</longitude>
  </city>
  <city name="Bácar">
    <latitude>12.1355556</latitude>
    <longitude>-15.8127778</longitude>
  </city>
  <city name="Bácar Chucael">
    <latitude>12.4166667</latitude>
    <longitude>-13.9166667</longitude>
  </city>
  <city name="Bácar Dado">
    <latitude>11.55</latitude>
    <longitude>-14.8</longitude>
  </city>
  <city name="Bacar Djau">
    <latitude>12.3166667</latitude>
    <longitude>-14.45</longitude>
  </city>
  <city name="Bácar Ioba">
    <latitude>11.6166667</latitude>
    <longitude>-14.8166667</longitude>
  </city>
  <city name="Bácar Jau">
    <latitude>12.3166667</latitude>
    <longitude>-14.45</longitude>
  </city>
  <city name="Bácar Júlerè">
    <latitude>12.2833333</latitude>
    <longitude>-14.0166667</longitude>
  </city>
  <city name="Bácar Lal">
    <latitude>11.8833333</latitude>
    <longitude>-14.5833333</longitude>
  </city>
  <city name="Bácar Lèli">
    <latitude>11.8833333</latitude>
    <longitude>-14.5833333</longitude>
  </city>
  <city name="Bachamor">
    <latitude>12.3811111</latitude>
    <longitude>-16.2288889</longitude>
  </city>
  <city name="Bachegue">
    <latitude>12.0666667</latitude>
    <longitude>-16.0825</longitude>
  </city>
  <city name="Bachetebacute">
    <latitude>11.9833333</latitude>
    <longitude>-16.1</longitude>
  </city>
  <city name="Bachetecor">
    <latitude>11.9833333</latitude>
    <longitude>-16.0833333</longitude>
  </city>
  <city name="Bachile">
    <latitude>12.1805556</latitude>
    <longitude>-16.0552778</longitude>
  </city>
  <city name="Bachile Fanho">
    <latitude>12.2852778</latitude>
    <longitude>-16.0366667</longitude>
  </city>
  <city name="Bachute">
    <latitude>12.05</latitude>
    <longitude>-16.2666667</longitude>
  </city>
  <city name="Badâ">
    <latitude>12.1838889</latitude>
    <longitude>-15.8077778</longitude>
  </city>
  <city name="Badancar">
    <latitude>12.5666667</latitude>
    <longitude>-15.3333333</longitude>
  </city>
  <city name="Badápal">
    <latitude>12.1333333</latitude>
    <longitude>-15.7166667</longitude>
  </city>
  <city name="Badem">
    <latitude>12.6166667</latitude>
    <longitude>-15.1166667</longitude>
  </city>
  <city name="Badica">
    <latitude>12.0833333</latitude>
    <longitude>-15.8166667</longitude>
  </city>
  <city name="Badiguê">
    <latitude>12.4</latitude>
    <longitude>-16.2</longitude>
  </city>
  <city name="Badjocunda">
    <latitude>12.6333333</latitude>
    <longitude>-14.0833333</longitude>
  </city>
  <city name="Badumbo">
    <latitude>12.4333333</latitude>
    <longitude>-14.5</longitude>
  </city>
  <city name="Bafatá">
    <latitude>12.1666667</latitude>
    <longitude>-14.6666667</longitude>
  </city>
  <city name="Bafatandim">
    <latitude>12.3811111</latitude>
    <longitude>-15.3488889</longitude>
  </city>
  <city name="Bafundade">
    <latitude>12.1166667</latitude>
    <longitude>-16.1833333</longitude>
  </city>
  <city name="Bafundande">
    <latitude>12.1166667</latitude>
    <longitude>-16.1833333</longitude>
  </city>
  <city name="Bagadage">
    <latitude>12.3775</latitude>
    <longitude>-15.1236111</longitude>
  </city>
  <city name="Bagadaje">
    <latitude>12.0</latitude>
    <longitude>-14.7333333</longitude>
  </city>
  <city name="Bagey">
    <latitude>12.4425</latitude>
    <longitude>-15.9919444</longitude>
  </city>
  <city name="Bagine">
    <latitude>12.3469444</latitude>
    <longitude>-16.4877778</longitude>
  </city>
  <city name="Bagíngarà">
    <latitude>12.5833333</latitude>
    <longitude>-14.4666667</longitude>
  </city>
  <city name="Bagondante">
    <latitude>12.45</latitude>
    <longitude>-16.1166667</longitude>
  </city>
  <city name="Bagongo">
    <latitude>11.85</latitude>
    <longitude>-16.25</longitude>
  </city>
  <city name="Baguê">
    <latitude>12.4425</latitude>
    <longitude>-15.9919444</longitude>
  </city>
  <city name="Baguendal">
    <latitude>12.1863889</latitude>
    <longitude>-15.9402778</longitude>
  </city>
  <city name="Baguia">
    <latitude>12.3166667</latitude>
    <longitude>-13.75</longitude>
  </city>
  <city name="Baguingue">
    <latitude>12.2166667</latitude>
    <longitude>-15.9833333</longitude>
  </city>
  <city name="Baidi">
    <latitude>12.65</latitude>
    <longitude>-14.2666667</longitude>
  </city>
  <city name="Baio">
    <latitude>11.9</latitude>
    <longitude>-14.95</longitude>
  </city>
  <city name="Bairro Balanta">
    <latitude>12.2166667</latitude>
    <longitude>-15.4333333</longitude>
  </city>
  <city name="Bairro Joli">
    <latitude>12.05</latitude>
    <longitude>-14.85</longitude>
  </city>
  <city name="Baite">
    <latitude>12.3586111</latitude>
    <longitude>-15.1680556</longitude>
  </city>
  <city name="Baitlé">
    <latitude>12.3586111</latitude>
    <longitude>-15.1680556</longitude>
  </city>
  <city name="Bajalã">
    <latitude>12.1938889</latitude>
    <longitude>-16.1441667</longitude>
  </city>
  <city name="Bajame">
    <latitude>12.2166667</latitude>
    <longitude>-16.1341667</longitude>
  </city>
  <city name="Bajanacunda">
    <latitude>12.5166667</latitude>
    <longitude>-15.2166667</longitude>
  </city>
  <city name="Bajefa">
    <latitude>12.4166667</latitude>
    <longitude>-14.25</longitude>
  </city>
  <city name="Bajenje">
    <latitude>12.0666667</latitude>
    <longitude>-16.2166667</longitude>
  </city>
  <city name="Bajeto">
    <latitude>12.2333333</latitude>
    <longitude>-16.2166667</longitude>
  </city>
  <city name="Bajíngará">
    <latitude>12.5833333</latitude>
    <longitude>-14.4666667</longitude>
  </city>
  <city name="Bajique">
    <latitude>12.0908333</latitude>
    <longitude>-15.8380556</longitude>
  </city>
  <city name="Bajocunda">
    <latitude>12.6333333</latitude>
    <longitude>-14.0833333</longitude>
  </city>
  <city name="Bajol">
    <latitude>11.75</latitude>
    <longitude>-15.3</longitude>
  </city>
  <city name="Bajonga">
    <latitude>12.3655556</latitude>
    <longitude>-15.9358333</longitude>
  </city>
  <city name="Bajongo">
    <latitude>12.3655556</latitude>
    <longitude>-15.9358333</longitude>
  </city>
  <city name="Bajope">
    <latitude>12.1141667</latitude>
    <longitude>-16.2386111</longitude>
  </city>
  <city name="Bajuaca">
    <latitude>12.0180556</latitude>
    <longitude>-16.0675</longitude>
  </city>
  <city name="Balambai">
    <latitude>11.6</latitude>
    <longitude>-15.4833333</longitude>
  </city>
  <city name="Balana">
    <latitude>11.4</latitude>
    <longitude>-14.9</longitude>
  </city>
  <city name="Balanca">
    <latitude>11.6666667</latitude>
    <longitude>-15.4833333</longitude>
  </city>
  <city name="Balandugo">
    <latitude>11.85</latitude>
    <longitude>-13.7333333</longitude>
  </city>
  <city name="Balanta">
    <latitude>11.8166667</latitude>
    <longitude>-15.7166667</longitude>
  </city>
  <city name="Balem">
    <latitude>12.25</latitude>
    <longitude>-16.0666667</longitude>
  </city>
  <city name="Balenguerez">
    <latitude>12.1627778</latitude>
    <longitude>-16.1291667</longitude>
  </city>
  <city name="Balil">
    <latitude>11.9833333</latitude>
    <longitude>-16.05</longitude>
  </city>
  <city name="Balile">
    <latitude>11.9833333</latitude>
    <longitude>-16.05</longitude>
  </city>
  <city name="Balimbom">
    <latitude>12.2833333</latitude>
    <longitude>-16.0833333</longitude>
  </city>
  <city name="Balinjã">
    <latitude>12.2833333</latitude>
    <longitude>-14.6166667</longitude>
  </city>
  <city name="Balomba">
    <latitude>12.1125</latitude>
    <longitude>-16.1186111</longitude>
  </city>
  <city name="Balombe">
    <latitude>12.1125</latitude>
    <longitude>-16.1186111</longitude>
  </city>
  <city name="Bámal">
    <latitude>12.1991667</latitude>
    <longitude>-16.0536111</longitude>
  </city>
  <city name="Bamba Conholi">
    <latitude>11.35</latitude>
    <longitude>-14.9333333</longitude>
  </city>
  <city name="Bambadinca Balanta">
    <latitude>11.8333333</latitude>
    <longitude>-15.65</longitude>
  </city>
  <city name="Bambadinca">
    <latitude>12.1666667</latitude>
    <longitude>-14.4833333</longitude>
  </city>
  <city name="Bambadinca Beafada">
    <latitude>11.95</latitude>
    <longitude>-15.0666667</longitude>
  </city>
  <city name="Bambadinca El">
    <latitude>12.0166667</latitude>
    <longitude>-14.85</longitude>
  </city>
  <city name="Bambadinca Mancanha">
    <latitude>11.95</latitude>
    <longitude>-15.05</longitude>
  </city>
  <city name="Bambadinca Primeiro">
    <latitude>11.95</latitude>
    <longitude>-15.05</longitude>
  </city>
  <city name="Bambadinca Segundo">
    <latitude>11.95</latitude>
    <longitude>-15.0666667</longitude>
  </city>
  <city name="Bambadincazinho">
    <latitude>12.0166667</latitude>
    <longitude>-14.85</longitude>
  </city>
  <city name="Bambaiã">
    <latitude>12.3</latitude>
    <longitude>-14.7</longitude>
  </city>
  <city name="Bambaià">
    <latitude>11.95</latitude>
    <longitude>-14.6</longitude>
  </city>
  <city name="Bambato">
    <latitude>12.5166667</latitude>
    <longitude>-14.5833333</longitude>
  </city>
  <city name="Bambuti">
    <latitude>11.5333333</latitude>
    <longitude>-15.0333333</longitude>
  </city>
  <city name="Bame">
    <latitude>12.1833333</latitude>
    <longitude>-16.0666667</longitude>
  </city>
  <city name="Bamoial">
    <latitude>12.15</latitude>
    <longitude>-16.1333333</longitude>
  </city>
  <city name="Bananare">
    <latitude>11.35</latitude>
    <longitude>-14.9333333</longitude>
  </city>
  <city name="Bananto">
    <latitude>12.4611111</latitude>
    <longitude>-15.0625</longitude>
  </city>
  <city name="Banau">
    <latitude>11.7666667</latitude>
    <longitude>-16.0833333</longitude>
  </city>
  <city name="Bancá">
    <latitude>12.5333333</latitude>
    <longitude>-14.8166667</longitude>
  </city>
  <city name="Bancò">
    <latitude>12.5333333</latitude>
    <longitude>-14.8166667</longitude>
  </city>
  <city name="Bancobunje">
    <latitude>11.4</latitude>
    <longitude>-14.85</longitude>
  </city>
  <city name="Bancolene">
    <latitude>12.3266667</latitude>
    <longitude>-15.4361111</longitude>
  </city>
  <city name="Bandim">
    <latitude>11.3333333</latitude>
    <longitude>-15.3833333</longitude>
  </city>
  <city name="Bandjara">
    <latitude>12.3166667</latitude>
    <longitude>-14.9666667</longitude>
  </city>
  <city name="Bane">
    <latitude>12.4833333</latitude>
    <longitude>-15.2333333</longitude>
  </city>
  <city name="Bangacia">
    <latitude>11.9166667</latitude>
    <longitude>-14.6</longitude>
  </city>
  <city name="Bangansiá">
    <latitude>11.9166667</latitude>
    <longitude>-14.6</longitude>
  </city>
  <city name="Bangóminè">
    <latitude>12.2333333</latitude>
    <longitude>-16.1333333</longitude>
  </city>
  <city name="Banhima">
    <latitude>12.4333333</latitude>
    <longitude>-15.3833333</longitude>
  </city>
  <city name="Banhinda">
    <latitude>12.2377778</latitude>
    <longitude>-16.0344444</longitude>
  </city>
  <city name="Banhute">
    <latitude>12.1647222</latitude>
    <longitude>-16.0466667</longitude>
  </city>
  <city name="Bani">
    <latitude>11.7333333</latitude>
    <longitude>-15.1</longitude>
  </city>
  <city name="Banim">
    <latitude>12.4833333</latitude>
    <longitude>-15.2333333</longitude>
  </city>
  <city name="Banir">
    <latitude>11.0166667</latitude>
    <longitude>-15.0666667</longitude>
  </city>
  <city name="Bani Siraila">
    <latitude>12.2666667</latitude>
    <longitude>-14.7333333</longitude>
  </city>
  <city name="Baniu Omua">
    <latitude>12.1833333</latitude>
    <longitude>-16.2333333</longitude>
  </city>
  <city name="Baniu Pécia">
    <latitude>12.1891667</latitude>
    <longitude>-16.2330556</longitude>
  </city>
  <city name="Baniu Pécla">
    <latitude>12.1891667</latitude>
    <longitude>-16.2330556</longitude>
  </city>
  <city name="Banjara">
    <latitude>12.3166667</latitude>
    <longitude>-14.9666667</longitude>
  </city>
  <city name="Banjulo">
    <latitude>12.3833333</latitude>
    <longitude>-13.7166667</longitude>
  </city>
  <city name="Banjuno">
    <latitude>11.6666667</latitude>
    <longitude>-15.2</longitude>
  </city>
  <city name="Banocle">
    <latitude>12.1833333</latitude>
    <longitude>-16.1166667</longitude>
  </city>
  <city name="Banou">
    <latitude>11.7666667</latitude>
    <longitude>-16.0833333</longitude>
  </city>
  <city name="Bantadim">
    <latitude>12.5</latitude>
    <longitude>-15.2166667</longitude>
  </city>
  <city name="Bantael">
    <latitude>12.1666667</latitude>
    <longitude>-14.6166667</longitude>
  </city>
  <city name="Bantael Silà">
    <latitude>11.4333333</latitude>
    <longitude>-15.05</longitude>
  </city>
  <city name="Bantã Foru">
    <latitude>11.8166667</latitude>
    <longitude>-14.1333333</longitude>
  </city>
  <city name="Bantajã Assà">
    <latitude>12.05</latitude>
    <longitude>-14.8333333</longitude>
  </city>
  <city name="Bantajã">
    <latitude>12.3166667</latitude>
    <longitude>-14.7166667</longitude>
  </city>
  <city name="Bantajã Cuta">
    <latitude>12.05</latitude>
    <longitude>-14.8333333</longitude>
  </city>
  <city name="Bantajã Mandinga">
    <latitude>12.05</latitude>
    <longitude>-14.85</longitude>
  </city>
  <city name="Bantandim">
    <latitude>12.5</latitude>
    <longitude>-15.2166667</longitude>
  </city>
  <city name="Bantanferoge">
    <latitude>11.8166667</latitude>
    <longitude>-14.1333333</longitude>
  </city>
  <city name="Bantanforo">
    <latitude>11.8166667</latitude>
    <longitude>-14.1333333</longitude>
  </city>
  <city name="Bantanforu">
    <latitude>11.7666667</latitude>
    <longitude>-14.3333333</longitude>
  </city>
  <city name="Bantanjã">
    <latitude>11.7333333</latitude>
    <longitude>-14.25</longitude>
  </city>
  <city name="Bantanjam">
    <latitude>12.05</latitude>
    <longitude>-14.85</longitude>
  </city>
  <city name="Bantanjê Alimo">
    <latitude>12.3333333</latitude>
    <longitude>-14.15</longitude>
  </city>
  <city name="Bantanjê">
    <latitude>12.3333333</latitude>
    <longitude>-14.15</longitude>
  </city>
  <city name="Bantanquelim">
    <latitude>12.4</latitude>
    <longitude>-14.2833333</longitude>
  </city>
  <city name="Bantanquilim">
    <latitude>12.25</latitude>
    <longitude>-14.0166667</longitude>
  </city>
  <city name="Bantanto">
    <latitude>12.1833333</latitude>
    <longitude>-14.15</longitude>
  </city>
  <city name="Bantanto Bató">
    <latitude>12.1833333</latitude>
    <longitude>-14.15</longitude>
  </city>
  <city name="Bantanto Buluto">
    <latitude>12.5166667</latitude>
    <longitude>-15.25</longitude>
  </city>
  <city name="Bantanto Jaia">
    <latitude>12.2</latitude>
    <longitude>-14.15</longitude>
  </city>
  <city name="Bantasso">
    <latitude>12.3916667</latitude>
    <longitude>-15.3402778</longitude>
  </city>
  <city name="Banum">
    <latitude>12.3</latitude>
    <longitude>-14.7166667</longitude>
  </city>
  <city name="Bapeja">
    <latitude>12.2166667</latitude>
    <longitude>-16.1166667</longitude>
  </city>
  <city name="Bárà">
    <latitude>11.95</latitude>
    <longitude>-15.3</longitude>
  </city>
  <city name="Bará">
    <latitude>12.0855556</latitude>
    <longitude>-16.0838889</longitude>
  </city>
  <city name="Baraco Batata">
    <latitude>12.45</latitude>
    <longitude>-16.15</longitude>
  </city>
  <city name="Baradoulo">
    <latitude>11.9991667</latitude>
    <longitude>-15.05</longitude>
  </city>
  <city name="Baramboli">
    <latitude>11.5166667</latitude>
    <longitude>-14.9166667</longitude>
  </city>
  <city name="Barássià">
    <latitude>11.65</latitude>
    <longitude>-14.3666667</longitude>
  </city>
  <city name="Barepende">
    <latitude>12.0572222</latitude>
    <longitude>-16.1969444</longitude>
  </city>
  <city name="Bária">
    <latitude>11.8</latitude>
    <longitude>-15.25</longitude>
  </city>
  <city name="Bariapende">
    <latitude>12.0572222</latitude>
    <longitude>-16.1969444</longitude>
  </city>
  <city name="Barinhã">
    <latitude>12.1833333</latitude>
    <longitude>-14.55</longitude>
  </city>
  <city name="Barme">
    <latitude>12.25</latitude>
    <longitude>-16.0666667</longitude>
  </city>
  <city name="Barquege">
    <latitude>11.75</latitude>
    <longitude>-14.6666667</longitude>
  </city>
  <city name="Barraca Bamboré">
    <latitude>12.4497222</latitude>
    <longitude>-16.2025</longitude>
  </city>
  <city name="Barraca Banana">
    <latitude>12.4666667</latitude>
    <longitude>-16.0833333</longitude>
  </city>
  <city name="Barraca">
    <latitude>11.7</latitude>
    <longitude>-15.4166667</longitude>
  </city>
  <city name="Barraca Batata">
    <latitude>12.45</latitude>
    <longitude>-16.15</longitude>
  </city>
  <city name="Barraca Begoá">
    <latitude>12.4483333</latitude>
    <longitude>-16.1322222</longitude>
  </city>
  <city name="Barraca Biró">
    <latitude>12.4333333</latitude>
    <longitude>-16.2333333</longitude>
  </city>
  <city name="Barraca Bolanha">
    <latitude>12.45</latitude>
    <longitude>-16.2333333</longitude>
  </city>
  <city name="Barraca Cana">
    <latitude>12.4397222</latitude>
    <longitude>-16.0658333</longitude>
  </city>
  <city name="Barraca Fronteira">
    <latitude>12.4666667</latitude>
    <longitude>-16.0833333</longitude>
  </city>
  <city name="Barraca Lugar">
    <latitude>12.4352778</latitude>
    <longitude>-16.1683333</longitude>
  </city>
  <city name="Barraca Mampatás">
    <latitude>12.45</latitude>
    <longitude>-16.0833333</longitude>
  </city>
  <city name="Barraca Mandioca">
    <latitude>12.4333333</latitude>
    <longitude>-16.05</longitude>
  </city>
  <city name="Barraca Poilão">
    <latitude>12.4666667</latitude>
    <longitude>-16.0666667</longitude>
  </city>
  <city name="Barraca Sancho">
    <latitude>12.45</latitude>
    <longitude>-16.05</longitude>
  </city>
  <city name="Barraca Tara">
    <latitude>12.4333333</latitude>
    <longitude>-16.2333333</longitude>
  </city>
  <city name="Barram">
    <latitude>11.95</latitude>
    <longitude>-15.3</longitude>
  </city>
  <city name="Barro">
    <latitude>12.3891667</latitude>
    <longitude>-15.6261111</longitude>
  </city>
  <city name="Barro Grande">
    <latitude>12.3666667</latitude>
    <longitude>-15.6166667</longitude>
  </city>
  <city name="Barrozinho">
    <latitude>12.3833333</latitude>
    <longitude>-15.6333333</longitude>
  </city>
  <city name="Barrunhe">
    <latitude>11.95</latitude>
    <longitude>-15.9833333</longitude>
  </city>
  <city name="Baruanhe">
    <latitude>11.95</latitude>
    <longitude>-15.9833333</longitude>
  </city>
  <city name="Bassà">
    <latitude>12.0666667</latitude>
    <longitude>-15.8333333</longitude>
  </city>
  <city name="Bassane">
    <latitude>12.0669444</latitude>
    <longitude>-16.2672222</longitude>
  </city>
  <city name="Bassarel">
    <latitude>12.1269444</latitude>
    <longitude>-16.1858333</longitude>
  </city>
  <city name="Bassear">
    <latitude>12.3386111</latitude>
    <longitude>-16.6066667</longitude>
  </city>
  <city name="Basseo">
    <latitude>12.3386111</latitude>
    <longitude>-16.6066667</longitude>
  </city>
  <city name="Basseor">
    <latitude>12.3386111</latitude>
    <longitude>-16.6066667</longitude>
  </city>
  <city name="Batacã">
    <latitude>12.0888889</latitude>
    <longitude>-15.7586111</longitude>
  </city>
  <city name="Batâmbali Balanta">
    <latitude>11.5166667</latitude>
    <longitude>-15.1666667</longitude>
  </city>
  <city name="Batâmbali Beafada">
    <latitude>11.5333333</latitude>
    <longitude>-15.1333333</longitude>
  </city>
  <city name="Batau">
    <latitude>12.0527778</latitude>
    <longitude>-16.2166667</longitude>
  </city>
  <city name="Batíjaque">
    <latitude>12.0833333</latitude>
    <longitude>-15.7333333</longitude>
  </city>
  <city name="Batio">
    <latitude>12.0666667</latitude>
    <longitude>-16.1</longitude>
  </city>
  <city name="Batúcar">
    <latitude>11.9833333</latitude>
    <longitude>-16.0833333</longitude>
  </city>
  <city name="Batur">
    <latitude>12.3911111</latitude>
    <longitude>-15.3822222</longitude>
  </city>
  <city name="Beafada">
    <latitude>11.6166667</latitude>
    <longitude>-14.9166667</longitude>
  </city>
  <city name="Bedache">
    <latitude>11.5166667</latitude>
    <longitude>-16.3666667</longitude>
  </city>
  <city name="Bedanda">
    <latitude>11.35</latitude>
    <longitude>-15.1166667</longitude>
  </city>
  <city name="Bedasse">
    <latitude>12.0833333</latitude>
    <longitude>-15.8166667</longitude>
  </city>
  <city name="Bedica">
    <latitude>12.0833333</latitude>
    <longitude>-15.8166667</longitude>
  </city>
  <city name="Beguingue">
    <latitude>12.4169444</latitude>
    <longitude>-16.1705556</longitude>
  </city>
  <city name="Begundo">
    <latitude>12.3716667</latitude>
    <longitude>-16.1597222</longitude>
  </city>
  <city name="Beira Baixa">
    <latitude>12.4666667</latitude>
    <longitude>-15.2333333</longitude>
  </city>
  <city name="Beja">
    <latitude>11.55</latitude>
    <longitude>-15.1666667</longitude>
  </city>
  <city name="Bejala">
    <latitude>12.1780556</latitude>
    <longitude>-16.0991667</longitude>
  </city>
  <city name="Bejene">
    <latitude>12.44</latitude>
    <longitude>-15.5416667</longitude>
  </city>
  <city name="Bejila">
    <latitude>11.9333333</latitude>
    <longitude>-15.7833333</longitude>
  </city>
  <city name="Bejimate">
    <latitude>12.0833333</latitude>
    <longitude>-15.8166667</longitude>
  </city>
  <city name="Bejintim">
    <latitude>12.15</latitude>
    <longitude>-15.75</longitude>
  </city>
  <city name="Belabate">
    <latitude>11.9666667</latitude>
    <longitude>-16.2</longitude>
  </city>
  <city name="Belai">
    <latitude>11.65</latitude>
    <longitude>-15.35</longitude>
  </city>
  <city name="Belal Umaro">
    <latitude>11.9333333</latitude>
    <longitude>-14.8333333</longitude>
  </city>
  <city name="Bele">
    <latitude>11.85</latitude>
    <longitude>-13.9333333</longitude>
  </city>
  <city name="Belel">
    <latitude>12.0880556</latitude>
    <longitude>-15.0105556</longitude>
  </city>
  <city name="Belel Gabi">
    <latitude>12.25</latitude>
    <longitude>-14.9333333</longitude>
  </city>
  <city name="Belém">
    <latitude>11.5166667</latitude>
    <longitude>-15.3</longitude>
  </city>
  <city name="Belenhal">
    <latitude>12.5</latitude>
    <longitude>-14.8166667</longitude>
  </city>
  <city name="Belenquentem">
    <latitude>11.5166667</latitude>
    <longitude>-15.2</longitude>
  </city>
  <city name="Belibar">
    <latitude>12.15</latitude>
    <longitude>-15.7666667</longitude>
  </city>
  <city name="Béli">
    <latitude>11.85</latitude>
    <longitude>-13.9333333</longitude>
  </city>
  <city name="Beliege">
    <latitude>11.95</latitude>
    <longitude>-16.0166667</longitude>
  </city>
  <city name="Belieje">
    <latitude>11.95</latitude>
    <longitude>-16.0166667</longitude>
  </city>
  <city name="Beluaba">
    <latitude>11.9666667</latitude>
    <longitude>-16.05</longitude>
  </city>
  <city name="Beluli">
    <latitude>11.8</latitude>
    <longitude>-16.1</longitude>
  </city>
  <city name="Belunja">
    <latitude>11.95</latitude>
    <longitude>-15.15</longitude>
  </city>
  <city name="Beluti">
    <latitude>12.0377778</latitude>
    <longitude>-16.0533333</longitude>
  </city>
  <city name="Bembelo">
    <latitude>12.3</latitude>
    <longitude>-14.6833333</longitude>
  </city>
  <city name="Benájar">
    <latitude>12.2166667</latitude>
    <longitude>-15.6666667</longitude>
  </city>
  <city name="Benanga">
    <latitude>11.7666667</latitude>
    <longitude>-16.0666667</longitude>
  </city>
  <city name="Benate">
    <latitude>11.7666667</latitude>
    <longitude>-14.8333333</longitude>
  </city>
  <city name="Benau">
    <latitude>12.0922222</latitude>
    <longitude>-16.1866667</longitude>
  </city>
  <city name="Bendugo">
    <latitude>11.2833333</latitude>
    <longitude>-14.8666667</longitude>
  </city>
  <city name="Benhifé">
    <latitude>12.4283333</latitude>
    <longitude>-15.5161111</longitude>
  </city>
  <city name="Benhifo">
    <latitude>12.4283333</latitude>
    <longitude>-15.5161111</longitude>
  </city>
  <city name="Beni">
    <latitude>12.0625</latitude>
    <longitude>-16.1708333</longitude>
  </city>
  <city name="Beniche">
    <latitude>12.1052778</latitude>
    <longitude>-16.0511111</longitude>
  </city>
  <city name="Benifo">
    <latitude>12.1255556</latitude>
    <longitude>-15.3361111</longitude>
  </city>
  <city name="Benja">
    <latitude>12.2752778</latitude>
    <longitude>-16.0827778</longitude>
  </city>
  <city name="Benobe">
    <latitude>11.9333333</latitude>
    <longitude>-15.9833333</longitude>
  </city>
  <city name="Bentem">
    <latitude>12.3</latitude>
    <longitude>-14.0333333</longitude>
  </city>
  <city name="Bentem Jacábè">
    <latitude>12.3</latitude>
    <longitude>-14.0166667</longitude>
  </city>
  <city name="Bera">
    <latitude>12.0430556</latitude>
    <longitude>-15.6002778</longitude>
  </city>
  <city name="Beracobato">
    <latitude>12.4227778</latitude>
    <longitude>-15.0536111</longitude>
  </city>
  <city name="Beracó">
    <latitude>12.2333333</latitude>
    <longitude>-15.3833333</longitude>
  </city>
  <city name="Beracolom">
    <latitude>12.55</latitude>
    <longitude>-14.7833333</longitude>
  </city>
  <city name="Beracòzinho">
    <latitude>12.3080556</latitude>
    <longitude>-15.2108333</longitude>
  </city>
  <city name="Berame">
    <latitude>12.1111111</latitude>
    <longitude>-16.2147222</longitude>
  </city>
  <city name="Bercolom">
    <latitude>12.55</latitude>
    <longitude>-14.7833333</longitude>
  </city>
  <city name="Bercolon">
    <latitude>12.55</latitude>
    <longitude>-14.7833333</longitude>
  </city>
  <city name="Bercondim">
    <latitude>12.3911111</latitude>
    <longitude>-15.2397222</longitude>
  </city>
  <city name="Berebe">
    <latitude>12.3858333</latitude>
    <longitude>-16.1427778</longitude>
  </city>
  <city name="Berecobá">
    <latitude>12.4</latitude>
    <longitude>-15.2333333</longitude>
  </city>
  <city name="Berecobato">
    <latitude>12.4227778</latitude>
    <longitude>-15.0536111</longitude>
  </city>
  <city name="Berecódim">
    <latitude>12.3911111</latitude>
    <longitude>-15.2397222</longitude>
  </city>
  <city name="Berendinto">
    <latitude>12.5833333</latitude>
    <longitude>-15.3</longitude>
  </city>
  <city name="Besse">
    <latitude>11.7666667</latitude>
    <longitude>-16.0666667</longitude>
  </city>
  <city name="Bèssècunda">
    <latitude>12.4833333</latitude>
    <longitude>-14.1</longitude>
  </city>
  <city name="Bessensangar">
    <latitude>12.0666667</latitude>
    <longitude>-15.8166667</longitude>
  </city>
  <city name="Bessia">
    <latitude>12.45</latitude>
    <longitude>-15.1666667</longitude>
  </city>
  <city name="Bessunha">
    <latitude>11.9833333</latitude>
    <longitude>-15.1</longitude>
  </city>
  <city name="Betantá">
    <latitude>12.0855556</latitude>
    <longitude>-16.2141667</longitude>
  </city>
  <city name="Betaque">
    <latitude>11.9666667</latitude>
    <longitude>-15.9666667</longitude>
  </city>
  <city name="Bete">
    <latitude>12.0666667</latitude>
    <longitude>-15.8166667</longitude>
  </city>
  <city name="Beteche">
    <latitude>11.9666667</latitude>
    <longitude>-16.0666667</longitude>
  </city>
  <city name="Betejo">
    <latitude>12.0666667</latitude>
    <longitude>-15.8</longitude>
  </city>
  <city name="Betelhe">
    <latitude>11.5</latitude>
    <longitude>-16.3</longitude>
  </city>
  <city name="Betelho">
    <latitude>11.5</latitude>
    <longitude>-16.3</longitude>
  </city>
  <city name="Beteque">
    <latitude>11.9666667</latitude>
    <longitude>-15.9666667</longitude>
  </city>
  <city name="Betesga">
    <latitude>11.8333333</latitude>
    <longitude>-15.75</longitude>
  </city>
  <city name="Betijaque">
    <latitude>12.0833333</latitude>
    <longitude>-15.7333333</longitude>
  </city>
  <city name="Betume">
    <latitude>12.0488889</latitude>
    <longitude>-15.7983333</longitude>
  </city>
  <city name="Biaba">
    <latitude>12.0666667</latitude>
    <longitude>-15.8166667</longitude>
  </city>
  <city name="Biacha">
    <latitude>12.0416667</latitude>
    <longitude>-16.0247222</longitude>
  </city>
  <city name="Biaja">
    <latitude>11.4333333</latitude>
    <longitude>-15.2</longitude>
  </city>
  <city name="Biambe">
    <latitude>12.1333333</latitude>
    <longitude>-15.55</longitude>
  </city>
  <city name="Biambefoi">
    <latitude>12.2</latitude>
    <longitude>-15.55</longitude>
  </city>
  <city name="Biambi">
    <latitude>12.1338889</latitude>
    <longitude>-15.5233333</longitude>
  </city>
  <city name="Biambifoi">
    <latitude>12.2</latitude>
    <longitude>-15.55</longitude>
  </city>
  <city name="Biana">
    <latitude>12.1</latitude>
    <longitude>-14.8</longitude>
  </city>
  <city name="Biane">
    <latitude>12.1</latitude>
    <longitude>-14.8</longitude>
  </city>
  <city name="Bianga">
    <latitude>11.7833333</latitude>
    <longitude>-15.2</longitude>
  </city>
  <city name="Biango">
    <latitude>12.1891667</latitude>
    <longitude>-16.2330556</longitude>
  </city>
  <city name="Biano">
    <latitude>12.1</latitude>
    <longitude>-14.8</longitude>
  </city>
  <city name="Biassa">
    <latitude>11.5666667</latitude>
    <longitude>-15.2166667</longitude>
  </city>
  <city name="Bichalà">
    <latitude>11.4666667</latitude>
    <longitude>-15.1333333</longitude>
  </city>
  <city name="Bichau">
    <latitude>11.5666667</latitude>
    <longitude>-16.3</longitude>
  </city>
  <city name="Bichercibe">
    <latitude>11.7833333</latitude>
    <longitude>-16.0666667</longitude>
  </city>
  <city name="Bichercibo">
    <latitude>11.7833333</latitude>
    <longitude>-16.0666667</longitude>
  </city>
  <city name="Bidache">
    <latitude>11.5166667</latitude>
    <longitude>-16.3666667</longitude>
  </city>
  <city name="Bidampiol">
    <latitude>11.8333333</latitude>
    <longitude>-15.1</longitude>
  </city>
  <city name="Bidè">
    <latitude>11.7</latitude>
    <longitude>-14.8</longitude>
  </city>
  <city name="Bidjine">
    <latitude>12.1</latitude>
    <longitude>-14.7</longitude>
  </city>
  <city name="Bieio">
    <latitude>12.1</latitude>
    <longitude>-15.75</longitude>
  </city>
  <city name="Biesse">
    <latitude>12.1</latitude>
    <longitude>-15.6833333</longitude>
  </city>
  <city name="Bieu">
    <latitude>11.7833333</latitude>
    <longitude>-16.05</longitude>
  </city>
  <city name="Bigene">
    <latitude>12.44</latitude>
    <longitude>-15.5416667</longitude>
  </city>
  <city name="Bigine">
    <latitude>11.4333333</latitude>
    <longitude>-15.4</longitude>
  </city>
  <city name="Biguingue">
    <latitude>12.4169444</latitude>
    <longitude>-16.1705556</longitude>
  </city>
  <city name="Bijabá">
    <latitude>11.7333333</latitude>
    <longitude>-15.15</longitude>
  </city>
  <city name="Bija">
    <latitude>12.2166667</latitude>
    <longitude>-15.6666667</longitude>
  </city>
  <city name="Bijana">
    <latitude>11.25</latitude>
    <longitude>-15.8666667</longitude>
  </city>
  <city name="Bijanga">
    <latitude>11.85</latitude>
    <longitude>-15.6666667</longitude>
  </city>
  <city name="Bijano Grande">
    <latitude>11.25</latitude>
    <longitude>-15.8666667</longitude>
  </city>
  <city name="Bijanta">
    <latitude>11.5666667</latitude>
    <longitude>-15.1666667</longitude>
  </city>
  <city name="Bijante">
    <latitude>11.5666667</latitude>
    <longitude>-15.1666667</longitude>
  </city>
  <city name="Bijemita">
    <latitude>11.9333333</latitude>
    <longitude>-15.8</longitude>
  </city>
  <city name="Bijene">
    <latitude>12.2672222</latitude>
    <longitude>-15.2288889</longitude>
  </city>
  <city name="Bijine">
    <latitude>12.1</latitude>
    <longitude>-14.7</longitude>
  </city>
  <city name="Bijinita">
    <latitude>11.9333333</latitude>
    <longitude>-15.8</longitude>
  </city>
  <city name="Bijope">
    <latitude>12.2477778</latitude>
    <longitude>-16.1552778</longitude>
  </city>
  <city name="Bilá">
    <latitude>11.7666667</latitude>
    <longitude>-15.3333333</longitude>
  </city>
  <city name="Bilma">
    <latitude>11.9666667</latitude>
    <longitude>-15.65</longitude>
  </city>
  <city name="Bilonco">
    <latitude>11.8333333</latitude>
    <longitude>-14.2166667</longitude>
  </city>
  <city name="Bilonque">
    <latitude>11.8333333</latitude>
    <longitude>-14.2166667</longitude>
  </city>
  <city name="Binacó">
    <latitude>12.4333333</latitude>
    <longitude>-15.2666667</longitude>
  </city>
  <city name="Binaga">
    <latitude>12.3333333</latitude>
    <longitude>-15.5333333</longitude>
  </city>
  <city name="Binan Alimo">
    <latitude>12.35</latitude>
    <longitude>-13.9</longitude>
  </city>
  <city name="Binan Sambael">
    <latitude>12.35</latitude>
    <longitude>-13.9</longitude>
  </city>
  <city name="Binar">
    <latitude>12.0988889</latitude>
    <longitude>-15.6244444</longitude>
  </city>
  <city name="Binare">
    <latitude>12.0988889</latitude>
    <longitude>-15.6244444</longitude>
  </city>
  <city name="Bindoro">
    <latitude>11.9833333</latitude>
    <longitude>-15.35</longitude>
  </city>
  <city name="Bine">
    <latitude>11.2166667</latitude>
    <longitude>-15.7666667</longitude>
  </city>
  <city name="Binga Carenque">
    <latitude>12.4333333</latitude>
    <longitude>-16.05</longitude>
  </city>
  <city name="Bingal">
    <latitude>12.1019444</latitude>
    <longitude>-15.7338889</longitude>
  </city>
  <city name="Binhal">
    <latitude>11.5333333</latitude>
    <longitude>-15.3166667</longitude>
  </city>
  <city name="Binhalo">
    <latitude>11.85</latitude>
    <longitude>-15.0833333</longitude>
  </city>
  <city name="Binhalom">
    <latitude>11.85</latitude>
    <longitude>-15.0833333</longitude>
  </city>
  <city name="Binham">
    <latitude>12.39</latitude>
    <longitude>-15.8216667</longitude>
  </city>
  <city name="Binhangai">
    <latitude>11.9333333</latitude>
    <longitude>-16.2</longitude>
  </city>
  <city name="Binhante">
    <latitude>12.1069444</latitude>
    <longitude>-16.0133333</longitude>
  </city>
  <city name="Binhente">
    <latitude>12.1069444</latitude>
    <longitude>-16.0133333</longitude>
  </city>
  <city name="Binhogo">
    <latitude>12.2641667</latitude>
    <longitude>-15.9691667</longitude>
  </city>
  <city name="Binhoma">
    <latitude>12.1</latitude>
    <longitude>-15.65</longitude>
  </city>
  <city name="Binhome">
    <latitude>12.1</latitude>
    <longitude>-15.65</longitude>
  </city>
  <city name="Binibaque">
    <latitude>12.0511111</latitude>
    <longitude>-15.4013889</longitude>
  </city>
  <city name="Binta">
    <latitude>12.4202778</latitude>
    <longitude>-15.3180556</longitude>
  </city>
  <city name="Binta Mancanha">
    <latitude>12.41</latitude>
    <longitude>-15.5816667</longitude>
  </city>
  <city name="Bintam">
    <latitude>12.4202778</latitude>
    <longitude>-15.3180556</longitude>
  </city>
  <city name="Binte">
    <latitude>11.4833333</latitude>
    <longitude>-16.2333333</longitude>
  </city>
  <city name="Biógate">
    <latitude>11.7166667</latitude>
    <longitude>-15.4166667</longitude>
  </city>
  <city name="Bípar">
    <latitude>12.1177778</latitude>
    <longitude>-16.2227778</longitude>
  </city>
  <city name="Bipo">
    <latitude>12.1658333</latitude>
    <longitude>-15.7144444</longitude>
  </city>
  <city name="Birã">
    <latitude>11.55</latitude>
    <longitude>-14.5666667</longitude>
  </city>
  <city name="Biriban">
    <latitude>12.4286111</latitude>
    <longitude>-15.1919444</longitude>
  </city>
  <city name="Biribão">
    <latitude>12.4286111</latitude>
    <longitude>-15.1919444</longitude>
  </city>
  <city name="Biricunda">
    <latitude>12.4166667</latitude>
    <longitude>-14.1666667</longitude>
  </city>
  <city name="Birla">
    <latitude>11.9333333</latitude>
    <longitude>-15.55</longitude>
  </city>
  <city name="Birô">
    <latitude>11.5</latitude>
    <longitude>-14.8333333</longitude>
  </city>
  <city name="Biro">
    <latitude>11.8333333</latitude>
    <longitude>-14.8833333</longitude>
  </city>
  <city name="Birocunda">
    <latitude>12.4166667</latitude>
    <longitude>-14.1666667</longitude>
  </city>
  <city name="Birongue">
    <latitude>12.3613889</latitude>
    <longitude>-15.2022222</longitude>
  </city>
  <city name="Bironque">
    <latitude>12.3613889</latitude>
    <longitude>-15.2022222</longitude>
  </city>
  <city name="Bironqui">
    <latitude>12.3613889</latitude>
    <longitude>-15.2022222</longitude>
  </city>
  <city name="Bissà">
    <latitude>11.95</latitude>
    <longitude>-15.25</longitude>
  </city>
  <city name="Bissa">
    <latitude>12.3833333</latitude>
    <longitude>-15.9666667</longitude>
  </city>
  <city name="Bissabur">
    <latitude>12.4052778</latitude>
    <longitude>-15.7044444</longitude>
  </city>
  <city name="Bissaiar">
    <latitude>12.3241667</latitude>
    <longitude>-15.4022222</longitude>
  </city>
  <city name="Bissai">
    <latitude>11.9666667</latitude>
    <longitude>-16.2166667</longitude>
  </city>
  <city name="Bissajar">
    <latitude>12.3241667</latitude>
    <longitude>-15.4022222</longitude>
  </city>
  <city name="Bissajarindim">
    <latitude>12.3166667</latitude>
    <longitude>-15.4</longitude>
  </city>
  <city name="Bissalanca">
    <latitude>11.8833333</latitude>
    <longitude>-15.6666667</longitude>
  </city>
  <city name="Bissâmal">
    <latitude>12.3</latitude>
    <longitude>-14.6833333</longitude>
  </city>
  <city name="Bissamali">
    <latitude>11.7333333</latitude>
    <longitude>-14.7</longitude>
  </city>
  <city name="Bissaml">
    <latitude>11.7333333</latitude>
    <longitude>-14.7</longitude>
  </city>
  <city name="Bissancage">
    <latitude>12.3227778</latitude>
    <longitude>-15.2547222</longitude>
  </city>
  <city name="Bissancaje">
    <latitude>12.3227778</latitude>
    <longitude>-15.2547222</longitude>
  </city>
  <city name="Bissante">
    <latitude>11.2666667</latitude>
    <longitude>-16.1666667</longitude>
  </city>
  <city name="Bissao">
    <latitude>11.85</latitude>
    <longitude>-15.5833333</longitude>
  </city>
  <city name="Bissaque">
    <latitude>12.1333333</latitude>
    <longitude>-14.8166667</longitude>
  </city>
  <city name="Bissáquil">
    <latitude>11.9</latitude>
    <longitude>-15.65</longitude>
  </city>
  <city name="Bissari">
    <latitude>12.5419444</latitude>
    <longitude>-15.2222222</longitude>
  </city>
  <city name="Bissássema de Baixo">
    <latitude>11.7666667</latitude>
    <longitude>-15.4666667</longitude>
  </city>
  <city name="Bissássema de Cima">
    <latitude>11.75</latitude>
    <longitude>-15.4666667</longitude>
  </city>
  <city name="Bissau">
    <latitude>11.85</latitude>
    <longitude>-15.5833333</longitude>
  </city>
  <city name="Bissau Novo">
    <latitude>11.7666667</latitude>
    <longitude>-14.8333333</longitude>
  </city>
  <city name="Bissauzinho">
    <latitude>11.6</latitude>
    <longitude>-15.2666667</longitude>
  </city>
  <city name="Bissilão">
    <latitude>11.7333333</latitude>
    <longitude>-14.8</longitude>
  </city>
  <city name="Bissói">
    <latitude>11.9666667</latitude>
    <longitude>-16.2166667</longitude>
  </city>
  <city name="Bissorã">
    <latitude>12.04</latitude>
    <longitude>-15.4280556</longitude>
  </city>
  <city name="Bissoram">
    <latitude>12.2230556</latitude>
    <longitude>-15.4475</longitude>
  </city>
  <city name="Bissum">
    <latitude>12.2405556</latitude>
    <longitude>-15.6658333</longitude>
  </city>
  <city name="Bissunha">
    <latitude>11.9833333</latitude>
    <longitude>-15.1</longitude>
  </city>
  <city name="Bissussum">
    <latitude>12.1425</latitude>
    <longitude>-15.6911111</longitude>
  </city>
  <city name="Biuntar">
    <latitude>11.7666667</latitude>
    <longitude>-16.0666667</longitude>
  </city>
  <city name="Biura">
    <latitude>12.1666667</latitude>
    <longitude>-15.75</longitude>
  </city>
  <city name="Biúr">
    <latitude>12.095</latitude>
    <longitude>-15.4341667</longitude>
  </city>
  <city name="Biur">
    <latitude>12.2</latitude>
    <longitude>-15.7333333</longitude>
  </city>
  <city name="Blafechuro">
    <latitude>12.0525</latitude>
    <longitude>-15.4752778</longitude>
  </city>
  <city name="Blai">
    <latitude>11.65</latitude>
    <longitude>-15.35</longitude>
  </city>
  <city name="Blansar">
    <latitude>12.3294444</latitude>
    <longitude>-15.7702778</longitude>
  </city>
  <city name="Blassar">
    <latitude>12.25</latitude>
    <longitude>-15.5</longitude>
  </city>
  <city name="Blassé">
    <latitude>11.9333333</latitude>
    <longitude>-15.2166667</longitude>
  </city>
  <city name="Bleque">
    <latitude>11.75</latitude>
    <longitude>-16.1</longitude>
  </city>
  <city name="Blequisse">
    <latitude>12.0969444</latitude>
    <longitude>-15.6983333</longitude>
  </city>
  <city name="Blímate">
    <latitude>11.8833333</latitude>
    <longitude>-15.7333333</longitude>
  </city>
  <city name="Blimblim">
    <latitude>11.7833333</latitude>
    <longitude>-15.9333333</longitude>
  </city>
  <city name="Bliniblim">
    <latitude>11.7833333</latitude>
    <longitude>-15.9333333</longitude>
  </city>
  <city name="Bloi">
    <latitude>12.1</latitude>
    <longitude>-15.8166667</longitude>
  </city>
  <city name="Blom">
    <latitude>11.7833333</latitude>
    <longitude>-15.9</longitude>
  </city>
  <city name="Blon">
    <latitude>12.1002778</latitude>
    <longitude>-15.9658333</longitude>
  </city>
  <city name="Blundé">
    <latitude>11.8</latitude>
    <longitude>-15.7333333</longitude>
  </city>
  <city name="Blunja">
    <latitude>11.95</latitude>
    <longitude>-15.15</longitude>
  </city>
  <city name="Blute">
    <latitude>11.8</latitude>
    <longitude>-16.1</longitude>
  </city>
  <city name="Boa Esperança">
    <latitude>12.0666667</latitude>
    <longitude>-14.8833333</longitude>
  </city>
  <city name="Boata">
    <latitude>11.7666667</latitude>
    <longitude>-16.0833333</longitude>
  </city>
  <city name="Bobé">
    <latitude>11.5</latitude>
    <longitude>-16.3</longitude>
  </city>
  <city name="Bôbedè">
    <latitude>11.3666667</latitude>
    <longitude>-15.05</longitude>
  </city>
  <city name="Bocana Balanta">
    <latitude>11.35</latitude>
    <longitude>-15.3833333</longitude>
  </city>
  <city name="Bocana Nalu">
    <latitude>11.35</latitude>
    <longitude>-15.3833333</longitude>
  </city>
  <city name="Bocancati">
    <latitude>12.2741667</latitude>
    <longitude>-15.6122222</longitude>
  </city>
  <city name="Boche Bissà">
    <latitude>11.3666667</latitude>
    <longitude>-15.2166667</longitude>
  </city>
  <city name="Boche">
    <latitude>12.3502778</latitude>
    <longitude>-15.9838889</longitude>
  </city>
  <city name="Boche Falace">
    <latitude>11.2833333</latitude>
    <longitude>-15.05</longitude>
  </city>
  <city name="Boche Mende">
    <latitude>11.3166667</latitude>
    <longitude>-15.15</longitude>
  </city>
  <city name="Boche Mendi">
    <latitude>11.3166667</latitude>
    <longitude>-15.15</longitude>
  </city>
  <city name="Bochenam">
    <latitude>11.3166667</latitude>
    <longitude>-15.0833333</longitude>
  </city>
  <city name="Bodeel">
    <latitude>12.5833333</latitude>
    <longitude>-14.05</longitude>
  </city>
  <city name="Boe">
    <latitude>11.75</latitude>
    <longitude>-14.2166667</longitude>
  </city>
  <city name="Bôeme">
    <latitude>12.2216667</latitude>
    <longitude>-15.7644444</longitude>
  </city>
  <city name="Bôfe">
    <latitude>12.1561111</latitude>
    <longitude>-15.6888889</longitude>
  </city>
  <city name="Boido Embalô">
    <latitude>11.9</latitude>
    <longitude>-14.7</longitude>
  </city>
  <city name="Boihelà">
    <latitude>11.4833333</latitude>
    <longitude>-14.8</longitude>
  </city>
  <city name="Boisanumã">
    <latitude>12.25</latitude>
    <longitude>-14.9333333</longitude>
  </city>
  <city name="Boja">
    <latitude>12.0386111</latitude>
    <longitude>-16.0952778</longitude>
  </city>
  <city name="Bôjabu">
    <latitude>11.9666667</latitude>
    <longitude>-14.6333333</longitude>
  </city>
  <city name="Bojandim">
    <latitude>12.0666667</latitude>
    <longitude>-14.8333333</longitude>
  </city>
  <city name="Bôjo Fulbè">
    <latitude>11.9333333</latitude>
    <longitude>-14.6</longitude>
  </city>
  <city name="Bojol Balanta">
    <latitude>11.7333333</latitude>
    <longitude>-14.9666667</longitude>
  </city>
  <city name="Bojol Beafada">
    <latitude>11.75</latitude>
    <longitude>-14.95</longitude>
  </city>
  <city name="Bojol">
    <latitude>11.75</latitude>
    <longitude>-15.3</longitude>
  </city>
  <city name="Bolabá">
    <latitude>11.6666667</latitude>
    <longitude>-14.0</longitude>
  </city>
  <city name="Bolama">
    <latitude>11.5833333</latitude>
    <longitude>-15.4666667</longitude>
  </city>
  <city name="Bolama de Baixo">
    <latitude>11.5166667</latitude>
    <longitude>-15.6166667</longitude>
  </city>
  <city name="Bolama Nova">
    <latitude>11.5833333</latitude>
    <longitude>-15.4833333</longitude>
  </city>
  <city name="Bolama Novo">
    <latitude>11.5833333</latitude>
    <longitude>-15.4833333</longitude>
  </city>
  <city name="Bolanha">
    <latitude>12.4308333</latitude>
    <longitude>-16.0352778</longitude>
  </city>
  <city name="Bole">
    <latitude>12.1166667</latitude>
    <longitude>-15.7833333</longitude>
  </city>
  <city name="Bolel Samba">
    <latitude>11.45</latitude>
    <longitude>-15.0666667</longitude>
  </city>
  <city name="Bólô">
    <latitude>11.9</latitude>
    <longitude>-14.8666667</longitude>
  </city>
  <city name="Bolola">
    <latitude>11.55</latitude>
    <longitude>-14.9333333</longitude>
  </city>
  <city name="Bolor">
    <latitude>12.2013889</latitude>
    <longitude>-16.4025</longitude>
  </city>
  <city name="Bolumbato">
    <latitude>12.5213889</latitude>
    <longitude>-15.1791667</longitude>
  </city>
  <city name="Bomane">
    <latitude>11.35</latitude>
    <longitude>-14.8166667</longitude>
  </city>
  <city name="Bombocunda">
    <latitude>12.1833333</latitude>
    <longitude>-14.6666667</longitude>
  </city>
  <city name="Boncò">
    <latitude>12.6</latitude>
    <longitude>-14.7333333</longitude>
  </city>
  <city name="Boncom">
    <latitude>12.6</latitude>
    <longitude>-14.7333333</longitude>
  </city>
  <city name="Bondjem">
    <latitude>12.0666667</latitude>
    <longitude>-14.8333333</longitude>
  </city>
  <city name="Bonere">
    <latitude>11.7166667</latitude>
    <longitude>-14.65</longitude>
  </city>
  <city name="Bonhama">
    <latitude>11.9666667</latitude>
    <longitude>-14.7</longitude>
  </city>
  <city name="Boniá">
    <latitude>11.1166667</latitude>
    <longitude>-15.0166667</longitude>
  </city>
  <city name="Bonjè">
    <latitude>12.3333333</latitude>
    <longitude>-14.35</longitude>
  </city>
  <city name="Bonjendem">
    <latitude>12.0666667</latitude>
    <longitude>-14.8333333</longitude>
  </city>
  <city name="Bono">
    <latitude>11.9</latitude>
    <longitude>-15.5833333</longitude>
  </city>
  <city name="Bontanto">
    <latitude>12.1833333</latitude>
    <longitude>-14.15</longitude>
  </city>
  <city name="Borá">
    <latitude>11.9166667</latitude>
    <longitude>-14.6666667</longitude>
  </city>
  <city name="Bór">
    <latitude>11.85</latitude>
    <longitude>-15.6333333</longitude>
  </city>
  <city name="Boro">
    <latitude>11.65</latitude>
    <longitude>-14.05</longitude>
  </city>
  <city name="Borontonhe">
    <latitude>11.9</latitude>
    <longitude>-14.9333333</longitude>
  </city>
  <city name="Botai">
    <latitude>11.5833333</latitude>
    <longitude>-15.9666667</longitude>
  </city>
  <city name="Boté">
    <latitude>11.5</latitude>
    <longitude>-16.3</longitude>
  </city>
  <city name="Botó">
    <latitude>12.1833333</latitude>
    <longitude>-15.7166667</longitude>
  </city>
  <city name="Boual Caium">
    <latitude>12.4</latitude>
    <longitude>-13.8833333</longitude>
  </city>
  <city name="Bouloubà">
    <latitude>11.6666667</latitude>
    <longitude>-14.0</longitude>
  </city>
  <city name="Brá">
    <latitude>11.8666667</latitude>
    <longitude>-15.6333333</longitude>
  </city>
  <city name="Braia">
    <latitude>11.0</latitude>
    <longitude>-15.0333333</longitude>
  </city>
  <city name="Brambanda">
    <latitude>11.7666667</latitude>
    <longitude>-15.4166667</longitude>
  </city>
  <city name="Branco">
    <latitude>11.8</latitude>
    <longitude>-15.75</longitude>
  </city>
  <city name="Brandão">
    <latitude>11.7333333</latitude>
    <longitude>-15.3166667</longitude>
  </city>
  <city name="Brandãozinho">
    <latitude>11.7333333</latitude>
    <longitude>-15.45</longitude>
  </city>
  <city name="Brangulou">
    <latitude>12.4283333</latitude>
    <longitude>-15.9444444</longitude>
  </city>
  <city name="Branol">
    <latitude>12.4475</latitude>
    <longitude>-16.0247222</longitude>
  </city>
  <city name="Braque">
    <latitude>12.1555556</latitude>
    <longitude>-15.7747222</longitude>
  </city>
  <city name="Bravracunda">
    <latitude>12.3166667</latitude>
    <longitude>-14.3333333</longitude>
  </city>
  <city name="Brene">
    <latitude>11.8833333</latitude>
    <longitude>-15.65</longitude>
  </city>
  <city name="Brene Mancanha">
    <latitude>11.8833333</latitude>
    <longitude>-15.6666667</longitude>
  </city>
  <city name="Brene Papel">
    <latitude>11.8833333</latitude>
    <longitude>-15.65</longitude>
  </city>
  <city name="Brengolau">
    <latitude>12.4283333</latitude>
    <longitude>-15.9444444</longitude>
  </city>
  <city name="Bricama">
    <latitude>11.45</latitude>
    <longitude>-14.95</longitude>
  </city>
  <city name="Bricame">
    <latitude>11.2166667</latitude>
    <longitude>-14.8666667</longitude>
  </city>
  <city name="Bricamo">
    <latitude>12.4888889</latitude>
    <longitude>-15.1552778</longitude>
  </city>
  <city name="Brincasse">
    <latitude>12.2166667</latitude>
    <longitude>-14.55</longitude>
  </city>
  <city name="Bruce">
    <latitude>11.2333333</latitude>
    <longitude>-15.8666667</longitude>
  </city>
  <city name="Brufa">
    <latitude>12.2930556</latitude>
    <longitude>-15.6647222</longitude>
  </city>
  <city name="Brusso">
    <latitude>11.25</latitude>
    <longitude>-16.25</longitude>
  </city>
  <city name="Buache">
    <latitude>12.3502778</latitude>
    <longitude>-15.9838889</longitude>
  </city>
  <city name="Buará">
    <latitude>12.3702778</latitude>
    <longitude>-15.4586111</longitude>
  </city>
  <city name="Buata">
    <latitude>11.7666667</latitude>
    <longitude>-16.0833333</longitude>
  </city>
  <city name="Buaxe">
    <latitude>12.3502778</latitude>
    <longitude>-15.9838889</longitude>
  </city>
  <city name="Buba">
    <latitude>11.5833333</latitude>
    <longitude>-15.0</longitude>
  </city>
  <city name="Buba Inchengué">
    <latitude>11.7333333</latitude>
    <longitude>-15.1</longitude>
  </city>
  <city name="Bubaque">
    <latitude>11.2833333</latitude>
    <longitude>-15.8333333</longitude>
  </city>
  <city name="Bubaquer">
    <latitude>11.2833333</latitude>
    <longitude>-15.8333333</longitude>
  </city>
  <city name="Buba Tombó">
    <latitude>11.65</latitude>
    <longitude>-15.0166667</longitude>
  </city>
  <city name="Bubore">
    <latitude>12.4322222</latitude>
    <longitude>-15.4169444</longitude>
  </city>
  <city name="Buborim">
    <latitude>12.4322222</latitude>
    <longitude>-15.4169444</longitude>
  </city>
  <city name="Bubunda">
    <latitude>12.4333333</latitude>
    <longitude>-16.2833333</longitude>
  </city>
  <city name="Bucameré">
    <latitude>12.2327778</latitude>
    <longitude>-15.4180556</longitude>
  </city>
  <city name="Bucãnal">
    <latitude>12.2469444</latitude>
    <longitude>-16.2066667</longitude>
  </city>
  <city name="Bucancadi">
    <latitude>12.2741667</latitude>
    <longitude>-15.6122222</longitude>
  </city>
  <city name="Bucaur">
    <latitude>12.32</latitude>
    <longitude>-15.4836111</longitude>
  </city>
  <city name="Bucliré Ãfia">
    <latitude>12.3166667</latitude>
    <longitude>-13.7333333</longitude>
  </city>
  <city name="Bucola">
    <latitude>12.0833333</latitude>
    <longitude>-15.8333333</longitude>
  </city>
  <city name="Bucol">
    <latitude>12.1333333</latitude>
    <longitude>-14.85</longitude>
  </city>
  <city name="Bucomil">
    <latitude>11.8833333</latitude>
    <longitude>-15.9166667</longitude>
  </city>
  <city name="Bucotite">
    <latitude>12.0666667</latitude>
    <longitude>-16.05</longitude>
  </city>
  <city name="Bucucute">
    <latitude>12.0666667</latitude>
    <longitude>-16.05</longitude>
  </city>
  <city name="Bucul">
    <latitude>12.0833333</latitude>
    <longitude>-16.0333333</longitude>
  </city>
  <city name="Bucuré Áfià">
    <latitude>12.3166667</latitude>
    <longitude>-13.7333333</longitude>
  </city>
  <city name="Bucuré Concha">
    <latitude>12.3</latitude>
    <longitude>-13.7333333</longitude>
  </city>
  <city name="Bucuré Cunja">
    <latitude>12.3</latitude>
    <longitude>-13.7333333</longitude>
  </city>
  <city name="Bucuré Dadi">
    <latitude>12.3166667</latitude>
    <longitude>-13.7</longitude>
  </city>
  <city name="Bucuré Dara">
    <latitude>12.3166667</latitude>
    <longitude>-13.7</longitude>
  </city>
  <city name="Bucuré More">
    <latitude>12.3</latitude>
    <longitude>-13.75</longitude>
  </city>
  <city name="Bucuré Mori">
    <latitude>12.3</latitude>
    <longitude>-13.75</longitude>
  </city>
  <city name="Budampiol">
    <latitude>11.8333333</latitude>
    <longitude>-15.1</longitude>
  </city>
  <city name="Budangar">
    <latitude>12.2666667</latitude>
    <longitude>-14.75</longitude>
  </city>
  <city name="Bude">
    <latitude>12.2833333</latitude>
    <longitude>-14.9333333</longitude>
  </city>
  <city name="Budo">
    <latitude>12.2694444</latitude>
    <longitude>-15.5308333</longitude>
  </city>
  <city name="Budom">
    <latitude>11.4666667</latitude>
    <longitude>-15.1333333</longitude>
  </city>
  <city name="Buduco">
    <latitude>11.7333333</latitude>
    <longitude>-15.3</longitude>
  </city>
  <city name="Bufá">
    <latitude>12.3588889</latitude>
    <longitude>-16.2772222</longitude>
  </city>
  <city name="Bufate">
    <latitude>12.45</latitude>
    <longitude>-14.3166667</longitude>
  </city>
  <city name="Bufati">
    <latitude>12.45</latitude>
    <longitude>-14.3166667</longitude>
  </city>
  <city name="Bufena">
    <latitude>11.6666667</latitude>
    <longitude>-14.0833333</longitude>
  </city>
  <city name="Bufenage">
    <latitude>12.1333333</latitude>
    <longitude>-13.9666667</longitude>
  </city>
  <city name="Bufene">
    <latitude>11.6666667</latitude>
    <longitude>-14.0833333</longitude>
  </city>
  <city name="Bugafal">
    <latitude>11.8166667</latitude>
    <longitude>-14.3833333</longitude>
  </city>
  <city name="Bugáfáli">
    <latitude>11.8166667</latitude>
    <longitude>-14.3833333</longitude>
  </city>
  <city name="Bugampor">
    <latitude>12.3672222</latitude>
    <longitude>-16.1225</longitude>
  </city>
  <city name="Bugim">
    <latitude>12.3469444</latitude>
    <longitude>-16.4877778</longitude>
  </city>
  <city name="Bugjim">
    <latitude>12.3469444</latitude>
    <longitude>-16.4877778</longitude>
  </city>
  <city name="Bugudu">
    <latitude>12.3333333</latitude>
    <longitude>-13.9</longitude>
  </city>
  <city name="Bugula">
    <latitude>12.1730556</latitude>
    <longitude>-15.8225</longitude>
  </city>
  <city name="Bugulhalete">
    <latitude>12.0</latitude>
    <longitude>-16.0833333</longitude>
  </city>
  <city name="Bugumbo">
    <latitude>11.5166667</latitude>
    <longitude>-14.8</longitude>
  </city>
  <city name="Buiò">
    <latitude>11.5333333</latitude>
    <longitude>-15.25</longitude>
  </city>
  <city name="Bujemê">
    <latitude>12.0166667</latitude>
    <longitude>-14.8666667</longitude>
  </city>
  <city name="Bula">
    <latitude>12.1038889</latitude>
    <longitude>-15.7080556</longitude>
  </city>
  <city name="Bula Cunchungo">
    <latitude>11.7333333</latitude>
    <longitude>-15.1</longitude>
  </city>
  <city name="Bulama">
    <latitude>11.5833333</latitude>
    <longitude>-15.4666667</longitude>
  </city>
  <city name="Bulamete">
    <latitude>12.1166667</latitude>
    <longitude>-15.7166667</longitude>
  </city>
  <city name="Bulel Samba">
    <latitude>11.45</latitude>
    <longitude>-15.0666667</longitude>
  </city>
  <city name="Buloba">
    <latitude>11.9666667</latitude>
    <longitude>-16.05</longitude>
  </city>
  <city name="Buma">
    <latitude>12.3833333</latitude>
    <longitude>-14.3</longitude>
  </city>
  <city name="Bumal">
    <latitude>12.2427778</latitude>
    <longitude>-15.9069444</longitude>
  </city>
  <city name="Bunancar">
    <latitude>12.2166667</latitude>
    <longitude>-14.6333333</longitude>
  </city>
  <city name="Bunau">
    <latitude>11.8166667</latitude>
    <longitude>-15.7166667</longitude>
  </city>
  <city name="Bunaussa">
    <latitude>11.7333333</latitude>
    <longitude>-15.4333333</longitude>
  </city>
  <city name="Bundocuro">
    <latitude>11.7</latitude>
    <longitude>-14.1166667</longitude>
  </city>
  <city name="Bundojidè">
    <latitude>12.5333333</latitude>
    <longitude>-14.55</longitude>
  </city>
  <city name="Bunglar">
    <latitude>11.8</latitude>
    <longitude>-15.7166667</longitude>
  </city>
  <city name="Bungótè">
    <latitude>11.5</latitude>
    <longitude>-14.7</longitude>
  </city>
  <city name="Bunhado">
    <latitude>11.5333333</latitude>
    <longitude>-15.1666667</longitude>
  </city>
  <city name="Bunhague">
    <latitude>12.385</latitude>
    <longitude>-16.3505556</longitude>
  </city>
  <city name="Bunhaque">
    <latitude>12.385</latitude>
    <longitude>-16.3505556</longitude>
  </city>
  <city name="Bunquilim">
    <latitude>12.4263889</latitude>
    <longitude>-15.5402778</longitude>
  </city>
  <city name="Buntunsum">
    <latitude>12.05</latitude>
    <longitude>-14.65</longitude>
  </city>
  <city name="Buntusum">
    <latitude>12.2166667</latitude>
    <longitude>-14.7</longitude>
  </city>
  <city name="Buóli">
    <latitude>12.1333333</latitude>
    <longitude>-14.85</longitude>
  </city>
  <city name="Bupe">
    <latitude>12.0111111</latitude>
    <longitude>-15.5661111</longitude>
  </city>
  <city name="Buqueje">
    <latitude>11.85</latitude>
    <longitude>-15.6</longitude>
  </city>
  <city name="Burame">
    <latitude>12.2297222</latitude>
    <longitude>-15.7069444</longitude>
  </city>
  <city name="Burè">
    <latitude>11.8833333</latitude>
    <longitude>-14.8</longitude>
  </city>
  <city name="Burmelem">
    <latitude>11.9333333</latitude>
    <longitude>-14.2833333</longitude>
  </city>
  <city name="Burmeleu">
    <latitude>11.9333333</latitude>
    <longitude>-14.3</longitude>
  </city>
  <city name="Burné">
    <latitude>12.2388889</latitude>
    <longitude>-16.1097222</longitude>
  </city>
  <city name="Buro">
    <latitude>12.4333333</latitude>
    <longitude>-15.25</longitude>
  </city>
  <city name="Buro Gela">
    <latitude>12.6333333</latitude>
    <longitude>-15.0</longitude>
  </city>
  <city name="Buro Sinchã">
    <latitude>12.5833333</latitude>
    <longitude>-14.85</longitude>
  </city>
  <city name="Burquelêm">
    <latitude>11.9</latitude>
    <longitude>-13.7666667</longitude>
  </city>
  <city name="Burro">
    <latitude>12.5833333</latitude>
    <longitude>-14.8666667</longitude>
  </city>
  <city name="Burrodulo">
    <latitude>11.9991667</latitude>
    <longitude>-15.05</longitude>
  </city>
  <city name="Burro Gela">
    <latitude>12.6333333</latitude>
    <longitude>-15.0</longitude>
  </city>
  <city name="Burro Sinchã">
    <latitude>12.5833333</latitude>
    <longitude>-14.85</longitude>
  </city>
  <city name="Burume">
    <latitude>12.2297222</latitude>
    <longitude>-15.7069444</longitude>
  </city>
  <city name="Buruntoni">
    <latitude>11.9</latitude>
    <longitude>-14.9333333</longitude>
  </city>
  <city name="Buruntuma">
    <latitude>12.4333333</latitude>
    <longitude>-13.65</longitude>
  </city>
  <city name="Buta">
    <latitude>11.8333333</latitude>
    <longitude>-15.75</longitude>
  </city>
  <city name="Butafete">
    <latitude>11.8333333</latitude>
    <longitude>-15.7666667</longitude>
  </city>
  <city name="Butame">
    <latitude>12.2333333</latitude>
    <longitude>-16.23</longitude>
  </city>
  <city name="Butubul">
    <latitude>12.0666667</latitude>
    <longitude>-16.2666667</longitude>
  </city>
  <city name="Byemita">
    <latitude>11.9333333</latitude>
    <longitude>-15.8</longitude>
  </city>
  <city name="Caam">
    <latitude>12.35</latitude>
    <longitude>-15.5666667</longitude>
  </city>
  <city name="Caame">
    <latitude>12.35</latitude>
    <longitude>-15.5666667</longitude>
  </city>
  <city name="Caãn">
    <latitude>12.1147222</latitude>
    <longitude>-15.4927778</longitude>
  </city>
  <city name="Cabace">
    <latitude>11.7833333</latitude>
    <longitude>-16.0666667</longitude>
  </city>
  <city name="Cabaceira">
    <latitude>11.5166667</latitude>
    <longitude>-15.3666667</longitude>
  </city>
  <city name="Cabaco">
    <latitude>11.3</latitude>
    <longitude>-15.2666667</longitude>
  </city>
  <city name="Cabadju">
    <latitude>12.6666667</latitude>
    <longitude>-14.7666667</longitude>
  </city>
  <city name="Cã Balanta">
    <latitude>11.4833333</latitude>
    <longitude>-15.2</longitude>
  </city>
  <city name="Cabame">
    <latitude>11.7166667</latitude>
    <longitude>-15.3833333</longitude>
  </city>
  <city name="Cabane">
    <latitude>11.7166667</latitude>
    <longitude>-15.3833333</longitude>
  </city>
  <city name="Cabanguna">
    <latitude>11.5666667</latitude>
    <longitude>-15.95</longitude>
  </city>
  <city name="Cabanta">
    <latitude>11.1666667</latitude>
    <longitude>-15.1333333</longitude>
  </city>
  <city name="Cabante">
    <latitude>11.1666667</latitude>
    <longitude>-15.1333333</longitude>
  </city>
  <city name="Cabaz Balanta">
    <latitude>11.0</latitude>
    <longitude>-15.0333333</longitude>
  </city>
  <city name="Cabaz Sôsso">
    <latitude>11.0333333</latitude>
    <longitude>-15.0166667</longitude>
  </city>
  <city name="Cã Beafada">
    <latitude>11.4833333</latitude>
    <longitude>-15.1833333</longitude>
  </city>
  <city name="Câbe">
    <latitude>12.3</latitude>
    <longitude>-15.75</longitude>
  </city>
  <city name="Cabedu Balanta">
    <latitude>11.1</latitude>
    <longitude>-15.15</longitude>
  </city>
  <city name="Cabedu">
    <latitude>11.1166667</latitude>
    <longitude>-15.15</longitude>
  </city>
  <city name="Cabedu Nalu e Sôsso">
    <latitude>11.1333333</latitude>
    <longitude>-15.15</longitude>
  </city>
  <city name="Cabelé">
    <latitude>12.4833333</latitude>
    <longitude>-14.5666667</longitude>
  </city>
  <city name="Cabélè">
    <latitude>12.2333333</latitude>
    <longitude>-14.4</longitude>
  </city>
  <city name="Cabelé Mandinga">
    <latitude>12.55</latitude>
    <longitude>-14.8833333</longitude>
  </city>
  <city name="Cabelé Nhado">
    <latitude>12.65</latitude>
    <longitude>-14.95</longitude>
  </city>
  <city name="Cabelé Patacò">
    <latitude>12.65</latitude>
    <longitude>-14.95</longitude>
  </city>
  <city name="Cabelé Uale">
    <latitude>12.65</latitude>
    <longitude>-14.95</longitude>
  </city>
  <city name="Cabelole Nalú">
    <latitude>11.35</latitude>
    <longitude>-15.1666667</longitude>
  </city>
  <city name="Cabém">
    <latitude>11.9666667</latitude>
    <longitude>-16.0</longitude>
  </city>
  <city name="Cabessul">
    <latitude>11.2666667</latitude>
    <longitude>-15.0666667</longitude>
  </city>
  <city name="Cabi">
    <latitude>11.0333333</latitude>
    <longitude>-15.0333333</longitude>
  </city>
  <city name="Cabicunda">
    <latitude>11.55</latitude>
    <longitude>-15.5666667</longitude>
  </city>
  <city name="Cabienque">
    <latitude>12.0463889</latitude>
    <longitude>-16.0605556</longitude>
  </city>
  <city name="Caboa">
    <latitude>11.5166667</latitude>
    <longitude>-16.4</longitude>
  </city>
  <city name="Caboca">
    <latitude>12.1166667</latitude>
    <longitude>-14.05</longitude>
  </city>
  <city name="Cabochanque">
    <latitude>11.0166667</latitude>
    <longitude>-15.0666667</longitude>
  </city>
  <city name="Cabofará">
    <latitude>11.9666667</latitude>
    <longitude>-14.6666667</longitude>
  </city>
  <city name="Cabolol Balanta">
    <latitude>11.35</latitude>
    <longitude>-15.15</longitude>
  </city>
  <city name="Cabolol Nalu">
    <latitude>11.35</latitude>
    <longitude>-15.1666667</longitude>
  </city>
  <city name="Caboma">
    <latitude>11.0333333</latitude>
    <longitude>-15.0166667</longitude>
  </city>
  <city name="Cabome">
    <latitude>11.0333333</latitude>
    <longitude>-15.0166667</longitude>
  </city>
  <city name="Caboncate">
    <latitude>12.15</latitude>
    <longitude>-16.05</longitude>
  </city>
  <city name="Cabonepo">
    <latitude>11.05</latitude>
    <longitude>-15.0333333</longitude>
  </city>
  <city name="Cabosare">
    <latitude>12.2333333</latitude>
    <longitude>-14.15</longitude>
  </city>
  <city name="Cabo Sêco">
    <latitude>12.5</latitude>
    <longitude>-15.25</longitude>
  </city>
  <city name="Caboupa Aguiar">
    <latitude>11.5833333</latitude>
    <longitude>-15.5166667</longitude>
  </city>
  <city name="Caboupa Cabral">
    <latitude>11.5833333</latitude>
    <longitude>-15.5333333</longitude>
  </city>
  <city name="Caboupa Mendonça">
    <latitude>11.5833333</latitude>
    <longitude>-15.5166667</longitude>
  </city>
  <city name="Cabo Verde">
    <latitude>11.4</latitude>
    <longitude>-14.9166667</longitude>
  </city>
  <city name="Caboxanque">
    <latitude>11.0166667</latitude>
    <longitude>-15.0666667</longitude>
  </city>
  <city name="Caboxanquezinho">
    <latitude>11.0833333</latitude>
    <longitude>-15.0166667</longitude>
  </city>
  <city name="Cã Bras">
    <latitude>11.1</latitude>
    <longitude>-14.9666667</longitude>
  </city>
  <city name="Cã Braz">
    <latitude>11.1</latitude>
    <longitude>-14.9666667</longitude>
  </city>
  <city name="Cabua">
    <latitude>11.5166667</latitude>
    <longitude>-16.4</longitude>
  </city>
  <city name="Cabubar">
    <latitude>11.05</latitude>
    <longitude>-15.0666667</longitude>
  </city>
  <city name="Cabuca">
    <latitude>12.0666667</latitude>
    <longitude>-14.9833333</longitude>
  </city>
  <city name="Cabufara">
    <latitude>11.9666667</latitude>
    <longitude>-14.6666667</longitude>
  </city>
  <city name="Cabul">
    <latitude>12.1333333</latitude>
    <longitude>-15.7166667</longitude>
  </city>
  <city name="Cabune">
    <latitude>11.2333333</latitude>
    <longitude>-16.2333333</longitude>
  </city>
  <city name="Cabuno">
    <latitude>11.2333333</latitude>
    <longitude>-16.2333333</longitude>
  </city>
  <city name="Cacafale Balanta">
    <latitude>11.05</latitude>
    <longitude>-15.0166667</longitude>
  </city>
  <city name="Cacafale">
    <latitude>11.0666667</latitude>
    <longitude>-15.0166667</longitude>
  </city>
  <city name="Cacafale Nalu">
    <latitude>11.0666667</latitude>
    <longitude>-15.0166667</longitude>
  </city>
  <city name="Cacanda">
    <latitude>12.2666667</latitude>
    <longitude>-16.1666667</longitude>
  </city>
  <city name="Cacandi">
    <latitude>12.45</latitude>
    <longitude>-14.1</longitude>
  </city>
  <city name="Cacante">
    <latitude>11.7666667</latitude>
    <longitude>-16.0833333</longitude>
  </city>
  <city name="Cacanto">
    <latitude>12.1</latitude>
    <longitude>-15.9666667</longitude>
  </city>
  <city name="Cacao-oi">
    <latitude>10.9833333</latitude>
    <longitude>-15.0833333</longitude>
  </city>
  <city name="Cacete">
    <latitude>12.15</latitude>
    <longitude>-15.7</longitude>
  </city>
  <city name="Cachabate">
    <latitude>12.18</latitude>
    <longitude>-15.9313889</longitude>
  </city>
  <city name="Cachá Djabè">
    <latitude>12.4166667</latitude>
    <longitude>-14.5333333</longitude>
  </city>
  <city name="Cacha Fulbè">
    <latitude>12.4166667</latitude>
    <longitude>-14.5166667</longitude>
  </city>
  <city name="Cáchajà">
    <latitude>12.5166667</latitude>
    <longitude>-13.8333333</longitude>
  </city>
  <city name="Cachalame">
    <latitude>12.0972222</latitude>
    <longitude>-16.3180556</longitude>
  </city>
  <city name="Cachamba Balanta">
    <latitude>11.2166667</latitude>
    <longitude>-15.0833333</longitude>
  </city>
  <city name="Cachamba Nalu">
    <latitude>11.2</latitude>
    <longitude>-15.1</longitude>
  </city>
  <city name="Cachamba Papel">
    <latitude>11.2</latitude>
    <longitude>-15.0833333</longitude>
  </city>
  <city name="Cachamba Sôsso">
    <latitude>11.2</latitude>
    <longitude>-15.0833333</longitude>
  </city>
  <city name="Cachame">
    <latitude>11.9833333</latitude>
    <longitude>-16.0</longitude>
  </city>
  <city name="Cachanco">
    <latitude>11.8666667</latitude>
    <longitude>-14.65</longitude>
  </city>
  <city name="Cachanga">
    <latitude>11.35</latitude>
    <longitude>-15.2833333</longitude>
  </city>
  <city name="Cachaque">
    <latitude>11.3333333</latitude>
    <longitude>-15.2166667</longitude>
  </city>
  <city name="Cacháquè">
    <latitude>12.5166667</latitude>
    <longitude>-13.85</longitude>
  </city>
  <city name="Cachete">
    <latitude>11.9666667</latitude>
    <longitude>-15.9833333</longitude>
  </city>
  <city name="Cacheu">
    <latitude>12.2705556</latitude>
    <longitude>-16.1658333</longitude>
  </city>
  <city name="Cacheusinho">
    <latitude>11.6333333</latitude>
    <longitude>-15.45</longitude>
  </city>
  <city name="Cacheuzinho">
    <latitude>11.6333333</latitude>
    <longitude>-15.45</longitude>
  </city>
  <city name="Cachida">
    <latitude>11.2166667</latitude>
    <longitude>-15.3</longitude>
  </city>
  <city name="Cachil">
    <latitude>11.2166667</latitude>
    <longitude>-15.3166667</longitude>
  </city>
  <city name="Cachile">
    <latitude>11.2166667</latitude>
    <longitude>-15.3166667</longitude>
  </city>
  <city name="Cachôbar">
    <latitude>11.45</latitude>
    <longitude>-15.2833333</longitude>
  </city>
  <city name="Cacice">
    <latitude>11.1333333</latitude>
    <longitude>-15.1666667</longitude>
  </city>
  <city name="Cacine">
    <latitude>11.1166667</latitude>
    <longitude>-15.0166667</longitude>
  </city>
  <city name="Cacoca">
    <latitude>11.1</latitude>
    <longitude>-14.9166667</longitude>
  </city>
  <city name="Cacondó">
    <latitude>11.3333333</latitude>
    <longitude>-14.8666667</longitude>
  </city>
  <city name="Cacone">
    <latitude>12.0666667</latitude>
    <longitude>-16.2666667</longitude>
  </city>
  <city name="Cacoque">
    <latitude>12.1166667</latitude>
    <longitude>-15.7</longitude>
  </city>
  <city name="Cacuma">
    <latitude>12.0375</latitude>
    <longitude>-15.1236111</longitude>
  </city>
  <city name="Cã Cumba">
    <latitude>12.2419444</latitude>
    <longitude>-15.0605556</longitude>
  </city>
  <city name="Cacutunte">
    <latitude>10.9833333</latitude>
    <longitude>-15.0833333</longitude>
  </city>
  <city name="Cadam">
    <latitude>12.2833333</latitude>
    <longitude>-14.2833333</longitude>
  </city>
  <city name="Cadé">
    <latitude>11.9833333</latitude>
    <longitude>-15.5</longitude>
  </city>
  <city name="Cadem">
    <latitude>11.9666667</latitude>
    <longitude>-16.0</longitude>
  </city>
  <city name="Cadeu">
    <latitude>12.55</latitude>
    <longitude>-14.3166667</longitude>
  </city>
  <city name="Cadi">
    <latitude>11.9833333</latitude>
    <longitude>-15.5</longitude>
  </city>
  <city name="Cadique">
    <latitude>11.25</latitude>
    <longitude>-15.1333333</longitude>
  </city>
  <city name="Cadique Iala">
    <latitude>11.25</latitude>
    <longitude>-15.1166667</longitude>
  </city>
  <city name="Cadique Imbitena">
    <latitude>11.2166667</latitude>
    <longitude>-15.1333333</longitude>
  </city>
  <city name="Cadique Imbitina">
    <latitude>11.2166667</latitude>
    <longitude>-15.1333333</longitude>
  </city>
  <city name="Cadique Nalu">
    <latitude>11.25</latitude>
    <longitude>-15.1333333</longitude>
  </city>
  <city name="Cadonga">
    <latitude>11.3166667</latitude>
    <longitude>-15.25</longitude>
  </city>
  <city name="Caduna">
    <latitude>11.2333333</latitude>
    <longitude>-16.1833333</longitude>
  </city>
  <city name="Caduncó">
    <latitude>12.15</latitude>
    <longitude>-14.3833333</longitude>
  </city>
  <city name="Cael Bessel">
    <latitude>12.4333333</latitude>
    <longitude>-13.6666667</longitude>
  </city>
  <city name="Cael Jessel">
    <latitude>12.4333333</latitude>
    <longitude>-13.6666667</longitude>
  </city>
  <city name="Cã Era">
    <latitude>12.3666667</latitude>
    <longitude>-13.7333333</longitude>
  </city>
  <city name="Cafá">
    <latitude>12.1666667</latitude>
    <longitude>-16.1166667</longitude>
  </city>
  <city name="Cafachè Balanta">
    <latitude>11.2</latitude>
    <longitude>-15.1166667</longitude>
  </city>
  <city name="Cafachè Manjaco">
    <latitude>11.1833333</latitude>
    <longitude>-15.1166667</longitude>
  </city>
  <city name="Cafal Balanta">
    <latitude>11.2</latitude>
    <longitude>-15.15</longitude>
  </city>
  <city name="Cafale">
    <latitude>12.1555556</latitude>
    <longitude>-15.8641667</longitude>
  </city>
  <city name="Cafal Nalu">
    <latitude>11.2</latitude>
    <longitude>-15.15</longitude>
  </city>
  <city name="Cafià">
    <latitude>12.1833333</latitude>
    <longitude>-14.85</longitude>
  </city>
  <city name="Cafine">
    <latitude>11.2166667</latitude>
    <longitude>-15.1833333</longitude>
  </city>
  <city name="Cágal">
    <latitude>11.9666667</latitude>
    <longitude>-15.9666667</longitude>
  </city>
  <city name="Cagongo">
    <latitude>12.05</latitude>
    <longitude>-16.1</longitude>
  </city>
  <city name="Cagongue">
    <latitude>12.05</latitude>
    <longitude>-16.1</longitude>
  </city>
  <city name="Cã Grande">
    <latitude>11.9666667</latitude>
    <longitude>-15.5333333</longitude>
  </city>
  <city name="Caguepe">
    <latitude>12.2305556</latitude>
    <longitude>-15.9761111</longitude>
  </city>
  <city name="Cahcoal">
    <latitude>11.4333333</latitude>
    <longitude>-15.0833333</longitude>
  </city>
  <city name="Cahone">
    <latitude>12.45</latitude>
    <longitude>-14.5166667</longitude>
  </city>
  <city name="Caiada">
    <latitude>12.3166667</latitude>
    <longitude>-14.25</longitude>
  </city>
  <city name="Caiana">
    <latitude>11.9166667</latitude>
    <longitude>-15.55</longitude>
  </city>
  <city name="Caianga">
    <latitude>12.4</latitude>
    <longitude>-15.0666667</longitude>
  </city>
  <city name="Caianteco">
    <latitude>11.1166667</latitude>
    <longitude>-14.9</longitude>
  </city>
  <city name="Caianticó">
    <latitude>11.1166667</latitude>
    <longitude>-14.9</longitude>
  </city>
  <city name="Caiar">
    <latitude>11.2</latitude>
    <longitude>-15.3833333</longitude>
  </city>
  <city name="Cai">
    <latitude>12.2519444</latitude>
    <longitude>-15.2294444</longitude>
  </city>
  <city name="Caiera">
    <latitude>12.3666667</latitude>
    <longitude>-13.7333333</longitude>
  </city>
  <city name="Cã Ierofim">
    <latitude>12.3333333</latitude>
    <longitude>-14.6666667</longitude>
  </city>
  <city name="Cã Iero Sane">
    <latitude>12.25</latitude>
    <longitude>-14.5833333</longitude>
  </city>
  <city name="Caió">
    <latitude>11.9333333</latitude>
    <longitude>-16.2</longitude>
  </city>
  <city name="Caiomete">
    <latitude>11.9833333</latitude>
    <longitude>-16.2333333</longitude>
  </city>
  <city name="Caiquene">
    <latitude>11.2166667</latitude>
    <longitude>-15.0833333</longitude>
  </city>
  <city name="Caiquenem">
    <latitude>11.2166667</latitude>
    <longitude>-15.0833333</longitude>
  </city>
  <city name="Caiumpa">
    <latitude>12.45</latitude>
    <longitude>-15.5833333</longitude>
  </city>
  <city name="Cajágal">
    <latitude>12.1080556</latitude>
    <longitude>-15.7744444</longitude>
  </city>
  <city name="Cajambali">
    <latitude>11.9666667</latitude>
    <longitude>-16.0</longitude>
  </city>
  <city name="Cajana">
    <latitude>11.9166667</latitude>
    <longitude>-15.55</longitude>
  </city>
  <city name="Cajé">
    <latitude>11.4</latitude>
    <longitude>-15.1333333</longitude>
  </city>
  <city name="Cajegute">
    <latitude>11.9333333</latitude>
    <longitude>-16.1333333</longitude>
  </city>
  <city name="Cajel">
    <latitude>12.2</latitude>
    <longitude>-14.6833333</longitude>
  </city>
  <city name="Cajeu">
    <latitude>11.4166667</latitude>
    <longitude>-15.2166667</longitude>
  </city>
  <city name="Cajila">
    <latitude>11.8833333</latitude>
    <longitude>-15.6</longitude>
  </city>
  <city name="Cajite">
    <latitude>12.0666667</latitude>
    <longitude>-16.2333333</longitude>
  </city>
  <city name="Cajoque">
    <latitude>12.0519444</latitude>
    <longitude>-16.2722222</longitude>
  </city>
  <city name="Cã Júlio">
    <latitude>11.7833333</latitude>
    <longitude>-14.9</longitude>
  </city>
  <city name="Cájuto">
    <latitude>12.25</latitude>
    <longitude>-14.6333333</longitude>
  </city>
  <city name="Calaba">
    <latitude>11.7166667</latitude>
    <longitude>-15.1833333</longitude>
  </city>
  <city name="Calaco">
    <latitude>11.9333333</latitude>
    <longitude>-15.9833333</longitude>
  </city>
  <city name="Calaje">
    <latitude>11.5166667</latitude>
    <longitude>-15.5833333</longitude>
  </city>
  <city name="Calamancunda">
    <latitude>11.5666667</latitude>
    <longitude>-15.5</longitude>
  </city>
  <city name="Calaque Balanta">
    <latitude>11.2</latitude>
    <longitude>-15.1833333</longitude>
  </city>
  <city name="Calaque">
    <latitude>11.0333333</latitude>
    <longitude>-15.0666667</longitude>
  </city>
  <city name="Calaquechusse">
    <latitude>12.2333333</latitude>
    <longitude>-16.2333333</longitude>
  </city>
  <city name="Calaque Manjaco">
    <latitude>11.0333333</latitude>
    <longitude>-15.0666667</longitude>
  </city>
  <city name="Calaque Nalu">
    <latitude>11.1833333</latitude>
