<?xml version="1.0" encoding="UTF-8"?>
<country code="ie" name="Irlande">
  <city name="Aasleagh">
    <latitude>53.6166667</latitude>
    <longitude>-9.6666667</longitude>
  </city>
  <city name="Abbevill">
    <latitude>51.9666667</latitude>
    <longitude>-8.5833333</longitude>
  </city>
  <city name="Abbeville">
    <latitude>51.9666667</latitude>
    <longitude>-8.5833333</longitude>
  </city>
  <city name="Abbey">
    <latitude>53.1030556</latitude>
    <longitude>-8.3922222</longitude>
  </city>
  <city name="Abbeydorney">
    <latitude>52.35</latitude>
    <longitude>-9.6833333</longitude>
  </city>
  <city name="Abbeyfeale">
    <latitude>52.3813889</latitude>
    <longitude>-9.3025</longitude>
  </city>
  <city name="Abbeylara">
    <latitude>53.7666667</latitude>
    <longitude>-7.45</longitude>
  </city>
  <city name="Abbeyleix">
    <latitude>52.8991667</latitude>
    <longitude>-7.3575</longitude>
  </city>
  <city name="Abbeymahon">
    <latitude>51.6330556</latitude>
    <longitude>-8.7752778</longitude>
  </city>
  <city name="Abbey Mount">
    <latitude>51.6008333</latitude>
    <longitude>-9.1377778</longitude>
  </city>
  <city name="Abbeyshrule">
    <latitude>53.5833333</latitude>
    <longitude>-7.65</longitude>
  </city>
  <city name="Abbeyside">
    <latitude>52.0938889</latitude>
    <longitude>-7.6113889</longitude>
  </city>
  <city name="Abbeytown">
    <latitude>54.1716667</latitude>
    <longitude>-9.1611111</longitude>
  </city>
  <city name="Abbeyville">
    <latitude>54.0608333</latitude>
    <longitude>-8.5036111</longitude>
  </city>
  <city name="Abbot's Cross Roads">
    <latitude>52.9138889</latitude>
    <longitude>-6.8227778</longitude>
  </city>
  <city name="Abbotstown">
    <latitude>53.3930556</latitude>
    <longitude>-6.355</longitude>
  </city>
  <city name="Abhainn an Scáil">
    <latitude>52.1516667</latitude>
    <longitude>-10.0566667</longitude>
  </city>
  <city name="Abhóca">
    <latitude>52.8527778</latitude>
    <longitude>-6.2169444</longitude>
  </city>
  <city name="Abington">
    <latitude>52.6355556</latitude>
    <longitude>-8.4147222</longitude>
  </city>
  <city name="Accrour Bridge">
    <latitude>52.3744444</latitude>
    <longitude>-8.9066667</longitude>
  </city>
  <city name="Achadh an Iúir">
    <latitude>53.8338889</latitude>
    <longitude>-7.0755556</longitude>
  </city>
  <city name="Achadh Úr">
    <latitude>52.7341667</latitude>
    <longitude>-7.3988889</longitude>
  </city>
  <city name="Achill">
    <latitude>53.9311111</latitude>
    <longitude>-9.915</longitude>
  </city>
  <city name="Achill Sound">
    <latitude>53.9277778</latitude>
    <longitude>-9.9391667</longitude>
  </city>
  <city name="Achonry">
    <latitude>54.0827778</latitude>
    <longitude>-8.6669444</longitude>
  </city>
  <city name="Aclare">
    <latitude>54.0333333</latitude>
    <longitude>-8.9</longitude>
  </city>
  <city name="Adamstown">
    <latitude>52.2280556</latitude>
    <longitude>-7.2341667</longitude>
  </city>
  <city name="Adare">
    <latitude>52.5619444</latitude>
    <longitude>-8.7955556</longitude>
  </city>
  <city name="Addergoole">
    <latitude>53.3630556</latitude>
    <longitude>-9.0155556</longitude>
  </city>
  <city name="Addragool">
    <latitude>53.3211111</latitude>
    <longitude>-9.1444444</longitude>
  </city>
  <city name="Adoca">
    <latitude>52.8527778</latitude>
    <longitude>-6.2169444</longitude>
  </city>
  <city name="Adrigole">
    <latitude>51.7008333</latitude>
    <longitude>-9.725</longitude>
  </city>
  <city name="Adrivale">
    <latitude>52.0344444</latitude>
    <longitude>-9.1105556</longitude>
  </city>
  <city name="Aeaun Bridge">
    <latitude>52.8433333</latitude>
    <longitude>-6.6633333</longitude>
  </city>
  <city name="Agall">
    <latitude>53.2561111</latitude>
    <longitude>-7.6016667</longitude>
  </city>
  <city name="Agar Bridge">
    <latitude>53.2422222</latitude>
    <longitude>-6.9497222</longitude>
  </city>
  <city name="Aghaboe">
    <latitude>52.9188889</latitude>
    <longitude>-7.5119444</longitude>
  </city>
  <city name="Aghabog">
    <latitude>54.1497222</latitude>
    <longitude>-7.0894444</longitude>
  </city>
  <city name="Aghabulloge">
    <latitude>51.9333333</latitude>
    <longitude>-8.8</longitude>
  </city>
  <city name="Aghabullogue">
    <latitude>51.9333333</latitude>
    <longitude>-8.8</longitude>
  </city>
  <city name="Aghacunna">
    <latitude>51.8744444</latitude>
    <longitude>-9.0919444</longitude>
  </city>
  <city name="Aghacurreen">
    <latitude>52.0897222</latitude>
    <longitude>-9.5652778</longitude>
  </city>
  <city name="Aghada">
    <latitude>51.8391667</latitude>
    <longitude>-8.2122222</longitude>
  </city>
  <city name="Aghade Bridge">
    <latitude>52.7575</latitude>
    <longitude>-6.7255556</longitude>
  </city>
  <city name="Aghadoon">
    <latitude>54.2711111</latitude>
    <longitude>-10.0297222</longitude>
  </city>
  <city name="Aghadreen">
    <latitude>52.91</latitude>
    <longitude>-7.1788889</longitude>
  </city>
  <city name="Aghadreenagh">
    <latitude>54.0783333</latitude>
    <longitude>-7.3094444</longitude>
  </city>
  <city name="Aghadruminsh">
    <latitude>53.9805556</latitude>
    <longitude>-7.6980556</longitude>
  </city>
  <city name="Aghaglinny North">
    <latitude>53.1391667</latitude>
    <longitude>-9.2188889</longitude>
  </city>
  <city name="Aghagower">
    <latitude>53.75</latitude>
    <longitude>-9.4666667</longitude>
  </city>
  <city name="Aghagrania">
    <latitude>54.0686111</latitude>
    <longitude>-8.0169444</longitude>
  </city>
  <city name="Aghakilmore">
    <latitude>54.0233333</latitude>
    <longitude>-7.9969444</longitude>
  </city>
  <city name="Aghalackan">
    <latitude>53.9727778</latitude>
    <longitude>-7.3002778</longitude>
  </city>
  <city name="Aghalane">
    <latitude>54.1227778</latitude>
    <longitude>-7.4775</longitude>
  </city>
  <city name="Aghaleague">
    <latitude>54.0397222</latitude>
    <longitude>-7.7086111</longitude>
  </city>
  <city name="Aghalenty">
    <latitude>54.99</latitude>
    <longitude>-7.6838889</longitude>
  </city>
  <city name="Aghalough">
    <latitude>54.5663889</latitude>
    <longitude>-7.8416667</longitude>
  </city>
  <city name="Aghamackalinn">
    <latitude>54.3916667</latitude>
    <longitude>-7.0497222</longitude>
  </city>
  <city name="Aghamore">
    <latitude>53.9</latitude>
    <longitude>-7.95</longitude>
  </city>
  <city name="Aghancon">
    <latitude>53.0322222</latitude>
    <longitude>-7.7883333</longitude>
  </city>
  <city name="Aghanure">
    <latitude>52.8752778</latitude>
    <longitude>-6.9297222</longitude>
  </city>
  <city name="Aghanvilla">
    <latitude>53.2</latitude>
    <longitude>-7.3166667</longitude>
  </city>
  <city name="Agharroo">
    <latitude>54.4575</latitude>
    <longitude>-8.3294444</longitude>
  </city>
  <city name="Aghaterry">
    <latitude>52.8691667</latitude>
    <longitude>-7.0694444</longitude>
  </city>
  <city name="Aghatubrid">
    <latitude>51.8811111</latitude>
    <longitude>-10.1963889</longitude>
  </city>
  <city name="Aghatubrid Bridge">
    <latitude>51.8811111</latitude>
    <longitude>-10.1963889</longitude>
  </city>
  <city name="Aghavannagh">
    <latitude>52.9141667</latitude>
    <longitude>-6.4169444</longitude>
  </city>
  <city name="Aghavannah">
    <latitude>52.9141667</latitude>
    <longitude>-6.4169444</longitude>
  </city>
  <city name="Aghavas">
    <latitude>53.9538889</latitude>
    <longitude>-7.7161111</longitude>
  </city>
  <city name="Aghaveagh">
    <latitude>54.7966667</latitude>
    <longitude>-7.8852778</longitude>
  </city>
  <city name="Aghaville">
    <latitude>51.6588889</latitude>
    <longitude>-9.3433333</longitude>
  </city>
  <city name="Aghaville Cross Roads">
    <latitude>51.6588889</latitude>
    <longitude>-9.3433333</longitude>
  </city>
  <city name="Aghavrin Cross Roads">
    <latitude>51.9322222</latitude>
    <longitude>-8.8113889</longitude>
  </city>
  <city name="Aghaward">
    <latitude>53.9322222</latitude>
    <longitude>-9.1041667</longitude>
  </city>
  <city name="Aghduff Bridge">
    <latitude>52.5155556</latitude>
    <longitude>-8.8966667</longitude>
  </city>
  <city name="Aghern">
    <latitude>52.0825</latitude>
    <longitude>-8.1522222</longitude>
  </city>
  <city name="Aghinree Bridge">
    <latitude>52.8277778</latitude>
    <longitude>-6.6463889</longitude>
  </city>
  <city name="Aghlattacru">
    <latitude>53.9441667</latitude>
    <longitude>-6.7175</longitude>
  </city>
  <city name="Aghlaverty">
    <latitude>54.2455556</latitude>
    <longitude>-6.8991667</longitude>
  </city>
  <city name="Aghleam">
    <latitude>54.1158333</latitude>
    <longitude>-10.1022222</longitude>
  </city>
  <city name="Aghlem Bridge">
    <latitude>54.6566667</latitude>
    <longitude>-8.0191667</longitude>
  </city>
  <city name="Aghnafarcan">
    <latitude>54.0633333</latitude>
    <longitude>-6.7483333</longitude>
  </city>
  <city name="Aghnagap">
    <latitude>54.2219444</latitude>
    <longitude>-6.89</longitude>
  </city>
  <city name="Aghnagar Bridge">
    <latitude>51.8994444</latitude>
    <longitude>-10.2486111</longitude>
  </city>
  <city name="Aghnagollop">
    <latitude>54.0377778</latitude>
    <longitude>-8.0266667</longitude>
  </city>
  <city name="Aghnahaha">
    <latitude>54.3841667</latitude>
    <longitude>-8.1394444</longitude>
  </city>
  <city name="Aghnakily">
    <latitude>53.0236111</latitude>
    <longitude>-7.2208333</longitude>
  </city>
  <city name="Aghnamarroge Cross Roads">
    <latitude>51.8363889</latitude>
    <longitude>-8.7483333</longitude>
  </city>
  <city name="Aghnamullen">
    <latitude>54.0930556</latitude>
    <longitude>-6.96</longitude>
  </city>
  <city name="Aghnanus Bridge">
    <latitude>51.9538889</latitude>
    <longitude>-9.3908333</longitude>
  </city>
  <city name="Aghnaskeagh">
    <latitude>54.0461111</latitude>
    <longitude>-6.3680556</longitude>
  </city>
  <city name="Aghoney">
    <latitude>52.9308333</latitude>
    <longitude>-7.1988889</longitude>
  </city>
  <city name="Aghoo">
    <latitude>54.0280556</latitude>
    <longitude>-7.7958333</longitude>
  </city>
  <city name="Aghoura">
    <latitude>52.7341667</latitude>
    <longitude>-7.3988889</longitude>
  </city>
  <city name="Aghow">
    <latitude>52.7591667</latitude>
    <longitude>-6.6147222</longitude>
  </city>
  <city name="Aghreena">
    <latitude>52.8541667</latitude>
    <longitude>-7.11</longitude>
  </city>
  <city name="Aglish">
    <latitude>52.9844444</latitude>
    <longitude>-9.0025</longitude>
  </city>
  <city name="Agraglin Bridge">
    <latitude>52.1666667</latitude>
    <longitude>-8.2197222</longitude>
  </city>
  <city name="Ahadallane">
    <latitude>52.0222222</latitude>
    <longitude>-8.6997222</longitude>
  </city>
  <city name="Ahadallane Cross Roads">
    <latitude>52.03</latitude>
    <longitude>-8.6925</longitude>
  </city>
  <city name="Ahafona">
    <latitude>52.5044444</latitude>
    <longitude>-9.6586111</longitude>
  </city>
  <city name="Ahakista">
    <latitude>51.6055556</latitude>
    <longitude>-9.6358333</longitude>
  </city>
  <city name="Ahaphuca Bridge">
    <latitude>52.3005556</latitude>
    <longitude>-8.3822222</longitude>
  </city>
  <city name="Aharney">
    <latitude>53.3044444</latitude>
    <longitude>-7.5847222</longitude>
  </city>
  <city name="Ahascragh">
    <latitude>53.3955556</latitude>
    <longitude>-8.3294444</longitude>
  </city>
  <city name="Ahaunduff Cross Roads">
    <latitude>51.8513889</latitude>
    <longitude>-8.7941667</longitude>
  </city>
  <city name="Ahavoher Bridge">
    <latitude>52.4772222</latitude>
    <longitude>-9.3711111</longitude>
  </city>
  <city name="Ahenny">
    <latitude>52.4152778</latitude>
    <longitude>-7.3972222</longitude>
  </city>
  <city name="Aherla">
    <latitude>51.8572222</latitude>
    <longitude>-8.7388889</longitude>
  </city>
  <city name="Ahgmore Bridge">
    <latitude>52.8475</latitude>
    <longitude>-7.9552778</longitude>
  </city>
  <city name="Ahimma">
    <latitude>52.4902778</latitude>
    <longitude>-9.6461111</longitude>
  </city>
  <city name="Ahnagh Bridge">
    <latitude>52.6705556</latitude>
    <longitude>-8.4638889</longitude>
  </city>
  <city name="Ahnagh Cross">
    <latitude>52.8208333</latitude>
    <longitude>-9.4166667</longitude>
  </city>
  <city name="Ahqunboy">
    <latitude>51.6936111</latitude>
    <longitude>-8.89</longitude>
  </city>
  <city name="Aiden's Cross Roads">
    <latitude>52.6555556</latitude>
    <longitude>-6.5569444</longitude>
  </city>
  <city name="Aighe">
    <latitude>54.7372222</latitude>
    <longitude>-8.4308333</longitude>
  </city>
  <city name="Ail Finn">
    <latitude>53.85</latitude>
    <longitude>-8.2</longitude>
  </city>
  <city name="Aille">
    <latitude>53.7666667</latitude>
    <longitude>-9.4</longitude>
  </city>
  <city name="Aillemore">
    <latitude>53.7083333</latitude>
    <longitude>-9.8708333</longitude>
  </city>
  <city name="Aillenacally">
    <latitude>53.4216667</latitude>
    <longitude>-9.9055556</longitude>
  </city>
  <city name="Ailt an Chorráin">
    <latitude>54.9855556</latitude>
    <longitude>-8.4311111</longitude>
  </city>
  <city name="Aird Mhór">
    <latitude>51.9491667</latitude>
    <longitude>-7.7252778</longitude>
  </city>
  <city name="Alder Trees">
    <latitude>52.5883333</latitude>
    <longitude>-6.4997222</longitude>
  </city>
  <city name="Aldworth's Bridge">
    <latitude>52.2177778</latitude>
    <longitude>-9.0213889</longitude>
  </city>
  <city name="Alexandra Bridge">
    <latitude>53.2875</latitude>
    <longitude>-6.6822222</longitude>
  </city>
  <city name="Alkill">
    <latitude>54.2505556</latitude>
    <longitude>-6.8608333</longitude>
  </city>
  <city name="Allagesh">
    <latitude>54.2625</latitude>
    <longitude>-7.1133333</longitude>
  </city>
  <city name="Alleeny Bridge">
    <latitude>53.0275</latitude>
    <longitude>-8.3905556</longitude>
  </city>
  <city name="Allen">
    <latitude>53.2405556</latitude>
    <longitude>-6.87</longitude>
  </city>
  <city name="Allen's Bridge">
    <latitude>52.1875</latitude>
    <longitude>-8.9661111</longitude>
  </city>
  <city name="Allenwood">
    <latitude>53.2869444</latitude>
    <longitude>-6.8944444</longitude>
  </city>
  <city name="Allenwood Cross Roads">
    <latitude>53.2863889</latitude>
    <longitude>-6.8277778</longitude>
  </city>
  <city name="Allihies">
    <latitude>51.6333333</latitude>
    <longitude>-10.0333333</longitude>
  </city>
  <city name="Alloon Lower">
    <latitude>53.3933333</latitude>
    <longitude>-8.4758333</longitude>
  </city>
  <city name="Almaseed Bridge">
    <latitude>52.2938889</latitude>
    <longitude>-8.1663889</longitude>
  </city>
  <city name="Altadoo">
    <latitude>54.6822222</latitude>
    <longitude>-8.1716667</longitude>
  </city>
  <city name="Altadush">
    <latitude>54.9313889</latitude>
    <longitude>-7.9494444</longitude>
  </city>
  <city name="Altagowlan">
    <latitude>54.1083333</latitude>
    <longitude>-8.1527778</longitude>
  </city>
  <city name="Altahalla">
    <latitude>55.2463889</latitude>
    <longitude>-7.4077778</longitude>
  </city>
  <city name="Altakeeran">
    <latitude>54.1163889</latitude>
    <longitude>-7.905</longitude>
  </city>
  <city name="Alt">
    <latitude>54.765</latitude>
    <longitude>-7.5913889</longitude>
  </city>
  <city name="Altans">
    <latitude>54.2441667</latitude>
    <longitude>-8.8469444</longitude>
  </city>
  <city name="Altateskin">
    <latitude>54.1511111</latitude>
    <longitude>-7.7847222</longitude>
  </city>
  <city name="Alt Lower">
    <latitude>54.7666667</latitude>
    <longitude>-7.5833333</longitude>
  </city>
  <city name="Altnabrocky">
    <latitude>54.0822222</latitude>
    <longitude>-9.5738889</longitude>
  </city>
  <city name="Altnagapple">
    <latitude>54.7283333</latitude>
    <longitude>-8.3761111</longitude>
  </city>
  <city name="Altnapaste">
    <latitude>54.8147222</latitude>
    <longitude>-7.8991667</longitude>
  </city>
  <city name="Alt Upper">
    <latitude>54.765</latitude>
    <longitude>-7.5913889</longitude>
  </city>
  <city name="America">
    <latitude>53.3186111</latitude>
    <longitude>-8.0683333</longitude>
  </city>
  <city name="An Abhainn Dubh">
    <latitude>52.4466667</latitude>
    <longitude>-6.3452778</longitude>
  </city>
  <city name="Anablaha">
    <latitude>52.1166667</latitude>
    <longitude>-9.3833333</longitude>
  </city>
  <city name="Anaglog Cross">
    <latitude>53.8241667</latitude>
    <longitude>-6.5311111</longitude>
  </city>
  <city name="Anaglog Cross Roads">
    <latitude>53.8241667</latitude>
    <longitude>-6.5311111</longitude>
  </city>
  <city name="Anascaul">
    <latitude>52.1516667</latitude>
    <longitude>-10.0566667</longitude>
  </city>
  <city name="An Baile Átha hÚlla">
    <latitude>52.1494444</latitude>
    <longitude>-8.4005556</longitude>
  </city>
  <city name="An Baile Beag">
    <latitude>52.6394444</latitude>
    <longitude>-7.7380556</longitude>
  </city>
  <city name="An Baile Dubh">
    <latitude>52.4513889</latitude>
    <longitude>-9.6625</longitude>
  </city>
  <city name="An Baile Mór">
    <latitude>53.2302778</latitude>
    <longitude>-8.18</longitude>
  </city>
  <city name="An Baile Nua">
    <latitude>52.0591667</latitude>
    <longitude>-8.0986111</longitude>
  </city>
  <city name="An Bháinseach">
    <latitude>52.4480556</latitude>
    <longitude>-8.0625</longitude>
  </city>
  <city name="An Bhlarna">
    <latitude>51.9333333</latitude>
    <longitude>-8.5666667</longitude>
  </city>
  <city name="An Bhuiríos">
    <latitude>52.6</latitude>
    <longitude>-6.9175</longitude>
  </city>
  <city name="An Blaic">
    <latitude>54.2927778</latitude>
    <longitude>-7.8752778</longitude>
  </city>
  <city name="An Bóthar Buí">
    <latitude>53.4183333</latitude>
    <longitude>-6.8352778</longitude>
  </city>
  <city name="An Brú">
    <latitude>52.4741667</latitude>
    <longitude>-8.5458333</longitude>
  </city>
  <city name="An Bun Beag">
    <latitude>55.0597222</latitude>
    <longitude>-8.3002778</longitude>
  </city>
  <city name="An Cabhán">
    <latitude>53.9908333</latitude>
    <longitude>-7.3605556</longitude>
  </city>
  <city name="An Caisleán Nua">
    <latitude>53.3011111</latitude>
    <longitude>-6.5022222</longitude>
  </city>
  <city name="An Caisleán Riabhach">
    <latitude>53.7666667</latitude>
    <longitude>-8.5</longitude>
  </city>
  <city name="An Caladh">
    <latitude>51.8861111</latitude>
    <longitude>-10.3616667</longitude>
  </city>
  <city name="An Caol">
    <latitude>53.9666667</latitude>
    <longitude>-10.0833333</longitude>
  </city>
  <city name="An Carraigín">
    <latitude>54.95</latitude>
    <longitude>-7.4333333</longitude>
  </city>
  <city name="An Charraig">
    <latitude>54.6575</latitude>
    <longitude>-8.6316667</longitude>
  </city>
  <city name="Án Chathair">
    <latitude>52.3769444</latitude>
    <longitude>-7.9216667</longitude>
  </city>
  <city name="An Cheapach">
    <latitude>52.5819444</latitude>
    <longitude>-8.1636111</longitude>
  </city>
  <city name="An Cheapach Mhór">
    <latitude>52.6144444</latitude>
    <longitude>-8.3355556</longitude>
  </city>
  <city name="An Cheathrú Chaol">
    <latitude>55.1333333</latitude>
    <longitude>-7.65</longitude>
  </city>
  <city name="An Cheathrú Rua">
    <latitude>53.2655556</latitude>
    <longitude>-9.5836111</longitude>
  </city>
  <city name="An Chill">
    <latitude>53.2513889</latitude>
    <longitude>-6.5916667</longitude>
  </city>
  <city name="An Chloch">
    <latitude>52.86</latitude>
    <longitude>-7.1669444</longitude>
  </city>
  <city name="An Chluaine">
    <latitude>53.95</latitude>
    <longitude>-7.7833333</longitude>
  </city>
  <city name="An Chorrchoill">
    <latitude>53.2902778</latitude>
    <longitude>-6.7538889</longitude>
  </city>
  <city name="An Chráig">
    <latitude>53.0483333</latitude>
    <longitude>-8.4002778</longitude>
  </city>
  <city name="An Chrois Dhearg">
    <latitude>52.8858333</latitude>
    <longitude>-6.1458333</longitude>
  </city>
  <city name="An Chúil">
    <latitude>53.7</latitude>
    <longitude>-7.3833333</longitude>
  </city>
  <city name="An Clochán">
    <latitude>53.4833333</latitude>
    <longitude>-10.0166667</longitude>
  </city>
  <city name="An Clochán Liath">
    <latitude>54.9511111</latitude>
    <longitude>-8.3591667</longitude>
  </city>
  <city name="An Cloichín">
    <latitude>52.2758333</latitude>
    <longitude>-7.9922222</longitude>
  </city>
  <city name="An Cloigeann">
    <latitude>53.55</latitude>
    <longitude>-10.1166667</longitude>
  </city>
  <city name="An Cnoc Rua">
    <latitude>54.1</latitude>
    <longitude>-7.3166667</longitude>
  </city>
  <city name="An Cóbh">
    <latitude>51.8572222</latitude>
    <longitude>-8.2991667</longitude>
  </city>
  <city name="An Coireán">
    <latitude>51.8333333</latitude>
    <longitude>-10.1666667</longitude>
  </city>
  <city name="An Craoslach">
    <latitude>55.1166667</latitude>
    <longitude>-7.9</longitude>
  </city>
  <city name="An Creagán">
    <latitude>53.4666667</latitude>
    <longitude>-8.5</longitude>
  </city>
  <city name="An Cromán">
    <latitude>52.1161111</latitude>
    <longitude>-9.9027778</longitude>
  </city>
  <city name="An Cruachán">
    <latitude>51.4666667</latitude>
    <longitude>-9.7166667</longitude>
  </city>
  <city name="An Daingean">
    <latitude>52.1408333</latitude>
    <longitude>-10.2688889</longitude>
  </city>
  <city name="An Droichead Nua">
    <latitude>52.6311111</latitude>
    <longitude>-6.9947222</longitude>
  </city>
  <city name="An Dúchoraidh">
    <latitude>54.9063889</latitude>
    <longitude>-8.2094444</longitude>
  </city>
  <city name="An Fál Carrach">
    <latitude>55.1333333</latitude>
    <longitude>-8.1</longitude>
  </city>
  <city name="An Fearann Fuar">
    <latitude>52.1666667</latitude>
    <longitude>-9.55</longitude>
  </city>
  <city name="An Féar Bán">
    <latitude>53.2694444</latitude>
    <longitude>-7.8269444</longitude>
  </city>
  <city name="An Fheothanach">
    <latitude>52.2161111</latitude>
    <longitude>-10.3555556</longitude>
  </city>
  <city name="An Fhiacail">
    <latitude>52.9247222</latitude>
    <longitude>-8.6452778</longitude>
  </city>
  <city name="An Fhianait">
    <latitude>52.2808333</latitude>
    <longitude>-9.8675</longitude>
  </city>
  <city name="An Gabhailín">
    <latitude>52.4977778</latitude>
    <longitude>-7.9802778</longitude>
  </city>
  <city name="An Gallbhaile">
    <latitude>52.4002778</latitude>
    <longitude>-8.2927778</longitude>
  </city>
  <city name="An Geata Bán">
    <latitude>52.9491667</latitude>
    <longitude>-8.3713889</longitude>
  </city>
  <city name="An Geata Mór">
    <latitude>54.2038889</latitude>
    <longitude>-10.0361111</longitude>
  </city>
  <city name="An Ghaobhach">
    <latitude>54.1</latitude>
    <longitude>-8.25</longitude>
  </city>
  <city name="Anghnagappall Bridge">
    <latitude>52.4719444</latitude>
    <longitude>-6.7066667</longitude>
  </city>
  <city name="An Ghráig">
    <latitude>53.0483333</latitude>
    <longitude>-8.4002778</longitude>
  </city>
  <city name="An Ghráinseach">
    <latitude>54.4</latitude>
    <longitude>-8.5166667</longitude>
  </city>
  <city name="Anghvaneen">
    <latitude>52.4519444</latitude>
    <longitude>-7.4613889</longitude>
  </city>
  <city name="An Gleann">
    <latitude>52.5702778</latitude>
    <longitude>-9.2827778</longitude>
  </city>
  <city name="An Gleann Garbh">
    <latitude>51.75</latitude>
    <longitude>-9.55</longitude>
  </city>
  <city name="An Gleann Mor">
    <latitude>52.3516667</latitude>
    <longitude>-7.025</longitude>
  </city>
  <city name="Anglesborough">
    <latitude>52.34</latitude>
    <longitude>-8.3186111</longitude>
  </city>
  <city name="Anglesey Road">
    <latitude>52.6938889</latitude>
    <longitude>-8.0313889</longitude>
  </city>
  <city name="Anglesry Bridge">
    <latitude>52.6794444</latitude>
    <longitude>-8.1625</longitude>
  </city>
  <city name="An Gort">
    <latitude>53.0663889</latitude>
    <longitude>-8.8166667</longitude>
  </city>
  <city name="An Grianfort">
    <latitude>54.0333333</latitude>
    <longitude>-6.1333333</longitude>
  </city>
  <city name="An Inis">
    <latitude>55.0702778</latitude>
    <longitude>-7.4805556</longitude>
  </city>
  <city name="An Inse">
    <latitude>53.6819444</latitude>
    <longitude>-6.2391667</longitude>
  </city>
  <city name="An Láithreach">
    <latitude>51.75</latitude>
    <longitude>-9.7666667</longitude>
  </city>
  <city name="An Laithreach">
    <latitude>53.0044444</latitude>
    <longitude>-6.2988889</longitude>
  </city>
  <city name="An Lathaigh">
    <latitude>54.6166667</latitude>
    <longitude>-8.1</longitude>
  </city>
  <city name="An Leacht">
    <latitude>52.9366667</latitude>
    <longitude>-9.3452778</longitude>
  </city>
  <city name="An Leathros">
    <latitude>54.2719444</latitude>
    <longitude>-8.5933333</longitude>
  </city>
  <city name="An Léim">
    <latitude>51.5925</latitude>
    <longitude>-9.13</longitude>
  </city>
  <city name="An Lios Breac">
    <latitude>53.7666667</latitude>
    <longitude>-7.8333333</longitude>
  </city>
  <city name="An Longfort">
    <latitude>53.7333333</latitude>
    <longitude>-7.8</longitude>
  </city>
  <city name="An Mhuirioch">
    <latitude>52.1869444</latitude>
    <longitude>-10.3638889</longitude>
  </city>
  <city name="An Móta">
    <latitude>53.3938889</latitude>
    <longitude>-7.7172222</longitude>
  </city>
  <city name="An Muileann gCearr">
    <latitude>53.5333333</latitude>
    <longitude>-7.35</longitude>
  </city>
  <city name="An Muileann Iarainn">
    <latitude>54.1947222</latitude>
    <longitude>-7.7044444</longitude>
  </city>
  <city name="An Mullach">
    <latitude>53.8130556</latitude>
    <longitude>-6.9513889</longitude>
  </city>
  <city name="Annaboty">
    <latitude>52.7375</latitude>
    <longitude>-8.4575</longitude>
  </city>
  <city name="Annacarriga">
    <latitude>52.8511111</latitude>
    <longitude>-8.5038889</longitude>
  </city>
  <city name="Annacarty">
    <latitude>52.5644444</latitude>
    <longitude>-8.1102778</longitude>
  </city>
  <city name="Annacurragh">
    <latitude>52.8388889</latitude>
    <longitude>-6.3586111</longitude>
  </city>
  <city name="Annadale">
    <latitude>54.0372222</latitude>
    <longitude>-7.9438889</longitude>
  </city>
  <city name="Annagary">
    <latitude>55.0219444</latitude>
    <longitude>-8.3177778</longitude>
  </city>
  <city name="Annagassan">
    <latitude>53.8861111</latitude>
    <longitude>-6.3444444</longitude>
  </city>
  <city name="Annagh">
    <latitude>53.4033333</latitude>
    <longitude>-9.0452778</longitude>
  </city>
  <city name="Annaghbrack">
    <latitude>53.1802778</latitude>
    <longitude>-7.5766667</longitude>
  </city>
  <city name="Annagh Bridge">
    <latitude>52.9897222</latitude>
    <longitude>-7.5672222</longitude>
  </city>
  <city name="Annaghdown">
    <latitude>53.3925</latitude>
    <longitude>-9.0663889</longitude>
  </city>
  <city name="Annaghgerry">
    <latitude>54.1675</latitude>
    <longitude>-8.1175</longitude>
  </city>
  <city name="Annaghkeenly">
    <latitude>53.9927778</latitude>
    <longitude>-7.9677778</longitude>
  </city>
  <city name="Annaghmore">
    <latitude>53.9</latitude>
    <longitude>-7.8</longitude>
  </city>
  <city name="Annaghneal Bridges">
    <latitude>52.8933333</latitude>
    <longitude>-8.6575</longitude>
  </city>
  <city name="Annaghroe Bridge">
    <latitude>54.3386111</latitude>
    <longitude>-6.8744444</longitude>
  </city>
  <city name="Annagh Upper">
    <latitude>54.1833333</latitude>
    <longitude>-8.0455556</longitude>
  </city>
  <city name="Annaghvaan">
    <latitude>53.32</latitude>
    <longitude>-9.6475</longitude>
  </city>
  <city name="Annaghvacky">
    <latitude>54.0333333</latitude>
    <longitude>-6.5472222</longitude>
  </city>
  <city name="Annagleve">
    <latitude>54.0902778</latitude>
    <longitude>-6.7611111</longitude>
  </city>
  <city name="Annagore Bridge">
    <latitude>52.7569444</latitude>
    <longitude>-8.7761111</longitude>
  </city>
  <city name="Annahatn">
    <latitude>51.8777778</latitude>
    <longitude>-9.0</longitude>
  </city>
  <city name="Annaleck">
    <latitude>52.5861111</latitude>
    <longitude>-7.0233333</longitude>
  </city>
  <city name="Annalittin">
    <latitude>54.0891667</latitude>
    <longitude>-6.6961111</longitude>
  </city>
  <city name="Annamoe">
    <latitude>53.1525</latitude>
    <longitude>-7.255</longitude>
  </city>
  <city name="An Nás">
    <latitude>53.2158333</latitude>
    <longitude>-6.6669444</longitude>
  </city>
  <city name="Annaseeragh">
    <latitude>54.2280556</latitude>
    <longitude>-6.8247222</longitude>
  </city>
  <city name="Annavalla">
    <latitude>54.1591667</latitude>
    <longitude>-6.7902778</longitude>
  </city>
  <city name="Anne's Bridge">
    <latitude>52.2094444</latitude>
    <longitude>-9.0261111</longitude>
  </city>
  <city name="Annesbrook">
    <latitude>53.8305556</latitude>
    <longitude>-6.9308333</longitude>
  </city>
  <city name="Annestown">
    <latitude>52.1380556</latitude>
    <longitude>-7.3044444</longitude>
  </city>
  <city name="Annfield">
    <latitude>53.3744444</latitude>
    <longitude>-6.4055556</longitude>
  </city>
  <city name="Annie Brady Bridge">
    <latitude>54.2705556</latitude>
    <longitude>-9.7247222</longitude>
  </city>
  <city name="Annistown">
    <latitude>51.9430556</latitude>
    <longitude>-8.0402778</longitude>
  </city>
  <city name="Anns Fort">
    <latitude>54.0333333</latitude>
    <longitude>-6.9833333</longitude>
  </city>
  <city name="An Pasáiste">
    <latitude>51.8738889</latitude>
    <longitude>-8.3444444</longitude>
  </city>
  <city name="An Port Nua">
    <latitude>52.7111111</latitude>
    <longitude>-8.4097222</longitude>
  </city>
  <city name="An Port Rua">
    <latitude>52.8825</latitude>
    <longitude>-8.3502778</longitude>
  </city>
  <city name="An Ráth Mhór">
    <latitude>52.0833333</latitude>
    <longitude>-9.2166667</longitude>
  </city>
  <city name="An Ros">
    <latitude>53.5247222</latitude>
    <longitude>-6.1097222</longitude>
  </city>
  <city name="An Scairbh">
    <latitude>52.8988889</latitude>
    <longitude>-8.5091667</longitude>
  </city>
  <city name="An Sciobairin">
    <latitude>51.55</latitude>
    <longitude>-9.2666667</longitude>
  </city>
  <city name="An Scoil">
    <latitude>51.5333333</latitude>
    <longitude>-9.5333333</longitude>
  </city>
  <city name="An Seanbhaile Mór">
    <latitude>52.2202778</latitude>
    <longitude>-8.5013889</longitude>
  </city>
  <city name="An Seanchaisleán">
    <latitude>53.7683333</latitude>
    <longitude>-7.1586111</longitude>
  </city>
  <city name="An Snaidhm">
    <latitude>51.8333333</latitude>
    <longitude>-9.9</longitude>
  </city>
  <city name="An Spidéal">
    <latitude>53.2466667</latitude>
    <longitude>-9.3027778</longitude>
  </city>
  <city name="An Sráidbhaile">
    <latitude>53.0155556</latitude>
    <longitude>-7.1527778</longitude>
  </city>
  <city name="An tAbhallort">
    <latitude>52.5036111</latitude>
    <longitude>-6.3822222</longitude>
  </city>
  <city name="An tAonach">
    <latitude>52.8619444</latitude>
    <longitude>-8.1966667</longitude>
  </city>
  <city name="An Teampall Mór">
    <latitude>52.7947222</latitude>
    <longitude>-7.8338889</longitude>
  </city>
  <city name="An tInbhear Mór">
    <latitude>52.7930556</latitude>
    <longitude>-6.1413889</longitude>
  </city>
  <city name="An Tóchar">
    <latitude>52.4133333</latitude>
    <longitude>-9.7319444</longitude>
  </city>
  <city name="An tOspidéal">
    <latitude>52.4730556</latitude>
    <longitude>-8.4305556</longitude>
  </city>
  <city name="An tSnaidhm">
    <latitude>51.8333333</latitude>
    <longitude>-9.9</longitude>
  </city>
  <city name="An tSráidbhaile">
    <latitude>52.13</latitude>
    <longitude>-7.46</longitude>
  </city>
  <city name="An Tulach">
    <latitude>52.8002778</latitude>
    <longitude>-6.7369444</longitude>
  </city>
  <city name="An Uaimh">
    <latitude>53.6527778</latitude>
    <longitude>-6.6813889</longitude>
  </city>
  <city name="An Urnaí">
    <latitude>52.7505556</latitude>
    <longitude>-6.9097222</longitude>
  </city>
  <city name="Aphort">
    <latitude>54.9763889</latitude>
    <longitude>-8.5194444</longitude>
  </city>
  <city name="Ara Bridge">
    <latitude>52.4391667</latitude>
    <longitude>-8.0366667</longitude>
  </city>
  <city name="Araglin">
    <latitude>52.2083333</latitude>
    <longitude>-8.1161111</longitude>
  </city>
  <city name="Ara North">
    <latitude>53.8541667</latitude>
    <longitude>-9.1080556</longitude>
  </city>
  <city name="Arbatt">
    <latitude>54.8783333</latitude>
    <longitude>-7.9797222</longitude>
  </city>
  <city name="Ardach">
    <latitude>52.4944444</latitude>
    <longitude>-9.0630556</longitude>
  </city>
  <city name="Ardagh">
    <latitude>54.9369444</latitude>
    <longitude>-7.5347222</longitude>
  </city>
  <city name="Ardaghy">
    <latitude>54.0838889</latitude>
    <longitude>-6.2838889</longitude>
  </city>
  <city name="Ardamore">
    <latitude>52.2030556</latitude>
    <longitude>-10.3658333</longitude>
  </city>
  <city name="Ard an Rátha">
    <latitude>54.7644444</latitude>
    <longitude>-8.4075</longitude>
  </city>
  <city name="Ardara">
    <latitude>54.7644444</latitude>
    <longitude>-8.4075</longitude>
  </city>
  <city name="Ard">
    <latitude>53.3161111</latitude>
    <longitude>-9.8783333</longitude>
  </city>
  <city name="Ardarn">
    <latitude>54.7644444</latitude>
    <longitude>-8.4075</longitude>
  </city>
  <city name="Ardattin">
    <latitude>52.7525</latitude>
    <longitude>-6.7038889</longitude>
  </city>
  <city name="Ardcahan Bridge">
    <latitude>51.7605556</latitude>
    <longitude>-9.0969444</longitude>
  </city>
  <city name="Ardcanaght">
    <latitude>52.1638889</latitude>
    <longitude>-9.7388889</longitude>
  </city>
  <city name="Ardcath">
    <latitude>53.6080556</latitude>
    <longitude>-6.3913889</longitude>
  </city>
  <city name="Ardcost">
    <latitude>51.9044444</latitude>
    <longitude>-10.2780556</longitude>
  </city>
  <city name="Ardcrony">
    <latitude>52.9322222</latitude>
    <longitude>-8.1572222</longitude>
  </city>
  <city name="Ardea">
    <latitude>51.8144444</latitude>
    <longitude>-9.7577778</longitude>
  </city>
  <city name="Ardea Bridge">
    <latitude>51.8266667</latitude>
    <longitude>-9.7425</longitude>
  </city>
  <city name="Ardee">
    <latitude>53.8597222</latitude>
    <longitude>-6.5405556</longitude>
  </city>
  <city name="Ardeen">
    <latitude>51.9366667</latitude>
    <longitude>-9.0875</longitude>
  </city>
  <city name="Ardeevin">
    <latitude>54.6911111</latitude>
    <longitude>-8.0194444</longitude>
  </city>
  <city name="Arderra">
    <latitude>52.3111111</latitude>
    <longitude>-7.2219444</longitude>
  </city>
  <city name="Arderry">
    <latitude>54.0044444</latitude>
    <longitude>-7.7325</longitude>
  </city>
  <city name="Ardfallen">
    <latitude>51.8830556</latitude>
    <longitude>-8.4477778</longitude>
  </city>
  <city name="Ardfert">
    <latitude>52.3333333</latitude>
    <longitude>-9.7833333</longitude>
  </city>
  <city name="Ard Fhearta">
    <latitude>52.3333333</latitude>
    <longitude>-9.7833333</longitude>
  </city>
  <city name="Ard Fhíonáin">
    <latitude>52.3116667</latitude>
    <longitude>-7.875</longitude>
  </city>
  <city name="Ardfield">
    <latitude>51.5666667</latitude>
    <longitude>-8.9144444</longitude>
  </city>
  <city name="Ardfinnan">
    <latitude>52.3116667</latitude>
    <longitude>-7.875</longitude>
  </city>
  <city name="Ardgehane">
    <latitude>51.6033333</latitude>
    <longitude>-8.8297222</longitude>
  </city>
  <city name="Ardgroom">
    <latitude>51.7405556</latitude>
    <longitude>-9.8955556</longitude>
  </city>
  <city name="Ardhoom">
    <latitude>53.9341667</latitude>
    <longitude>-9.0452778</longitude>
  </city>
  <city name="Ardinode">
    <latitude>53.1166667</latitude>
    <longitude>-6.6333333</longitude>
  </city>
  <city name="Ardkeeran">
    <latitude>54.0533333</latitude>
    <longitude>-8.5255556</longitude>
  </city>
  <city name="Ardled">
    <latitude>52.9797222</latitude>
    <longitude>-7.3805556</longitude>
  </city>
  <city name="Ardlona">
    <latitude>53.9475</latitude>
    <longitude>-8.3919444</longitude>
  </city>
  <city name="Ardlougher">
    <latitude>54.0619444</latitude>
    <longitude>-7.5755556</longitude>
  </city>
  <city name="Ardloy">
    <latitude>54.1005556</latitude>
    <longitude>-8.405</longitude>
  </city>
  <city name="Ardmeen">
    <latitude>54.9777778</latitude>
    <longitude>-8.26</longitude>
  </city>
  <city name="Ardmoneen">
    <latitude>54.1105556</latitude>
    <longitude>-7.8236111</longitude>
  </city>
  <city name="Ardmore">
    <latitude>55.0797222</latitude>
    <longitude>-7.2775</longitude>
  </city>
  <city name="Ardmorney">
    <latitude>53.3836111</latitude>
    <longitude>-7.4666667</longitude>
  </city>
  <city name="Ardnacrusha">
    <latitude>52.6833333</latitude>
    <longitude>-8.6166667</longitude>
  </city>
  <city name="Ardnacrushy">
    <latitude>51.9263889</latitude>
    <longitude>-9.0091667</longitude>
  </city>
  <city name="Ardnaglass">
    <latitude>54.8152778</latitude>
    <longitude>-7.5497222</longitude>
  </city>
  <city name="Ardnaglass Upper">
    <latitude>54.3791667</latitude>
    <longitude>-8.4811111</longitude>
  </city>
  <city name="Ardnagreevagh">
    <latitude>53.6047222</latitude>
    <longitude>-10.0102778</longitude>
  </city>
  <city name="Ardnaree">
    <latitude>55.0591667</latitude>
    <longitude>-7.6286111</longitude>
  </city>
  <city name="Ardnasodan">
    <latitude>53.4063889</latitude>
    <longitude>-8.8130556</longitude>
  </city>
  <city name="Ardogelly">
    <latitude>54.2533333</latitude>
    <longitude>-8.7766667</longitude>
  </city>
  <city name="Ardpatrick">
    <latitude>52.3422222</latitude>
    <longitude>-8.5266667</longitude>
  </city>
  <city name="Ardrahan">
    <latitude>53.1575</latitude>
    <longitude>-8.8058333</longitude>
  </city>
  <city name="Ardrah">
    <latitude>51.7433333</latitude>
    <longitude>-9.3483333</longitude>
  </city>
  <city name="Ard Raithin">
    <latitude>53.1575</latitude>
    <longitude>-8.8058333</longitude>
  </city>
  <city name="Ardranny">
    <latitude>53.25</latitude>
    <longitude>-8.3</longitude>
  </city>
  <city name="Ards">
    <latitude>55.0216667</latitude>
    <longitude>-7.6833333</longitude>
  </city>
  <city name="Ardsbeg">
    <latitude>55.1166667</latitude>
    <longitude>-8.15</longitude>
  </city>
  <city name="Ardscull">
    <latitude>53.0175</latitude>
    <longitude>-6.9091667</longitude>
  </city>
  <city name="Ardskeagh Cross Roads">
    <latitude>52.3338889</latitude>
    <longitude>-8.6280556</longitude>
  </city>
  <city name="Ardskea More">
    <latitude>53.4177778</latitude>
    <longitude>-8.8461111</longitude>
  </city>
  <city name="Ardsollus">
    <latitude>52.7975</latitude>
    <longitude>-8.8888889</longitude>
  </city>
  <city name="Ardsollus Bridge">
    <latitude>52.7975</latitude>
    <longitude>-8.8888889</longitude>
  </city>
  <city name="Ardtully">
    <latitude>53.9947222</latitude>
    <longitude>-6.175</longitude>
  </city>
  <city name="Ardvally">
    <latitude>54.74</latitude>
    <longitude>-8.3608333</longitude>
  </city>
  <city name="Ardy">
    <latitude>55.1166667</latitude>
    <longitude>-7.5166667</longitude>
  </city>
  <city name="Ardywanig">
    <latitude>52.1477778</latitude>
    <longitude>-9.6627778</longitude>
  </city>
  <city name="Argideen Bridge">
    <latitude>51.6611111</latitude>
    <longitude>-8.995</longitude>
  </city>
  <city name="Arigna">
    <latitude>54.0777778</latitude>
    <longitude>-8.1055556</longitude>
  </city>
  <city name="Arigna Bridge">
    <latitude>52.7269444</latitude>
    <longitude>-7.3711111</longitude>
  </city>
  <city name="Arklow">
    <latitude>52.7930556</latitude>
    <longitude>-6.1413889</longitude>
  </city>
  <city name="Arless">
    <latitude>52.9</latitude>
    <longitude>-7.0333333</longitude>
  </city>
  <city name="Ármhach">
    <latitude>53.9166667</latitude>
    <longitude>-7.5833333</longitude>
  </city>
  <city name="Arnagragh">
    <latitude>52.2166667</latitude>
    <longitude>-9.3833333</longitude>
  </city>
  <city name="Arragh More">
    <latitude>53.0558333</latitude>
    <longitude>-8.0305556</longitude>
  </city>
  <city name="Arryheernabin">
    <latitude>55.27</latitude>
    <longitude>-7.6405556</longitude>
  </city>
  <city name="Artane">
    <latitude>53.3825</latitude>
    <longitude>-6.2025</longitude>
  </city>
  <city name="Arthurstown">
    <latitude>53.2319444</latitude>
    <longitude>-6.5733333</longitude>
  </city>
  <city name="Arva">
    <latitude>53.9166667</latitude>
    <longitude>-7.5833333</longitude>
  </city>
  <city name="Arvagh">
    <latitude>53.9166667</latitude>
    <longitude>-7.5833333</longitude>
  </city>
  <city name="Ashakiltubbrid">
    <latitude>53.9333333</latitude>
    <longitude>-7.75</longitude>
  </city>
  <city name="Ashbourne">
    <latitude>53.5108333</latitude>
    <longitude>-6.4272222</longitude>
  </city>
  <city name="Ashbrook">
    <latitude>54.4744444</latitude>
    <longitude>-8.1922222</longitude>
  </city>
  <city name="Ashfield">
    <latitude>52.8897222</latitude>
    <longitude>-7.0441667</longitude>
  </city>
  <city name="Ash Field">
    <latitude>53.8591667</latitude>
    <longitude>-6.8730556</longitude>
  </city>
  <city name="Ashford">
    <latitude>52.3666667</latitude>
    <longitude>-9.0666667</longitude>
  </city>
  <city name="Ashgrove Bridge">
    <latitude>52.4666667</latitude>
    <longitude>-9.0991667</longitude>
  </city>
  <city name="Ashhill">
    <latitude>52.5977778</latitude>
    <longitude>-7.7972222</longitude>
  </city>
  <city name="Ashlane Cross Roads">
    <latitude>52.8394444</latitude>
    <longitude>-6.8597222</longitude>
  </city>
  <city name="Ashtown">
    <latitude>53.3752778</latitude>
    <longitude>-6.3305556</longitude>
  </city>
  <city name="Askamore">
    <latitude>52.6713889</latitude>
    <longitude>-6.4758333</longitude>
  </city>
  <city name="Askeaton">
    <latitude>52.5997222</latitude>
    <longitude>-8.9755556</longitude>
  </city>
  <city name="Askill">
    <latitude>54.4333333</latitude>
    <longitude>-8.1833333</longitude>
  </city>
  <city name="Askintarney">
    <latitude>52.4758333</latitude>
    <longitude>-6.7775</longitude>
  </city>
  <city name="Askintinny">
    <latitude>52.7641667</latitude>
    <longitude>-6.1516667</longitude>
  </city>
  <city name="Aspealy Bridge">
    <latitude>52.2594444</latitude>
    <longitude>-6.4552778</longitude>
  </city>
  <city name="Ass Bridge">
    <latitude>53.8694444</latitude>
    <longitude>-9.4466667</longitude>
  </city>
  <city name="Astee">
    <latitude>52.5508333</latitude>
    <longitude>-9.5605556</longitude>
  </city>
  <city name="Atadav Bridge">
    <latitude>51.7544444</latitude>
    <longitude>-9.7763889</longitude>
  </city>
  <city name="Athabatteen">
    <latitude>51.9666667</latitude>
    <longitude>-8.7833333</longitude>
  </city>
  <city name="Áth an Chláir">
    <latitude>54.0333333</latitude>
    <longitude>-8.9</longitude>
  </city>
  <city name="Áth an Chóiste">
    <latitude>51.9</latitude>
    <longitude>-8.7833333</longitude>
  </city>
  <city name="Áth an Mhuilinn">
    <latitude>52.3333333</latitude>
    <longitude>-8.85</longitude>
  </city>
  <city name="Áth an tSléibhe">
    <latitude>52.4597222</latitude>
    <longitude>-9.2894444</longitude>
  </city>
  <city name="Athboy">
    <latitude>53.6186111</latitude>
    <longitude>-6.9205556</longitude>
  </city>
  <city name="Áth Cinn">
    <latitude>53.4666667</latitude>
    <longitude>-9.1</longitude>
  </city>
  <city name="Áth Dara">
    <latitude>52.5619444</latitude>
    <longitude>-8.7955556</longitude>
  </city>
  <city name="Athdown">
    <latitude>53.1741667</latitude>
    <longitude>-6.4013889</longitude>
  </city>
  <city name="Athea">
    <latitude>52.4597222</latitude>
    <longitude>-9.2894444</longitude>
  </city>
  <city name="Áth Eascrach">
    <latitude>53.3955556</latitude>
    <longitude>-8.3294444</longitude>
  </city>
  <city name="Athenry">
    <latitude>53.2963889</latitude>
    <longitude>-8.7430556</longitude>
  </city>
  <city name="Athgarvan">
    <latitude>53.1538889</latitude>
    <longitude>-6.805</longitude>
  </city>
  <city name="Athgreany">
    <latitude>53.0711111</latitude>
    <longitude>-6.6305556</longitude>
  </city>
  <city name="Athlacca">
    <latitude>52.4569444</latitude>
    <longitude>-8.6486111</longitude>
  </city>
  <city name="Athleague">
    <latitude>53.5666667</latitude>
    <longitude>-8.25</longitude>
  </city>
  <city name="Áth Leathen">
    <latitude>52.8047222</latitude>
    <longitude>-8.6322222</longitude>
  </city>
  <city name="Áth Liag">
    <latitude>53.5666667</latitude>
    <longitude>-8.25</longitude>
  </city>
  <city name="Athlone">
    <latitude>53.4227778</latitude>
    <longitude>-7.9372222</longitude>
  </city>
  <city name="Athlunkard Bridge">
    <latitude>52.6811111</latitude>
    <longitude>-8.6097222</longitude>
  </city>
  <city name="Ath na Fuinseoige">
    <latitude>53.0083333</latitude>
    <longitude>-6.1113889</longitude>
  </city>
  <city name="Athnaleenta">
    <latitude>52.0716667</latitude>
    <longitude>-8.64</longitude>
  </city>
  <city name="Athnanangle Bridge">
    <latitude>51.9583333</latitude>
    <longitude>-8.7819444</longitude>
  </city>
  <city name="Áth na nUrlainn">
    <latitude>52.7205556</latitude>
    <longitude>-7.5825</longitude>
  </city>
  <city name="Áth na Sceire">
    <latitude>53.1925</latitude>
    <longitude>-6.1691667</longitude>
  </city>
  <city name="Áth na Sráide">
    <latitude>52.9858333</latitude>
    <longitude>-6.6777778</longitude>
  </city>
  <city name="Athnid">
    <latitude>52.7244444</latitude>
    <longitude>-7.7672222</longitude>
  </city>
  <city name="Áth Tí an Mheasaigh">
    <latitude>54.0497222</latitude>
    <longitude>-9.0827778</longitude>
  </city>
  <city name="Áth Tíomáin">
    <latitude>53.3186111</latitude>
    <longitude>-8.6063889</longitude>
  </city>
  <city name="Áth Trasna">
    <latitude>52.2166667</latitude>
    <longitude>-9.0</longitude>
  </city>
  <city name="Athy">
    <latitude>52.9913889</latitude>
    <longitude>-6.9802778</longitude>
  </city>
  <city name="Attanagh">
    <latitude>52.8361111</latitude>
    <longitude>-7.3713889</longitude>
  </city>
  <city name="Attavally">
    <latitude>54.1547222</latitude>
    <longitude>-9.76</longitude>
  </city>
  <city name="Attcoffey">
    <latitude>53.2588889</latitude>
    <longitude>-8.2369444</longitude>
  </city>
  <city name="Attimachugh">
    <latitude>54.0063889</latitude>
    <longitude>-9.0280556</longitude>
  </city>
  <city name="Attimanus">
    <latitude>53.9747222</latitude>
    <longitude>-7.9377778</longitude>
  </city>
  <city name="Attinkee">
    <latitude>53.2083333</latitude>
    <longitude>-7.9236111</longitude>
  </city>
  <city name="Attiregan">
    <latitude>53.3691667</latitude>
    <longitude>-8.4358333</longitude>
  </city>
  <city name="Attymass">
    <latitude>54.0497222</latitude>
    <longitude>-9.0827778</longitude>
  </city>
  <city name="Attymon">
    <latitude>53.3186111</latitude>
    <longitude>-8.6063889</longitude>
  </city>
  <city name="Aubawn">
    <latitude>54.0222222</latitude>
    <longitude>-7.5430556</longitude>
  </city>
  <city name="Auburn">
    <latitude>53.5</latitude>
    <longitude>-7.8166667</longitude>
  </city>
  <city name="Aucloggeen">
    <latitude>53.3944444</latitude>
    <longitude>-8.9594444</longitude>
  </city>
  <city name="Aughabrack">
    <latitude>51.6755556</latitude>
    <longitude>-9.99</longitude>
  </city>
  <city name="Aughadareen Bridge">
    <latitude>52.4416667</latitude>
    <longitude>-8.3161111</longitude>
  </city>
  <city name="Aughagault">
    <latitude>54.8655556</latitude>
    <longitude>-7.7316667</longitude>
  </city>
  <city name="Aughagault Big">
    <latitude>54.8666667</latitude>
    <longitude>-7.7333333</longitude>
  </city>
  <city name="Aughagault Little">
    <latitude>54.8666667</latitude>
    <longitude>-7.7166667</longitude>
  </city>
  <city name="Aughaglanna Bridge">
    <latitude>52.8277778</latitude>
    <longitude>-9.1677778</longitude>
  </city>
  <city name="Aughanloge Bridge">
    <latitude>52.6477778</latitude>
    <longitude>-9.3158333</longitude>
  </city>
  <city name="Aughatubbrid">
    <latitude>52.8786111</latitude>
    <longitude>-7.1822222</longitude>
  </city>
  <city name="Aughaville">
    <latitude>51.6588889</latitude>
    <longitude>-9.3433333</longitude>
  </city>
  <city name="Aughboy">
    <latitude>52.7391667</latitude>
    <longitude>-8.5402778</longitude>
  </city>
  <city name="Aughboy Bridge">
    <latitude>52.3247222</latitude>
    <longitude>-6.8855556</longitude>
  </city>
  <city name="Aughclare">
    <latitude>52.3272222</latitude>
    <longitude>-6.9252778</longitude>
  </city>
  <city name="Aughill">
    <latitude>52.1616667</latitude>
    <longitude>-9.8772222</longitude>
  </city>
  <city name="Aughils">
    <latitude>52.1616667</latitude>
    <longitude>-9.8772222</longitude>
  </city>
  <city name="Aughinish">
    <latitude>53.165</latitude>
    <longitude>-9.0794444</longitude>
  </city>
  <city name="Aughkeely">
    <latitude>54.8675</latitude>
    <longitude>-7.8105556</longitude>
  </city>
  <city name="Aughnacrow Bridge">
    <latitude>52.4880556</latitude>
    <longitude>-6.6394444</longitude>
  </city>
  <city name="Aughnagawer Cross Roads">
    <latitude>52.4655556</latitude>
    <longitude>-8.0619444</longitude>
  </city>
  <city name="Aughnagroagh Bridge">
    <latitude>52.3263889</latitude>
    <longitude>-6.6405556</longitude>
  </city>
  <city name="Aughnasheelan">
    <latitude>54.0694444</latitude>
    <longitude>-7.8611111</longitude>
  </city>
  <city name="Aughness">
    <latitude>54.0833333</latitude>
    <longitude>-9.8469444</longitude>
  </city>
  <city name="Aughnish Isle">
    <latitude>55.0519444</latitude>
    <longitude>-7.5980556</longitude>
  </city>
  <city name="Aughrim">
    <latitude>53.0102778</latitude>
    <longitude>-8.9444444</longitude>
  </city>
  <city name="Aughris">
    <latitude>54.2730556</latitude>
    <longitude>-8.7694444</longitude>
  </city>
  <city name="Aughrus More">
    <latitude>53.5466667</latitude>
    <longitude>-10.1716667</longitude>
  </city>
  <city name="Aughshemus Bridge">
    <latitude>52.1744444</latitude>
    <longitude>-7.3930556</longitude>
  </city>
  <city name="Aught Upper">
    <latitude>55.1072222</latitude>
    <longitude>-7.2522222</longitude>
  </city>
  <city name="Aurora">
    <latitude>53.19</latitude>
    <longitude>-6.2875</longitude>
  </city>
  <city name="Avoca">
    <latitude>52.8527778</latitude>
    <longitude>-6.2169444</longitude>
  </city>
  <city name="Avoncore">
    <latitude>51.9219444</latitude>
    <longitude>-8.1825</longitude>
  </city>
  <city name="Avondhu">
    <latitude>52.1316667</latitude>
    <longitude>-8.6283333</longitude>
  </city>
  <city name="Badgerisland">
    <latitude>52.9316667</latitude>
    <longitude>-7.4902778</longitude>
  </city>
  <city name="Badyke">
    <latitude>52.8838889</latitude>
    <longitude>-8.6011111</longitude>
  </city>
  <city name="Bagenalstown">
    <latitude>52.6958333</latitude>
    <longitude>-6.9897222</longitude>
  </city>
  <city name="Baggotstown">
    <latitude>52.45</latitude>
    <longitude>-8.5</longitude>
  </city>
  <city name="Bahana">
    <latitude>53.1566667</latitude>
    <longitude>-6.2041667</longitude>
  </city>
  <city name="Bahobuck">
    <latitude>53.4119444</latitude>
    <longitude>-9.0080556</longitude>
  </city>
  <city name="Baile an Bhiataigh">
    <latitude>53.7013889</latitude>
    <longitude>-6.2461111</longitude>
  </city>
  <city name="Baile an Bhuinneánaigh">
    <latitude>52.5097222</latitude>
    <longitude>-9.6716667</longitude>
  </city>
  <city name="Baile an Chaisil">
    <latitude>54.2833333</latitude>
    <longitude>-9.3666667</longitude>
  </city>
  <city name="Baile an Chaisleáin">
    <latitude>51.5263889</latitude>
    <longitude>-9.1833333</longitude>
  </city>
  <city name="Baile an Chinnéidigh">
    <latitude>53.0897222</latitude>
    <longitude>-6.1119444</longitude>
  </city>
  <city name="Baile an Chollaigh">
    <latitude>51.8833333</latitude>
    <longitude>-8.5833333</longitude>
  </city>
  <city name="Baile an Daighin">
    <latitude>53.6666667</latitude>
    <longitude>-8.9666667</longitude>
  </city>
  <city name="Baile an Doirín">
    <latitude>53.1863889</latitude>
    <longitude>-8.9063889</longitude>
  </city>
  <city name="Baile an Droichid">
    <latitude>54.8441667</latitude>
    <longitude>-7.5258333</longitude>
  </city>
  <city name="Baile an Fheirtéaraigh">
    <latitude>52.1666667</latitude>
    <longitude>-10.4166667</longitude>
  </city>
  <city name="Baile an Gharraí">
    <latitude>52.4727778</latitude>
    <longitude>-8.8638889</longitude>
  </city>
  <city name="Baile an Ghearlánaigh">
    <latitude>53.9008333</latitude>
    <longitude>-6.3902778</longitude>
  </city>
  <city name="Baile an Locha">
    <latitude>53.7333333</latitude>
    <longitude>-8.6333333</longitude>
  </city>
  <city name="Baile an Londraigh">
    <latitude>52.3725</latitude>
    <longitude>-8.3458333</longitude>
  </city>
  <city name="Baile an Mhóta">
    <latitude>54.0833333</latitude>
    <longitude>-8.5166667</longitude>
  </city>
  <city name="Baile an Mhuilinn">
    <latitude>52.1419444</latitude>
    <longitude>-10.2897222</longitude>
  </city>
  <city name="Baile an Phoill">
    <latitude>52.3533333</latitude>
    <longitude>-7.3402778</longitude>
  </city>
  <city name="Baile an Róba">
    <latitude>53.6333333</latitude>
    <longitude>-9.2333333</longitude>
  </city>
  <city name="Baile an Sceilg">
    <latitude>51.8</latitude>
    <longitude>-10.2833333</longitude>
  </city>
  <city name="Baile an Scotaigh">
    <latitude>54.2775</latitude>
    <longitude>-7.065</longitude>
  </city>
  <city name="Baile an Teampail">
    <latitude>52.2666667</latitude>
    <longitude>-8.7333333</longitude>
  </city>
  <city name="Baile an Tóchair">
    <latitude>54.2</latitude>
    <longitude>-8.3666667</longitude>
  </city>
  <city name="Baile an tSratha">
    <latitude>54.5769444</latitude>
    <longitude>-8.1197222</longitude>
  </city>
  <city name="Baile Átha an Rí">
    <latitude>53.2963889</latitude>
    <longitude>-8.7430556</longitude>
  </city>
  <city name="Baile Átha an Róine">
    <latitude>52.9455556</latitude>
    <longitude>-7.3041667</longitude>
  </city>
  <city name="Baile Átha Buí">
    <latitude>53.6186111</latitude>
    <longitude>-6.9205556</longitude>
  </city>
  <city name="Baile Átha Cliath">
    <latitude>53.3330556</latitude>
    <longitude>-6.2488889</longitude>
  </city>
  <city name="Baile Átha Fhirdhia">
    <latitude>53.8597222</latitude>
    <longitude>-6.5405556</longitude>
  </city>
  <city name="Baile Átha Í">
    <latitude>52.9913889</latitude>
    <longitude>-6.9802778</longitude>
  </city>
  <city name="Baile Átha Luain">
    <latitude>53.4333333</latitude>
    <longitude>-7.95</longitude>
  </city>
  <city name="Baile Átha Troim">
    <latitude>53.555</latitude>
    <longitude>-6.7916667</longitude>
  </city>
  <city name="Baile Bhlainséir">
    <latitude>53.3880556</latitude>
    <longitude>-6.3755556</longitude>
  </city>
  <city name="Baile Bhuirne">
    <latitude>51.9333333</latitude>
    <longitude>-9.1666667</longitude>
  </city>
  <city name="Baileborough">
    <latitude>53.9166667</latitude>
    <longitude>-6.9666667</longitude>
  </city>
  <city name="Baile Brigín">
    <latitude>53.6127778</latitude>
    <longitude>-6.1819444</longitude>
  </city>
  <city name="Baile Chaisleáin an Róistigh">
    <latitude>52.1733333</latitude>
    <longitude>-8.4625</longitude>
  </city>
  <city name="Baile Chaisleáin Bhéarra">
    <latitude>51.65</latitude>
    <longitude>-9.9166667</longitude>
  </city>
  <city name="Baile Chathail">
    <latitude>53.9641667</latitude>
    <longitude>-8.7941667</longitude>
  </city>
  <city name="Baile Chláir">
    <latitude>53.3386111</latitude>
    <longitude>-8.945</longitude>
  </city>
  <city name="Baile Choitín">
    <latitude>51.8333333</latitude>
    <longitude>-8.0161111</longitude>
  </city>
  <city name="Baile Cloch">
    <latitude>52.1666667</latitude>
    <longitude>-8.7333333</longitude>
  </city>
  <city name="Baile Coimín">
    <latitude>53.17</latitude>
    <longitude>-6.5325</longitude>
  </city>
  <city name="Baile Conaola">
    <latitude>53.4333333</latitude>
    <longitude>-10.0666667</longitude>
  </city>
  <city name="Baile Deasumhan">
    <latitude>52.1833333</latitude>
    <longitude>-9.2333333</longitude>
  </city>
  <city name="Baile Dúill">
    <latitude>53.3997222</latitude>
    <longitude>-6.1258333</longitude>
  </city>
  <city name="Baile Easa Dara">
    <latitude>54.2116667</latitude>
    <longitude>-8.5094444</longitude>
  </city>
  <city name="Baile Haicéid">
    <latitude>52.8638889</latitude>
    <longitude>-6.5569444</longitude>
  </city>
  <city name="Baile Héil">
    <latitude>52.4680556</latitude>
    <longitude>-7.1963889</longitude>
  </city>
  <city name="Baile Hiobaird">
    <latitude>52.5186111</latitude>
    <longitude>-8.4655556</longitude>
  </city>
  <city name="Baile idir dhá Abhainn">
    <latitude>54.1316667</latitude>
    <longitude>-8.3944444</longitude>
  </city>
  <city name="Baile Íomhair">
    <latitude>53.5316667</latitude>
    <longitude>-6.9611111</longitude>
  </city>
  <city name="Baile Lifín">
    <latitude>55.2833333</latitude>
    <longitude>-7.4</longitude>
  </city>
  <city name="Baile Locha Riach">
    <latitude>53.1969444</latitude>
    <longitude>-8.5669444</longitude>
  </city>
  <city name="Baile Mhic Andáin">
    <latitude>52.5266667</latitude>
    <longitude>-7.1372222</longitude>
  </city>
  <city name="Baile Mhic Gormáin">
    <latitude>53.6405556</latitude>
    <longitude>-6.2377778</longitude>
  </city>
  <city name="Baile Mhic Íre">
    <latitude>51.9333333</latitude>
    <longitude>-9.1333333</longitude>
  </city>
  <city name="Baile Mhistéala">
    <latitude>52.2658333</latitude>
    <longitude>-8.2680556</longitude>
  </city>
  <city name="Baile na Carraige">
    <latitude>53.5833333</latitude>
    <longitude>-7.5333333</longitude>
  </city>
  <city name="Baile na Coille">
    <latitude>52.8738889</latitude>
    <longitude>-7.3080556</longitude>
  </city>
  <city name="Baile na Cúirte">
    <latitude>52.6447222</latitude>
    <longitude>-6.2230556</longitude>
  </city>
  <city name="Baile na gCros">
    <latitude>53.6666667</latitude>
    <longitude>-7.3</longitude>
  </city>
  <city name="Baile na hAbhann">
    <latitude>53.2438889</latitude>
    <longitude>-9.5016667</longitude>
  </city>
  <city name="Baile na Lorgan">
    <latitude>54.1166667</latitude>
    <longitude>-6.7333333</longitude>
  </city>
  <city name="Baile na Martra">
    <latitude>51.9102778</latitude>
    <longitude>-8.0538889</longitude>
  </city>
  <city name="Baile na nGallóglach">
    <latitude>55.0880556</latitude>
    <longitude>-7.6988889</longitude>
  </city>
  <city name="Baile Nua Sheandroma">
    <latitude>52.35</latitude>
    <longitude>-8.7666667</longitude>
  </city>
  <city name="Baile Phóil">
    <latitude>52.6811111</latitude>
    <longitude>-7.0222222</longitude>
  </city>
  <city name="Baile Riobaird">
    <latitude>53.2741667</latitude>
    <longitude>-6.8177778</longitude>
  </city>
  <city name="Baile Sheáin">
    <latitude>52.7491667</latitude>
    <longitude>-7.5541667</longitude>
  </city>
  <city name="Baile Shéamais Dhuibh">
    <latitude>53.8652778</latitude>
    <longitude>-7.2027778</longitude>
  </city>
  <city name="Baile Shláine">
    <latitude>53.71</latitude>
    <longitude>-6.5433333</longitude>
  </city>
  <city name="Baile Suingean">
    <latitude>54.9333333</latitude>
    <longitude>-7.45</longitude>
  </city>
  <city name="Baile Thiar">
    <latitude>55.2652778</latitude>
    <longitude>-8.2258333</longitude>
  </city>
  <city name="Baile Thoir">
    <latitude>55.2580556</latitude>
    <longitude>-8.2061111</longitude>
  </city>
  <city name="Baile Trá">
    <latitude>53.7405556</latitude>
    <longitude>-6.2675</longitude>
  </city>
  <city name="Baile Uí Bheacháin">
    <latitude>53.1180556</latitude>
    <longitude>-9.1502778</longitude>
  </city>
  <city name="Baile Uí Bheoláin">
    <latitude>52.9305556</latitude>
    <longitude>-8.4258333</longitude>
  </city>
  <city name="Baile Uí Chonnmhaí">
    <latitude>52.6088889</latitude>
    <longitude>-6.3030556</longitude>
  </city>
  <city name="Baile Uí Fhiacháin">
    <latitude>53.8833333</latitude>
    <longitude>-9.55</longitude>
  </city>
  <city name="Baile Uí Laigheanáin">
    <latitude>52.9436111</latitude>
    <longitude>-7.0422222</longitude>
  </city>
  <city name="Baile Uí Mhatháin">
    <latitude>53.5666667</latitude>
    <longitude>-7.7666667</longitude>
  </city>
  <city name="Baile Uí Thaidhg">
    <latitude>52.3833333</latitude>
    <longitude>-9.8336111</longitude>
  </city>
  <city name="Bailieborough">
    <latitude>53.9166667</latitude>
    <longitude>-6.9666667</longitude>
  </city>
  <city name="Baingear">
    <latitude>54.1430556</latitude>
    <longitude>-9.7402778</longitude>
  </city>
  <city name="Bakers Bridge">
    <latitude>54.0616667</latitude>
    <longitude>-7.42</longitude>
  </city>
  <city name="Balana">
    <latitude>52.7405556</latitude>
    <longitude>-6.7677778</longitude>
  </city>
  <city name="Balbane">
    <latitude>54.6902778</latitude>
    <longitude>-8.445</longitude>
  </city>
  <city name="Balbriggan">
    <latitude>53.6127778</latitude>
    <longitude>-6.1819444</longitude>
  </city>
  <city name="Balcunnin">
    <latitude>53.5633333</latitude>
    <longitude>-6.1472222</longitude>
  </city>
  <city name="Balcynamoyntragh Cross Roads">
    <latitude>52.17</latitude>
    <longitude>-7.0397222</longitude>
  </city>
  <city name="Baldongan">
    <latitude>53.5572222</latitude>
    <longitude>-6.1569444</longitude>
  </city>
  <city name="Baldoyle">
    <latitude>53.3997222</latitude>
    <longitude>-6.1258333</longitude>
  </city>
  <city name="Baldwinstown">
    <latitude>53.5647222</latitude>
    <longitude>-6.3552778</longitude>
  </city>
  <city name="Balgriffin">
    <latitude>53.4094444</latitude>
    <longitude>-6.1741667</longitude>
  </city>
  <city name="Balief Cross Roads">
    <latitude>52.7247222</latitude>
    <longitude>-7.5222222</longitude>
  </city>
  <city name="Balinlig">
    <latitude>54.3772222</latitude>
    <longitude>-8.3277778</longitude>
  </city>
  <city name="Balisakeery">
    <latitude>54.1847222</latitude>
    <longitude>-9.1802778</longitude>
  </city>
  <city name="Baliynakilly">
    <latitude>52.0122222</latitude>
    <longitude>-9.9608333</longitude>
  </city>
  <city name="Ballaba">
    <latitude>53.0897222</latitude>
    <longitude>-8.7786111</longitude>
  </city>
  <city name="Balla">
    <latitude>53.8</latitude>
    <longitude>-9.1333333</longitude>
  </city>
  <city name="Balladian">
    <latitude>54.12</latitude>
    <longitude>-6.9308333</longitude>
  </city>
  <city name="Ballagan">
    <latitude>54.0052778</latitude>
    <longitude>-6.1233333</longitude>
  </city>
  <city name="Ballaghaderg Bridge">
    <latitude>52.2858333</latitude>
    <longitude>-8.2811111</longitude>
  </city>
  <city name="Ballaghaderreen">
    <latitude>53.9</latitude>
    <longitude>-8.5833333</longitude>
  </city>
  <city name="Ballaghaderren">
    <latitude>52.6952778</latitude>
    <longitude>-6.8691667</longitude>
  </city>
  <city name="Ballaghassaan">
    <latitude>53.2616667</latitude>
    <longitude>-7.1944444</longitude>
  </city>
  <city name="Ballagh">
    <latitude>52.9611111</latitude>
    <longitude>-9.2358333</longitude>
  </city>
  <city name="Ballaghboy">
    <latitude>54.0127778</latitude>
    <longitude>-8.3230556</longitude>
  </city>
  <city name="Ballagh Cross Roads">
    <latitude>53.3533333</latitude>
    <longitude>-6.7602778</longitude>
  </city>
  <city name="Ballagheloghane Cross Roads">
    <latitude>51.7658333</latitude>
    <longitude>-8.8188889</longitude>
  </city>
  <city name="Ballaghhammer Bridge">
    <latitude>51.6594444</latitude>
    <longitude>-8.9294444</longitude>
  </city>
  <city name="Ballaghkeen">
    <latitude>52.4797222</latitude>
    <longitude>-6.42</longitude>
  </city>
  <city name="Ballaghmore">
    <latitude>52.9591667</latitude>
    <longitude>-7.7263889</longitude>
  </city>
  <city name="Ballaghmore Cross Roads">
    <latitude>52.71</latitude>
    <longitude>-6.7916667</longitude>
  </city>
  <city name="Ballaghnageam">
    <latitude>53.9541667</latitude>
    <longitude>-6.8225</longitude>
  </city>
  <city name="Ballaghnatrillick">
    <latitude>54.4166667</latitude>
    <longitude>-8.3902778</longitude>
  </city>
  <city name="Ballaghnatrillick Bridge">
    <latitude>54.4033333</latitude>
    <longitude>-8.4041667</longitude>
  </city>
  <city name="Ballahantouragh">
    <latitude>52.1461111</latitude>
    <longitude>-9.3755556</longitude>
  </city>
  <city name="Ballakelly Cross Roads">
    <latitude>53.9669444</latitude>
    <longitude>-6.5716667</longitude>
  </city>
  <city name="Ballallog">
    <latitude>52.4016667</latitude>
    <longitude>-7.0569444</longitude>
  </city>
  <city name="Ballard">
    <latitude>52.2158333</latitude>
    <longitude>-8.1886111</longitude>
  </city>
  <city name="Ballardbeg">
    <latitude>53.0072222</latitude>
    <longitude>-6.1561111</longitude>
  </city>
  <city name="Ballard Cross Roads">
    <latitude>52.7447222</latitude>
    <longitude>-6.5630556</longitude>
  </city>
  <city name="Ballardiggan">
    <latitude>53.0547222</latitude>
    <longitude>-8.75</longitude>
  </city>
  <city name="Balleen Bridge">
    <latitude>52.8119444</latitude>
    <longitude>-9.1430556</longitude>
  </city>
  <city name="Balleese">
    <latitude>52.9263889</latitude>
    <longitude>-6.2091667</longitude>
  </city>
  <city name="Balliahinch">
    <latitude>53.0733333</latitude>
    <longitude>-6.1652778</longitude>
  </city>
  <city name="Balliarea Cross">
    <latitude>51.8333333</latitude>
    <longitude>-8.4119444</longitude>
  </city>
  <city name="Ballickmoyler">
    <latitude>52.8769444</latitude>
    <longitude>-7.0108333</longitude>
  </city>
  <city name="Ballina">
    <latitude>54.1166667</latitude>
    <longitude>-9.1666667</longitude>
  </city>
  <city name="Ballinaboy">
    <latitude>53.4666667</latitude>
    <longitude>-10.0166667</longitude>
  </city>
  <city name="Ballinabrackey">
    <latitude>53.42</latitude>
    <longitude>-7.1336111</longitude>
  </city>
  <city name="Ballinaclash">
    <latitude>52.8997222</latitude>
    <longitude>-6.2613889</longitude>
  </city>
  <city name="Ballinaclogh">
    <latitude>52.9594444</latitude>
    <longitude>-6.0988889</longitude>
  </city>
  <city name="Ballinaconbeg">
    <latitude>53.0386111</latitude>
    <longitude>-6.2463889</longitude>
  </city>
  <city name="Ballinacor">
    <latitude>52.9083333</latitude>
    <longitude>-6.1411111</longitude>
  </city>
  <city name="Ballinacorbeg">
    <latitude>53.0386111</latitude>
    <longitude>-6.2463889</longitude>
  </city>
  <city name="Ballinacourty">
    <latitude>52.085</latitude>
    <longitude>-7.5669444</longitude>
  </city>
  <city name="Ballinacurra">
    <latitude>51.8961111</latitude>
    <longitude>-8.165</longitude>
  </city>
  <city name="Ballinadee">
    <latitude>51.7127778</latitude>
    <longitude>-8.6344444</longitude>
  </city>
  <city name="Ballinafad">
    <latitude>53.7333333</latitude>
    <longitude>-8.0833333</longitude>
  </city>
  <city name="Ballinafunshoge">
    <latitude>52.9716667</latitude>
    <longitude>-6.3925</longitude>
  </city>
  <city name="Ballinagam Cross Roads">
    <latitude>52.5836111</latitude>
    <longitude>-6.2269444</longitude>
  </city>
  <city name="Ballinagar">
    <latitude>53.2644444</latitude>
    <longitude>-7.335</longitude>
  </city>
  <city name="Ballinagee Bridge">
    <latitude>53.0594444</latitude>
    <longitude>-6.4566667</longitude>
  </city>
  <city name="Ballinageeragh">
    <latitude>54.1052778</latitude>
    <longitude>-7.2086111</longitude>
  </city>
  <city name="Ballinagh">
    <latitude>53.9333333</latitude>
    <longitude>-7.4166667</longitude>
  </city>
  <city name="Ballinaglera">
    <latitude>54.1569444</latitude>
    <longitude>-8.005</longitude>
  </city>
  <city name="Ballinagleragh">
    <latitude>54.1569444</latitude>
    <longitude>-8.005</longitude>
  </city>
  <city name="Ballinagore">
    <latitude>52.8052778</latitude>
    <longitude>-6.2969444</longitude>
  </city>
  <city name="Ballinakill">
    <latitude>52.8738889</latitude>
    <longitude>-7.3080556</longitude>
  </city>
  <city name="Ballinalack">
    <latitude>53.6166667</latitude>
    <longitude>-7.4666667</longitude>
  </city>
  <city name="Ballinalea">
    <latitude>53.0030556</latitude>
    <longitude>-6.1088889</longitude>
  </city>
  <city name="Ballinalee">
    <latitude>53.7666667</latitude>
    <longitude>-7.6333333</longitude>
  </city>
  <city name="Ballinaleucra">
    <latitude>52.2027778</latitude>
    <longitude>-8.1080556</longitude>
  </city>
  <city name="Ballinameen">
    <latitude>53.9</latitude>
    <longitude>-8.3</longitude>
  </city>
  <city name="Ballinamore">
    <latitude>53.4833333</latitude>
    <longitude>-8.3666667</longitude>
  </city>
  <city name="Ballinamore Bridge">
    <latitude>53.4833333</latitude>
    <longitude>-8.3666667</longitude>
  </city>
  <city name="Ballinamuck">
    <latitude>53.8666667</latitude>
    <longitude>-7.7166667</longitude>
  </city>
  <city name="Ballinamult">
    <latitude>52.2111111</latitude>
    <longitude>-7.7366667</longitude>
  </city>
  <city name="Ballinapark">
    <latitude>54.3108333</latitude>
    <longitude>-9.5705556</longitude>
  </city>
  <city name="Ballinard Cross">
    <latitude>52.4905556</latitude>
    <longitude>-8.2686111</longitude>
  </city>
  <city name="Ballinascarthy">
    <latitude>51.6722222</latitude>
    <longitude>-8.9052778</longitude>
  </city>
  <city name="Ballinascarty">
    <latitude>51.6722222</latitude>
    <longitude>-8.9052778</longitude>
  </city>
  <city name="Ballinasloe">
    <latitude>53.3275</latitude>
    <longitude>-8.2194444</longitude>
  </city>
  <city name="Ballinaspig">
    <latitude>51.8772222</latitude>
    <longitude>-8.5352778</longitude>
  </city>
  <city name="Ballinclashet">
    <latitude>51.7183333</latitude>
    <longitude>-8.4516667</longitude>
  </city>
  <city name="Ballincloher">
    <latitude>52.3888889</latitude>
    <longitude>-9.685</longitude>
  </city>
  <city name="Ballincloher Cross Roads">
    <latitude>52.3888889</latitude>
    <longitude>-9.685</longitude>
  </city>
  <city name="Ballincollig">
    <latitude>51.8833333</latitude>
    <longitude>-8.5833333</longitude>
  </city>
  <city name="Ballincor">
    <latitude>53.0205556</latitude>
    <longitude>-7.9416667</longitude>
  </city>
  <city name="Ballincourlea">
    <latitude>51.8822222</latitude>
    <longitude>-8.0205556</longitude>
  </city>
  <city name="Ballincrea">
    <latitude>52.3183333</latitude>
    <longitude>-7.0880556</longitude>
  </city>
  <city name="Ballincrick">
    <latitude>54.8655556</latitude>
    <longitude>-8.3622222</longitude>
  </city>
  <city name="Ballincrossig Cross Roads">
    <latitude>52.4166667</latitude>
    <longitude>-9.6875</longitude>
  </city>
  <city name="Ballincur">
    <latitude>53.2769444</latitude>
    <longitude>-7.6619444</longitude>
  </city>
  <city name="Ballincurra">
    <latitude>52.3</latitude>
    <longitude>-7.2283333</longitude>
  </city>
  <city name="Ballincurra Bridge">
    <latitude>52.3933333</latitude>
    <longitude>-8.5022222</longitude>
  </city>
  <city name="Ballincurrig">
    <latitude>51.9872222</latitude>
    <longitude>-8.2277778</longitude>
  </city>
  <city name="Ballincurry">
    <latitude>52.5847222</latitude>
    <longitude>-7.6036111</longitude>
  </city>
  <city name="Ballindaggan">
    <latitude>52.565</latitude>
    <longitude>-6.6741667</longitude>
  </city>
  <city name="Ballindangan">
    <latitude>52.2344444</latitude>
    <longitude>-8.3316667</longitude>
  </city>
  <city name="Ballindeenisk Cross Roads">
    <latitude>51.9936111</latitude>
    <longitude>-8.3947222</longitude>
  </city>
  <city name="Ballinderreen">
    <latitude>53.1863889</latitude>
    <longitude>-8.9063889</longitude>
  </city>
  <city name="Ballinderry">
    <latitude>53.0205556</latitude>
    <longitude>-8.2219444</longitude>
  </city>
  <city name="Ballindillanig">
    <latitude>52.2761111</latitude>
    <longitude>-8.7175</longitude>
  </city>
  <city name="Ballindine">
    <latitude>53.6666667</latitude>
    <longitude>-8.9666667</longitude>
  </city>
  <city name="Ballindooly">
    <latitude>53.3122222</latitude>
    <longitude>-9.0219444</longitude>
  </city>
  <city name="Ballindrait">
    <latitude>54.8441667</latitude>
    <longitude>-7.5258333</longitude>
  </city>
  <city name="Ballindrum">
    <latitude>53.0161111</latitude>
    <longitude>-6.8894444</longitude>
  </city>
  <city name="Ballinduff">
    <latitude>53.125</latitude>
    <longitude>-8.8063889</longitude>
  </city>
  <city name="Ballineadig">
    <latitude>51.8855556</latitude>
    <longitude>-8.7097222</longitude>
  </city>
  <city name="Ballineanig">
    <latitude>52.1625</latitude>
    <longitude>-10.3936111</longitude>
  </city>
  <city name="Ballineen">
    <latitude>51.7369444</latitude>
    <longitude>-8.9569444</longitude>
  </city>
  <city name="Ballinfoyle">
    <latitude>52.9508333</latitude>
    <longitude>-6.5308333</longitude>
  </city>
  <city name="Ballinfulla">
    <latitude>53.1575</latitude>
    <longitude>-7.5919444</longitude>
  </city>
  <city name="Ballingaddy South">
    <latitude>52.3794444</latitude>
    <longitude>-8.5613889</longitude>
  </city>
  <city name="Ballingarrane">
    <latitude>52.5486111</latitude>
    <longitude>-8.9369444</longitude>
  </city>
  <city name="Ballingarry">
    <latitude>51.7455556</latitude>
    <longitude>-8.4397222</longitude>
  </city>
  <city name="Ballingarry Bridge">
    <latitude>52.5933333</latitude>
    <longitude>-7.5625</longitude>
  </city>
  <city name="Ballingary">
    <latitude>52.4727778</latitude>
    <longitude>-8.8638889</longitude>
  </city>
  <city name="Ballingate Bridge">
    <latitude>52.7166667</latitude>
    <longitude>-6.5516667</longitude>
  </city>
  <city name="Ballingeary">
    <latitude>51.85</latitude>
    <longitude>-9.2333333</longitude>
  </city>
  <city name="Ballinglanna">
    <latitude>51.9161111</latitude>
    <longitude>-8.3866667</longitude>
  </city>
  <city name="Ballinglen">
    <latitude>54.2575</latitude>
    <longitude>-9.3844444</longitude>
  </city>
  <city name="Ballingrane">
    <latitude>52.5486111</latitude>
    <longitude>-8.9369444</longitude>
  </city>
  <city name="Ballinguile">
    <latitude>52.9211111</latitude>
    <longitude>-6.5122222</longitude>
  </city>
  <city name="Ballingurteen">
    <latitude>51.6666667</latitude>
    <longitude>-9.0166667</longitude>
  </city>
  <city name="Ballinhassig">
    <latitude>51.8141667</latitude>
    <longitude>-8.5369444</longitude>
  </city>
  <city name="Ballinillann">
    <latitude>53.2486111</latitude>
    <longitude>-8.8422222</longitude>
  </city>
  <city name="Ballinkillin">
    <latitude>52.6491667</latitude>
    <longitude>-6.9272222</longitude>
  </city>
  <city name="Ballinknockane">
    <latitude>52.2352778</latitude>
    <longitude>-10.3005556</longitude>
  </city>
  <city name="Ballinla">
    <latitude>52.2922222</latitude>
    <longitude>-8.8555556</longitude>
  </city>
  <city name="Ballinlaght">
    <latitude>54.9213889</latitude>
    <longitude>-7.9208333</longitude>
  </city>
  <city name="Ballinleeny">
    <latitude>52.4536111</latitude>
    <longitude>-8.7430556</longitude>
  </city>
  <city name="Ballinlegane Cross Roads">
    <latitude>51.9872222</latitude>
    <longitude>-8.3622222</longitude>
  </city>
  <city name="Ballinlena">
    <latitude>54.2713889</latitude>
    <longitude>-9.2255556</longitude>
  </city>
  <city name="Ballinloghig">
    <latitude>52.2022222</latitude>
    <longitude>-10.3075</longitude>
  </city>
  <city name="Ballinlough">
    <latitude>53.0666667</latitude>
    <longitude>-8.45</longitude>
  </city>
  <city name="Ballinlug">
    <latitude>53.1605556</latitude>
    <longitude>-8.2241667</longitude>
  </city>
  <city name="Ballinluggaun">
    <latitude>53.2472222</latitude>
    <longitude>-9.4177778</longitude>
  </city>
  <city name="Ballinluska">
    <latitude>51.7897222</latitude>
    <longitude>-8.2941667</longitude>
  </city>
  <city name="Ballinorig">
    <latitude>52.2725</latitude>
    <longitude>-9.6619444</longitude>
  </city>
  <city name="Ballinoroher">
    <latitude>51.6466667</latitude>
    <longitude>-8.8347222</longitude>
  </city>
  <city name="Ballinphull">
    <latitude>54.1091667</latitude>
    <longitude>-8.3161111</longitude>
  </city>
  <city name="Ballin Prior">
    <latitude>52.35</latitude>
    <longitude>-9.8166667</longitude>
  </city>
  <city name="Ballinrally">
    <latitude>52.9961111</latitude>
    <longitude>-7.6394444</longitude>
  </city>
  <city name="Ballinrannig">
    <latitude>52.175</latitude>
    <longitude>-10.4091667</longitude>
  </city>
  <city name="Ballinrobe">
    <latitude>53.6333333</latitude>
    <longitude>-9.2333333</longitude>
  </city>
  <city name="Ballinrolla">
    <latitude>52.1686111</latitude>
    <longitude>-10.4452778</longitude>
  </city>
  <city name="Ballinrostig">
    <latitude>51.8208333</latitude>
    <longitude>-8.1844444</longitude>
  </city>
  <city name="Ballinruan">
    <latitude>52.9530556</latitude>
    <longitude>-8.8261111</longitude>
  </city>
  <city name="Ballinruan Cross Roads">
    <latitude>52.2069444</latitude>
    <longitude>-6.8908333</longitude>
  </city>
  <city name="Ballinskelligs">
    <latitude>51.8</latitude>
    <longitude>-10.2833333</longitude>
  </city>
  <city name="Ballinspittle">
    <latitude>51.6677778</latitude>
    <longitude>-8.6002778</longitude>
  </city>
  <city name="Ballintaggart">
    <latitude>52.9383333</latitude>
    <longitude>-7.6802778</longitude>
  </city>
  <city name="Ballintaylor">
    <latitude>52.0791667</latitude>
    <longitude>-7.7391667</longitude>
  </city>
  <city name="Ballintaylor Lower">
    <latitude>52.0791667</latitude>
    <longitude>-7.7391667</longitude>
  </city>
  <city name="Ballinteemore">
    <latitude>53.2394444</latitude>
    <longitude>-9.4238889</longitude>
  </city>
  <city name="Ballinteer">
    <latitude>53.2827778</latitude>
    <longitude>-6.2708333</longitude>
  </city>
  <city name="Ballintemple">
    <latitude>51.8930556</latitude>
    <longitude>-8.4352778</longitude>
  </city>
  <city name="Ballinteskin">
    <latitude>52.9883333</latitude>
    <longitude>-7.1541667</longitude>
  </city>
  <city name="Ballinteskin Cross Roads">
    <latitude>52.9425</latitude>
    <longitude>-6.075</longitude>
  </city>
  <city name="Ballintlea">
    <latitude>52.9905556</latitude>
    <longitude>-7.1225</longitude>
  </city>
  <city name="Ballintlea Bridge">
    <latitude>52.2672222</latitude>
    <longitude>-8.51</longitude>
  </city>
  <city name="Ballintober">
    <latitude>53.7166667</latitude>
    <longitude>-8.4166667</longitude>
  </city>
  <city name="Ballintogher">
    <latitude>54.2</latitude>
    <longitude>-8.3666667</longitude>
  </city>
  <city name="Ballintombay">
    <latitude>52.9166667</latitude>
    <longitude>-6.2833333</longitude>
  </city>
  <city name="Ballintonbay">
    <latitude>52.9166667</latitude>
    <longitude>-6.2833333</longitude>
  </city>
  <city name="Ballintotes">
    <latitude>51.9075</latitude>
    <longitude>-8.0991667</longitude>
  </city>
  <city name="Ballintra">
    <latitude>54.5769444</latitude>
    <longitude>-8.1197222</longitude>
  </city>
  <city name="Ballintroohan">
    <latitude>55.2563889</latitude>
    <longitude>-7.0255556</longitude>
  </city>
  <city name="Ballintubber">
    <latitude>53.7333333</latitude>
    <longitude>-9.3</longitude>
  </city>
  <city name="Ballintubbert">
    <latitude>52.9813889</latitude>
    <longitude>-7.0894444</longitude>
  </city>
  <city name="Ballinunty">
    <latitude>52.5902778</latitude>
    <longitude>-7.665</longitude>
  </city>
  <city name="Ballinure">
    <latitude>51.8888889</latitude>
    <longitude>-8.4041667</longitude>
  </city>
  <city name="Ballinville">
    <latitude>53.8763889</latitude>
    <longitude>-9.2497222</longitude>
  </city>
  <city name="Ballinvinny North">
    <latitude>51.9805556</latitude>
    <longitude>-8.3758333</longitude>
  </city>
  <city name="Ballinvinny South">
    <latitude>51.9633333</latitude>
    <longitude>-8.3816667</longitude>
  </city>
  <city name="Ballinvreena">
    <latitude>52.3961111</latitude>
    <longitude>-8.4255556</longitude>
  </city>
  <city name="Ballinvronig">
    <latitude>51.6825</latitude>
    <longitude>-8.6488889</longitude>
  </city>
  <city name="Ballinvuskig">
    <latitude>52.1019444</latitude>
    <longitude>-8.6019444</longitude>
  </city>
  <city name="Ballinwillin">
    <latitude>52.0375</latitude>
    <longitude>-8.2569444</longitude>
  </city>
  <city name="Ballinwing">
    <latitude>53.9941667</latitude>
    <longitude>-8.0319444</longitude>
  </city>
  <city name="Balliny">
    <latitude>53.0861111</latitude>
    <longitude>-9.2852778</longitude>
  </city>
  <city name="Ballisk">
    <latitude>53.49</latitude>
    <longitude>-6.1488889</longitude>
  </city>
  <city name="Ballitore">
    <latitude>53.0069444</latitude>
    <longitude>-6.8194444</longitude>
  </city>
  <city name="Ballivor">
    <latitude>53.5316667</latitude>
    <longitude>-6.9611111</longitude>
  </city>
  <city name="Balloghure">
    <latitude>54.5561111</latitude>
    <longitude>-8.1391667</longitude>
  </city>
  <city name="Ballon">
    <latitude>52.7405556</latitude>
    <longitude>-6.7677778</longitude>
  </city>
  <city name="Balloor">
    <latitude>55.2686111</latitude>
    <longitude>-7.6525</longitude>
  </city>
  <city name="Ballough">
    <latitude>53.5352778</latitude>
    <longitude>-6.1963889</longitude>
  </city>
  <city name="Balloughter">
    <latitude>52.6166667</latitude>
    <longitude>-6.3577778</longitude>
  </city>
  <city name="Ballsbridge">
    <latitude>53.3302778</latitude>
    <longitude>-6.2305556</longitude>
  </city>
  <city name="Ballure">
    <latitude>54.5252778</latitude>
    <longitude>-8.2341667</longitude>
  </city>
  <city name="Ballyadam">
    <latitude>53.0361111</latitude>
    <longitude>-6.8913889</longitude>
  </city>
  <city name="Ballyadam Cross Roads">
    <latitude>52.1566667</latitude>
    <longitude>-7.2352778</longitude>
  </city>
  <city name="Ballyadams">
    <latitude>52.9641667</latitude>
    <longitude>-7.0816667</longitude>
  </city>
  <city name="Ballyagran">
    <latitude>52.4013889</latitude>
    <longitude>-8.7858333</longitude>
  </city>
  <city name="Ballyandreen">
    <latitude>51.8216667</latitude>
    <longitude>-8.0522222</longitude>
  </city>
  <city name="Ballyandrew Cross Roads">
    <latitude>52.6255556</latitude>
    <longitude>-6.5222222</longitude>
  </city>
  <city name="Ballyanne">
    <latitude>52.4252778</latitude>
    <longitude>-6.9155556</longitude>
  </city>
  <city name="Ballyard Cross Roads">
    <latitude>52.0327778</latitude>
    <longitude>-8.1986111</longitude>
  </city>
  <city name="Ballyargus">
    <latitude>55.1666667</latitude>
    <longitude>-7.1666667</longitude>
  </city>
  <city name="Ballyarrell">
    <latitude>54.7908333</latitude>
    <longitude>-7.6575</longitude>
  </city>
  <city name="Ballyartello Bridge">
    <latitude>52.9011111</latitude>
    <longitude>-8.2361111</longitude>
  </city>
  <city name="Ballybaan">
    <latitude>53.2861111</latitude>
    <longitude>-9.0075</longitude>
  </city>
  <city name="Ballybackagh">
    <latitude>53.3341667</latitude>
    <longitude>-8.8147222</longitude>
  </city>
  <city name="Ballybane">
    <latitude>55.25</latitude>
    <longitude>-7.0055556</longitude>
  </city>
  <city name="Ballybarney">
    <latitude>53.0594444</latitude>
    <longitude>-6.8244444</longitude>
  </city>
  <city name="Ballybaun">
    <latitude>53.4191667</latitude>
    <longitude>-8.3716667</longitude>
  </city>
  <city name="Ballybawn">
    <latitude>54.9905556</latitude>
    <longitude>-7.5869444</longitude>
  </city>
  <city name="Ballybay">
    <latitude>54.1261111</latitude>
    <longitude>-6.9005556</longitude>
  </city>
  <city name="Ballybay Cross Roads">
    <latitude>54.0211111</latitude>
    <longitude>-6.7830556</longitude>
  </city>
  <city name="Ballybeg">
    <latitude>54.3180556</latitude>
    <longitude>-8.5416667</longitude>
  </city>
  <city name="Ballybeg Cross Roads">
    <latitude>52.2575</latitude>
    <longitude>-9.6208333</longitude>
  </city>
  <city name="Ballybegly">
    <latitude>54.9905556</latitude>
    <longitude>-7.5869444</longitude>
  </city>
  <city name="Ballybinaby">
    <latitude>54.0502778</latitude>
    <longitude>-6.5313889</longitude>
  </city>
  <city name="Ballybit Cross Roads">
    <latitude>52.8483333</latitude>
    <longitude>-6.7094444</longitude>
  </city>
  <city name="Ballyboden">
    <latitude>53.2805556</latitude>
    <longitude>-6.3163889</longitude>
  </city>
  <city name="Ballyboe">
    <latitude>55.11</latitude>
    <longitude>-7.6602778</longitude>
  </city>
  <city name="Ballybofey">
    <latitude>54.8</latitude>
    <longitude>-7.7833333</longitude>
  </city>
  <city name="Ballyboggan">
    <latitude>53.3144444</latitude>
    <longitude>-8.6802778</longitude>
  </city>
  <city name="Ballyboggan Bridge">
    <latitude>53.4113889</latitude>
    <longitude>-7.0419444</longitude>
  </city>
  <city name="Ballyboghil">
    <latitude>53.5252778</latitude>
    <longitude>-6.2625</longitude>
  </city>
  <city name="Ballyboghill">
    <latitude>53.5252778</latitude>
    <longitude>-6.2625</longitude>
  </city>
  <city name="Ballyboughal">
    <latitude>53.5252778</latitude>
    <longitude>-6.2625</longitude>
  </city>
  <city name="Ballyboy">
    <latitude>53.1730556</latitude>
    <longitude>-7.6961111</longitude>
  </city>
  <city name="Ballyboyle">
    <latitude>54.6416667</latitude>
    <longitude>-8.1441667</longitude>
  </city>
  <city name="Ballybrack">
    <latitude>51.4991667</latitude>
    <longitude>-9.6130556</longitude>
  </city>
  <city name="Ballybraher">
    <latitude>51.8352778</latitude>
    <longitude>-8.0361111</longitude>
  </city>
  <city name="Ballybraid">
    <latitude>52.9702778</latitude>
    <longitude>-6.3427778</longitude>
  </city>
  <city name="Ballybranagan">
    <latitude>51.8116667</latitude>
    <longitude>-8.1466667</longitude>
  </city>
  <city name="Ballybranagh">
    <latitude>54.0886111</latitude>
    <longitude>-9.3877778</longitude>
  </city>
  <city name="Ballybrew">
    <latitude>53.2033333</latitude>
    <longitude>-6.1994444</longitude>
  </city>
  <city name="Ballybrin">
    <latitude>53.005</latitude>
    <longitude>-7.7963889</longitude>
  </city>
  <city name="Ballybrit">
    <latitude>53.2969444</latitude>
    <longitude>-8.9936111</longitude>
  </city>
  <city name="Ballybrittan">
    <latitude>53.3433333</latitude>
    <longitude>-7.1355556</longitude>
  </city>
  <city name="Ballybrittas">
    <latitude>53.1094444</latitude>
    <longitude>-7.1375</longitude>
  </city>
  <city name="Ballybrood">
    <latitude>52.5597222</latitude>
    <longitude>-8.4463889</longitude>
  </city>
  <city name="Ballybrophy">
    <latitude>52.8994444</latitude>
    <longitude>-7.6025</longitude>
  </city>
  <city name="Ballybrophy Junction">
    <latitude>52.8994444</latitude>
    <longitude>-7.6025</longitude>
  </city>
  <city name="Ballybrowney Mountain">
    <latitude>52.0788889</latitude>
    <longitude>-8.3405556</longitude>
  </city>
  <city name="Ballybryan">
    <latitude>53.3591667</latitude>
    <longitude>-7.1488889</longitude>
  </city>
  <city name="Ballybuck">
    <latitude>53.1075</latitude>
    <longitude>-8.9030556</longitude>
  </city>
  <city name="Ballybun">
    <latitude>54.7811111</latitude>
    <longitude>-7.6102778</longitude>
  </city>
  <city name="Ballybunnion">
    <latitude>52.5097222</latitude>
    <longitude>-9.6716667</longitude>
  </city>
  <city name="Ballycahall">
    <latitude>52.8275</latitude>
    <longitude>-7.8177778</longitude>
  </city>
  <city name="Ballycahill">
    <latitude>52.6894444</latitude>
    <longitude>-7.9047222</longitude>
  </city>
  <city name="Ballycallan">
    <latitude>52.6222222</latitude>
    <longitude>-7.3630556</longitude>
  </city>
  <city name="Ballycanew">
    <latitude>52.6088889</latitude>
    <longitude>-6.3030556</longitude>
  </city>
  <city name="Ballycapple">
    <latitude>52.9</latitude>
    <longitude>-6.1333333</longitude>
  </city>
  <city name="Ballycarick Bridge">
    <latitude>52.7363889</latitude>
    <longitude>-9.0608333</longitude>
  </city>
  <city name="Ballycarnan">
    <latitude>52.9983333</latitude>
    <longitude>-7.3038889</longitude>
  </city>
  <city name="Ballycarney">
    <latitude>52.5805556</latitude>
    <longitude>-6.5680556</longitude>
  </city>
  <city name="Ballycarra">
    <latitude>53.8</latitude>
    <longitude>-9.2166667</longitude>
  </city>
  <city name="Ballycashin">
    <latitude>52.2238889</latitude>
    <longitude>-7.1658333</longitude>
  </city>
  <city name="Ballycastle">
    <latitude>54.2833333</latitude>
    <longitude>-9.3666667</longitude>
  </city>
  <city name="Ballyclare Bridge">
    <latitude>53.1813889</latitude>
    <longitude>-7.4225</longitude>
  </city>
  <city name="Ballyclerahan">
    <latitude>52.4147222</latitude>
    <longitude>-7.7702778</longitude>
  </city>
  <city name="Ballyclery">
    <latitude>53.1552778</latitude>
    <longitude>-8.91</longitude>
  </city>
  <city name="Ballyclider">
    <latitude>53.0338889</latitude>
    <longitude>-7.2572222</longitude>
  </city>
  <city name="Ballyclogh">
    <latitude>52.1666667</latitude>
    <longitude>-8.7333333</longitude>
  </city>
  <city name="Ballycolla">
    <latitude>52.8827778</latitude>
    <longitude>-7.4472222</longitude>
  </city>
  <city name="Ballycollin">
    <latitude>53.1611111</latitude>
    <longitude>-7.7208333</longitude>
  </city>
  <city name="Ballycommon">
    <latitude>53.2936111</latitude>
    <longitude>-7.3633333</longitude>
  </city>
  <city name="Ballyconneely">
    <latitude>53.4333333</latitude>
    <longitude>-10.0666667</longitude>
  </city>
  <city name="Ballyconnel">
    <latitude>54.3630556</latitude>
    <longitude>-8.6516667</longitude>
  </city>
  <city name="Ballyconnell">
    <latitude>54.1166667</latitude>
    <longitude>-7.5833333</longitude>
  </city>
  <city name="Ballyconra">
    <latitude>52.8038889</latitude>
    <longitude>-7.3536111</longitude>
  </city>
  <city name="Ballyconry">
    <latitude>53.1216667</latitude>
    <longitude>-9.1819444</longitude>
  </city>
  <city name="Ballycoolan">
    <latitude>52.9755556</latitude>
    <longitude>-7.1586111</longitude>
  </city>
  <city name="Ballycorden">
    <latitude>53.4097222</latitude>
    <longitude>-6.3680556</longitude>
  </city>
  <city name="Ballycorus">
    <latitude>53.2322222</latitude>
    <longitude>-6.1672222</longitude>
  </city>
  <city name="Ballycottin">
    <latitude>51.8333333</latitude>
    <longitude>-8.0161111</longitude>
  </city>
  <city name="Ballycotton">
    <latitude>51.8333333</latitude>
    <longitude>-8.0161111</longitude>
  </city>
  <city name="Ballycowan Bridge">
    <latitude>53.2752778</latitude>
    <longitude>-7.5522222</longitude>
  </city>
  <city name="Ballycoyle">
    <latitude>53.1819444</latitude>
    <longitude>-6.2686111</longitude>
  </city>
  <city name="Ballycramey">
    <latitude>55.3116667</latitude>
    <longitude>-7.3116667</longitude>
  </city>
  <city name="Ballycrinnigan">
    <latitude>52.5052778</latitude>
    <longitude>-6.8761111</longitude>
  </city>
  <city name="Ballycrissan">
    <latitude>53.1466667</latitude>
    <longitude>-8.1936111</longitude>
  </city>
  <city name="Ballycrissane">
    <latitude>53.1466667</latitude>
    <longitude>-8.1936111</longitude>
  </city>
  <city name="Ballycroneen">
    <latitude>51.8083333</latitude>
    <longitude>-8.1083333</longitude>
  </city>
  <city name="Ballycrossal">
    <latitude>53.1219444</latitude>
    <longitude>-7.2336111</longitude>
  </city>
  <city name="Ballycrossaon">
    <latitude>53.1466667</latitude>
    <longitude>-8.1936111</longitude>
  </city>
  <city name="Ballycrossaun">
    <latitude>53.1466667</latitude>
    <longitude>-8.1936111</longitude>
  </city>
  <city name="Ballycrovane">
    <latitude>51.7166667</latitude>
    <longitude>-9.95</longitude>
  </city>
  <city name="Ballycroy">
    <latitude>54.0236111</latitude>
    <longitude>-9.8263889</longitude>
  </city>
  <city name="Ballycuddahy">
    <latitude>52.9197222</latitude>
    <longitude>-7.4747222</longitude>
  </city>
  <city name="Ballycullane">
    <latitude>52.9858333</latitude>
    <longitude>-6.9158333</longitude>
  </city>
  <city name="Ballycullen">
    <latitude>53.0038889</latitude>
    <longitude>-6.2005556</longitude>
  </city>
  <city name="Ballycumber">
    <latitude>53.3244444</latitude>
    <longitude>-7.6827778</longitude>
  </city>
  <city name="Ballycurragh Bridge">
    <latitude>52.8841667</latitude>
    <longitude>-6.4041667</longitude>
  </city>
  <city name="Ballycurrane">
    <latitude>52.0133333</latitude>
    <longitude>-7.78</longitude>
  </city>
  <city name="Ballycurrane Cross Roads">
    <latitude>52.0080556</latitude>
    <longitude>-7.7741667</longitude>
  </city>
  <city name="Ballycurreen South">
    <latitude>52.0138889</latitude>
    <longitude>-7.595</longitude>
  </city>
  <city name="Ballycurrin">
    <latitude>52.3961111</latitude>
    <longitude>-7.0425</longitude>
  </city>
  <city name="Ballydagan">
    <latitude>53.345</latitude>
    <longitude>-8.09</longitude>
  </city>
  <city name="Ballydague">
    <latitude>52.1291667</latitude>
    <longitude>-8.4516667</longitude>
  </city>
  <city name="Ballydaly">
    <latitude>53.2775</latitude>
    <longitude>-7.7766667</longitude>
  </city>
  <city name="Ballydane">
    <latitude>52.65</latitude>
    <longitude>-6.25</longitude>
  </city>
  <city name="Ballydangan">
    <latitude>53.345</latitude>
    <longitude>-8.09</longitude>
  </city>
  <city name="Ballydavid">
    <latitude>53.2013889</latitude>
    <longitude>-8.4672222</longitude>
  </city>
  <city name="Ballydavis">
    <latitude>53.0472222</latitude>
    <longitude>-7.2455556</longitude>
  </city>
  <city name="Ballydehob">
    <latitude>51.55</latitude>
    <longitude>-9.4666667</longitude>
  </city>
  <city name="Ballyderlan">
    <latitude>54.6041667</latitude>
    <longitude>-8.3791667</longitude>
  </city>
  <city name="Ballydesmond">
    <latitude>52.1833333</latitude>
    <longitude>-9.2333333</longitude>
  </city>
  <city name="Ballydevill">
    <latitude>54.6694444</latitude>
    <longitude>-8.1455556</longitude>
  </city>
  <city name="Ballydine">
    <latitude>52.3666667</latitude>
    <longitude>-7.5094444</longitude>
  </city>
