<?xml version="1.0" encoding="UTF-8"?>
<country code="it" name="Italie">
  <city name="Abadia a Isola">
    <latitude>43.383333</latitude>
    <longitude>11.2</longitude>
  </city>
  <city name="Abano">
    <latitude>45.35</latitude>
    <longitude>11.783333</longitude>
  </city>
  <city name="Abano Terme">
    <latitude>45.35</latitude>
    <longitude>11.783333</longitude>
  </city>
  <city name="Abatemarco">
    <latitude>40.133333</latitude>
    <longitude>15.35</longitude>
  </city>
  <city name="Abbadia">
    <latitude>43.216667</latitude>
    <longitude>13.4</longitude>
  </city>
  <city name="Abbadia a Isola">
    <latitude>43.383333</latitude>
    <longitude>11.2</longitude>
  </city>
  <city name="Abbadia di Fiastra">
    <latitude>43.216667</latitude>
    <longitude>13.4</longitude>
  </city>
  <city name="Abbadia di Stura">
    <latitude>45.1</latitude>
    <longitude>7.716667</longitude>
  </city>
  <city name="Abbadia Lariana">
    <latitude>45.9</latitude>
    <longitude>9.333333</longitude>
  </city>
  <city name="Abbadia San Salvadore">
    <latitude>42.883333</latitude>
    <longitude>11.683333</longitude>
  </city>
  <city name="Abbadia San Salvatore">
    <latitude>42.883333</latitude>
    <longitude>11.683333</longitude>
  </city>
  <city name="Abbadia Stura">
    <latitude>45.1</latitude>
    <longitude>7.716667</longitude>
  </city>
  <city name="Abbasanta">
    <latitude>40.133333</latitude>
    <longitude>8.816667</longitude>
  </city>
  <city name="Abbateggio">
    <latitude>42.216667</latitude>
    <longitude>14.0</longitude>
  </city>
  <city name="Abbazia">
    <latitude>45.033333</latitude>
    <longitude>6.833333</longitude>
  </city>
  <city name="Abbazia di Pomposa">
    <latitude>44.834722</latitude>
    <longitude>12.182778</longitude>
  </city>
  <city name="Abbazia di Santa Maria in Selva">
    <latitude>43.316667</latitude>
    <longitude>13.4</longitude>
  </city>
  <city name="Abbazia Pisani">
    <latitude>45.6</latitude>
    <longitude>11.85</longitude>
  </city>
  <city name="Abbaziz">
    <latitude>45.033333</latitude>
    <longitude>6.833333</longitude>
  </city>
  <city name="Abbiategrasso">
    <latitude>45.4</latitude>
    <longitude>8.9</longitude>
  </city>
  <city name="Aberstückl">
    <latitude>46.766667</latitude>
    <longitude>11.366667</longitude>
  </city>
  <city name="Abetemozzo">
    <latitude>42.633333</latitude>
    <longitude>13.55</longitude>
  </city>
  <city name="Abetito">
    <latitude>42.85</latitude>
    <longitude>13.366667</longitude>
  </city>
  <city name="Abeto">
    <latitude>44.1</latitude>
    <longitude>11.716667</longitude>
  </city>
  <city name="Abetone">
    <latitude>44.133333</latitude>
    <longitude>10.666667</longitude>
  </city>
  <city name="Abriola">
    <latitude>40.5</latitude>
    <longitude>15.816667</longitude>
  </city>
  <city name="Acaia">
    <latitude>40.333333</latitude>
    <longitude>18.283333</longitude>
  </city>
  <city name="Acaja">
    <latitude>40.333333</latitude>
    <longitude>18.283333</longitude>
  </city>
  <city name="Acate">
    <latitude>37.033333</latitude>
    <longitude>14.466667</longitude>
  </city>
  <city name="Accadia">
    <latitude>41.166667</latitude>
    <longitude>15.333333</longitude>
  </city>
  <city name="Acceglio">
    <latitude>44.466667</latitude>
    <longitude>7.0</longitude>
  </city>
  <city name="Accettura">
    <latitude>40.483333</latitude>
    <longitude>16.15</longitude>
  </city>
  <city name="Acciano">
    <latitude>42.166667</latitude>
    <longitude>13.716667</longitude>
  </city>
  <city name="Acciarella">
    <latitude>41.45</latitude>
    <longitude>12.75</longitude>
  </city>
  <city name="Acciaroli">
    <latitude>40.183333</latitude>
    <longitude>15.016667</longitude>
  </city>
  <city name="Accio">
    <latitude>40.883333</latitude>
    <longitude>15.816667</longitude>
  </city>
  <city name="Accumoli">
    <latitude>42.7</latitude>
    <longitude>13.25</longitude>
  </city>
  <city name="Acera">
    <latitude>42.816667</latitude>
    <longitude>12.833333</longitude>
  </city>
  <city name="Acerenza">
    <latitude>40.8</latitude>
    <longitude>15.933333</longitude>
  </city>
  <city name="Acereto">
    <latitude>46.916667</latitude>
    <longitude>11.966667</longitude>
  </city>
  <city name="Acerno">
    <latitude>40.733333</latitude>
    <longitude>15.05</longitude>
  </city>
  <city name="Acerra">
    <latitude>40.95</latitude>
    <longitude>14.366667</longitude>
  </city>
  <city name="Aci Bonaccorsi">
    <latitude>37.6</latitude>
    <longitude>15.116667</longitude>
  </city>
  <city name="Aci Buonaccorsi">
    <latitude>37.6</latitude>
    <longitude>15.116667</longitude>
  </city>
  <city name="Aci Castello">
    <latitude>37.55</latitude>
    <longitude>15.133333</longitude>
  </city>
  <city name="Aci Catena">
    <latitude>37.6</latitude>
    <longitude>15.133333</longitude>
  </city>
  <city name="Acilia">
    <latitude>41.783333</latitude>
    <longitude>12.366667</longitude>
  </city>
  <city name="Acireale">
    <latitude>37.616667</latitude>
    <longitude>15.166667</longitude>
  </city>
  <city name="Aci Sant'Antonio">
    <latitude>37.6</latitude>
    <longitude>15.116667</longitude>
  </city>
  <city name="Acone">
    <latitude>37.983333</latitude>
    <longitude>15.8</longitude>
  </city>
  <city name="Acqua">
    <latitude>44.416667</latitude>
    <longitude>9.25</longitude>
  </city>
  <city name="Acquabona">
    <latitude>44.35</latitude>
    <longitude>10.3</longitude>
  </city>
  <city name="Acquacadda">
    <latitude>39.169722</latitude>
    <longitude>8.748333</longitude>
  </city>
  <city name="Acquacalda">
    <latitude>38.516667</latitude>
    <longitude>14.95</longitude>
  </city>
  <city name="Acquadene">
    <latitude>46.566667</latitude>
    <longitude>10.783333</longitude>
  </city>
  <city name="Acqua di Santa Domenica">
    <latitude>39.9</latitude>
    <longitude>16.0</longitude>
  </city>
  <city name="Acquafondata">
    <latitude>41.55</latitude>
    <longitude>13.95</longitude>
  </city>
  <city name="Acquaformosa">
    <latitude>39.716667</latitude>
    <longitude>16.083333</longitude>
  </city>
  <city name="Acquafredda">
    <latitude>40.033333</latitude>
    <longitude>15.666667</longitude>
  </city>
  <city name="Acquaiura">
    <latitude>42.683333</latitude>
    <longitude>12.733333</longitude>
  </city>
  <city name="Acqualacastagna">
    <latitude>42.65</latitude>
    <longitude>12.716667</longitude>
  </city>
  <city name="Acqualadrone">
    <latitude>38.3</latitude>
    <longitude>15.55</longitude>
  </city>
  <city name="Acqualagna">
    <latitude>43.616667</latitude>
    <longitude>12.666667</longitude>
  </city>
  <city name="Acqua Loreto">
    <latitude>42.733333</latitude>
    <longitude>12.333333</longitude>
  </city>
  <city name="Acqualunga">
    <latitude>45.316667</latitude>
    <longitude>9.95</longitude>
  </city>
  <city name="Acqua Marzo">
    <latitude>45.099167</latitude>
    <longitude>12.139444</longitude>
  </city>
  <city name="Acquanegra">
    <latitude>45.133333</latitude>
    <longitude>9.883333</longitude>
  </city>
  <city name="Acquanegra Cremonese">
    <latitude>45.133333</latitude>
    <longitude>9.883333</longitude>
  </city>
  <city name="Acquanegra sul Chiese">
    <latitude>45.166667</latitude>
    <longitude>10.433333</longitude>
  </city>
  <city name="Acquapendente">
    <latitude>42.733333</latitude>
    <longitude>11.866667</longitude>
  </city>
  <city name="Acquappesa">
    <latitude>39.483333</latitude>
    <longitude>15.95</longitude>
  </city>
  <city name="Acquaratola">
    <latitude>42.7</latitude>
    <longitude>13.566667</longitude>
  </city>
  <city name="Acquarica">
    <latitude>39.9</latitude>
    <longitude>18.25</longitude>
  </city>
  <city name="Acquarica del Capo">
    <latitude>39.9</latitude>
    <longitude>18.25</longitude>
  </city>
  <city name="Acquarica di Lecce">
    <latitude>40.3</latitude>
    <longitude>18.316667</longitude>
  </city>
  <city name="Acquaro">
    <latitude>38.283333</latitude>
    <longitude>15.9</longitude>
  </city>
  <city name="Acquarone">
    <latitude>38.3</latitude>
    <longitude>15.55</longitude>
  </city>
  <city name="Acqua Santa">
    <latitude>40.95</latitude>
    <longitude>15.583333</longitude>
  </city>
  <city name="Acquasanta">
    <latitude>42.766667</latitude>
    <longitude>13.4</longitude>
  </city>
  <city name="Acquasanta Terme">
    <latitude>42.766667</latitude>
    <longitude>13.4</longitude>
  </city>
  <city name="Acquasparta">
    <latitude>42.683333</latitude>
    <longitude>12.55</longitude>
  </city>
  <city name="Acquatina">
    <latitude>43.3</latitude>
    <longitude>12.916667</longitude>
  </city>
  <city name="Acquavella">
    <latitude>40.216667</latitude>
    <longitude>15.116667</longitude>
  </city>
  <city name="Acquavena">
    <latitude>40.083333</latitude>
    <longitude>15.45</longitude>
  </city>
  <city name="Acquaviva">
    <latitude>43.116667</latitude>
    <longitude>11.85</longitude>
  </city>
  <city name="Acquaviva Collecroce">
    <latitude>41.866667</latitude>
    <longitude>14.75</longitude>
  </city>
  <city name="Acquaviva delle Fonti">
    <latitude>40.9</latitude>
    <longitude>16.833333</longitude>
  </city>
  <city name="Acquaviva d'Isernia">
    <latitude>41.666667</latitude>
    <longitude>14.15</longitude>
  </city>
  <city name="Acquaviva Picena">
    <latitude>42.933333</latitude>
    <longitude>13.8</longitude>
  </city>
  <city name="Acquaviva Platani">
    <latitude>37.566667</latitude>
    <longitude>13.7</longitude>
  </city>
  <city name="Acque Acidule di Rabbi">
    <latitude>46.4</latitude>
    <longitude>10.8</longitude>
  </city>
  <city name="Acque Albule">
    <latitude>41.95</latitude>
    <longitude>12.716667</longitude>
  </city>
  <city name="Acque Albule Bagni">
    <latitude>41.95</latitude>
    <longitude>12.716667</longitude>
  </city>
  <city name="Acque Dolci">
    <latitude>38.05</latitude>
    <longitude>14.583333</longitude>
  </city>
  <city name="Acquevive">
    <latitude>41.633333</latitude>
    <longitude>14.433333</longitude>
  </city>
  <city name="Acqui">
    <latitude>44.683333</latitude>
    <longitude>8.466667</longitude>
  </city>
  <city name="Acqui Città">
    <latitude>44.683333</latitude>
    <longitude>8.466667</longitude>
  </city>
  <city name="Acqui Terme">
    <latitude>44.683333</latitude>
    <longitude>8.466667</longitude>
  </city>
  <city name="Acquosi">
    <latitude>43.25</latitude>
    <longitude>13.05</longitude>
  </city>
  <city name="Acri">
    <latitude>39.483333</latitude>
    <longitude>16.383333</longitude>
  </city>
  <city name="Acrifoglio">
    <latitude>39.133333</latitude>
    <longitude>16.333333</longitude>
  </city>
  <city name="Acuto">
    <latitude>41.783333</latitude>
    <longitude>13.166667</longitude>
  </city>
  <city name="Adami">
    <latitude>39.066667</latitude>
    <longitude>16.333333</longitude>
  </city>
  <city name="Adegliacco">
    <latitude>46.116667</latitude>
    <longitude>13.242778</longitude>
  </city>
  <city name="Adelano">
    <latitude>44.35</latitude>
    <longitude>10.733333</longitude>
  </city>
  <city name="Adelfia">
    <latitude>41.0</latitude>
    <longitude>16.866667</longitude>
  </city>
  <city name="Adernó">
    <latitude>37.666667</latitude>
    <longitude>14.833333</longitude>
  </city>
  <city name="Adrano">
    <latitude>37.666667</latitude>
    <longitude>14.833333</longitude>
  </city>
  <city name="Adria">
    <latitude>45.733333</latitude>
    <longitude>13.516667</longitude>
  </city>
  <city name="Adro">
    <latitude>45.616667</latitude>
    <longitude>9.95</longitude>
  </city>
  <city name="Advise">
    <latitude>45.716667</latitude>
    <longitude>7.133333</longitude>
  </city>
  <city name="Affi">
    <latitude>45.55</latitude>
    <longitude>10.766667</longitude>
  </city>
  <city name="Affile">
    <latitude>41.883333</latitude>
    <longitude>13.1</longitude>
  </city>
  <city name="Afragola">
    <latitude>40.916667</latitude>
    <longitude>14.3</longitude>
  </city>
  <city name="Africo">
    <latitude>38.066667</latitude>
    <longitude>15.983333</longitude>
  </city>
  <city name="Agaggio Inferiore">
    <latitude>43.966667</latitude>
    <longitude>7.816667</longitude>
  </city>
  <city name="Agaggio Superiore">
    <latitude>43.966667</latitude>
    <longitude>7.816667</longitude>
  </city>
  <city name="Agaro">
    <latitude>46.216667</latitude>
    <longitude>8.2</longitude>
  </city>
  <city name="Agazzano">
    <latitude>44.95</latitude>
    <longitude>9.516667</longitude>
  </city>
  <city name="Agelli">
    <latitude>42.833333</latitude>
    <longitude>13.416667</longitude>
  </city>
  <city name="Agello">
    <latitude>43.066667</latitude>
    <longitude>12.233333</longitude>
  </city>
  <city name="Ageno">
    <latitude>44.373333</latitude>
    <longitude>9.130833</longitude>
  </city>
  <city name="Agenzia Valpelina">
    <latitude>45.666667</latitude>
    <longitude>13.0</longitude>
  </city>
  <city name="Agerola">
    <latitude>40.633333</latitude>
    <longitude>14.533333</longitude>
  </city>
  <city name="Aggio">
    <latitude>44.466667</latitude>
    <longitude>9.0</longitude>
  </city>
  <city name="Aggius">
    <latitude>40.933333</latitude>
    <longitude>9.066667</longitude>
  </city>
  <city name="Agguliaro">
    <latitude>45.316667</latitude>
    <longitude>11.583333</longitude>
  </city>
  <city name="Aghezzola">
    <latitude>44.083333</latitude>
    <longitude>11.5</longitude>
  </city>
  <city name="Agira">
    <latitude>37.65</latitude>
    <longitude>14.516667</longitude>
  </city>
  <city name="Agliana">
    <latitude>43.9</latitude>
    <longitude>11.0</longitude>
  </city>
  <city name="Agliano">
    <latitude>42.866667</latitude>
    <longitude>12.866667</longitude>
  </city>
  <city name="Agliè">
    <latitude>45.366667</latitude>
    <longitude>7.766667</longitude>
  </city>
  <city name="Aglientu">
    <latitude>41.083333</latitude>
    <longitude>9.1</longitude>
  </city>
  <city name="Agna">
    <latitude>44.483333</latitude>
    <longitude>10.116667</longitude>
  </city>
  <city name="Agnadello">
    <latitude>45.45</latitude>
    <longitude>9.55</longitude>
  </city>
  <city name="Agnana">
    <latitude>38.3</latitude>
    <longitude>16.233333</longitude>
  </city>
  <city name="Agnana Calabra">
    <latitude>38.3</latitude>
    <longitude>16.233333</longitude>
  </city>
  <city name="Agnano">
    <latitude>43.416667</latitude>
    <longitude>10.733333</longitude>
  </city>
  <city name="Agnino">
    <latitude>44.25</latitude>
    <longitude>10.083333</longitude>
  </city>
  <city name="Agnolo">
    <latitude>45.0</latitude>
    <longitude>11.15</longitude>
  </city>
  <city name="Agnone">
    <latitude>41.8</latitude>
    <longitude>14.366667</longitude>
  </city>
  <city name="Agnova">
    <latitude>42.65</latitude>
    <longitude>13.5</longitude>
  </city>
  <city name="Agognate">
    <latitude>45.466667</latitude>
    <longitude>8.583333</longitude>
  </city>
  <city name="Agordo">
    <latitude>46.285556</latitude>
    <longitude>12.0375</longitude>
  </city>
  <city name="Agosta">
    <latitude>41.983333</latitude>
    <longitude>13.033333</longitude>
  </city>
  <city name="Agrano">
    <latitude>45.85</latitude>
    <longitude>8.416667</longitude>
  </city>
  <city name="Agrate">
    <latitude>45.566667</latitude>
    <longitude>9.35</longitude>
  </city>
  <city name="Agrate Brianza">
    <latitude>45.566667</latitude>
    <longitude>9.35</longitude>
  </city>
  <city name="Agriano">
    <latitude>42.75</latitude>
    <longitude>13.016667</longitude>
  </city>
  <city name="Agrifoglio">
    <latitude>39.133333</latitude>
    <longitude>16.333333</longitude>
  </city>
  <city name="Agrigento">
    <latitude>37.316667</latitude>
    <longitude>13.566667</longitude>
  </city>
  <city name="Agrimonte">
    <latitude>44.466667</latitude>
    <longitude>10.066667</longitude>
  </city>
  <city name="Agro">
    <latitude>46.216667</latitude>
    <longitude>8.2</longitude>
  </city>
  <city name="Agro Fuori">
    <latitude>46.216667</latitude>
    <longitude>8.2</longitude>
  </city>
  <city name="Agrons">
    <latitude>46.471111</latitude>
    <longitude>12.859722</longitude>
  </city>
  <city name="Agropoli">
    <latitude>40.35</latitude>
    <longitude>14.983333</longitude>
  </city>
  <city name="Agrosa">
    <latitude>46.116667</latitude>
    <longitude>8.133333</longitude>
  </city>
  <city name="Aguarone">
    <latitude>38.3</latitude>
    <longitude>15.55</longitude>
  </city>
  <city name="Agugliano">
    <latitude>43.533333</latitude>
    <longitude>13.383333</longitude>
  </city>
  <city name="Agugliaro">
    <latitude>45.316667</latitude>
    <longitude>11.583333</longitude>
  </city>
  <city name="Aguiaro">
    <latitude>45.0</latitude>
    <longitude>11.9</longitude>
  </city>
  <city name="Agumes">
    <latitude>46.616667</latitude>
    <longitude>10.583333</longitude>
  </city>
  <city name="Agums">
    <latitude>46.616667</latitude>
    <longitude>10.583333</longitude>
  </city>
  <city name="Aguzzo">
    <latitude>42.483333</latitude>
    <longitude>12.616667</longitude>
  </city>
  <city name="Aia Bosco">
    <latitude>44.733333</latitude>
    <longitude>11.5</longitude>
  </city>
  <city name="Aia Murata">
    <latitude>43.55</latitude>
    <longitude>11.05</longitude>
  </city>
  <city name="Aia Salina">
    <latitude>44.6</latitude>
    <longitude>11.7</longitude>
  </city>
  <city name="Aidomaggiore">
    <latitude>40.166667</latitude>
    <longitude>8.85</longitude>
  </city>
  <city name="Aidone">
    <latitude>37.416667</latitude>
    <longitude>14.45</longitude>
  </city>
  <city name="Aie">
    <latitude>44.783333</latitude>
    <longitude>8.433333</longitude>
  </city>
  <city name="Aielli">
    <latitude>42.066667</latitude>
    <longitude>13.583333</longitude>
  </city>
  <city name="Aiello">
    <latitude>42.583333</latitude>
    <longitude>13.5</longitude>
  </city>
  <city name="Aiello Calabro">
    <latitude>39.116667</latitude>
    <longitude>16.166667</longitude>
  </city>
  <city name="Aiello del Friuli">
    <latitude>45.871667</latitude>
    <longitude>13.365556</longitude>
  </city>
  <city name="Aiello del Sabato">
    <latitude>40.883333</latitude>
    <longitude>14.816667</longitude>
  </city>
  <city name="Aieta">
    <latitude>39.916667</latitude>
    <longitude>15.816667</longitude>
  </city>
  <city name="Aigovo">
    <latitude>43.966667</latitude>
    <longitude>7.8</longitude>
  </city>
  <city name="Ailano">
    <latitude>41.383333</latitude>
    <longitude>14.2</longitude>
  </city>
  <city name="Ailoche">
    <latitude>45.7</latitude>
    <longitude>8.216667</longitude>
  </city>
  <city name="Aiola">
    <latitude>43.433333</latitude>
    <longitude>11.35</longitude>
  </city>
  <city name="Airasca">
    <latitude>44.916667</latitude>
    <longitude>7.483333</longitude>
  </city>
  <city name="Airola">
    <latitude>41.066667</latitude>
    <longitude>14.55</longitude>
  </city>
  <city name="Airole">
    <latitude>43.866667</latitude>
    <longitude>7.55</longitude>
  </city>
  <city name="Airuno">
    <latitude>45.75</latitude>
    <longitude>9.416667</longitude>
  </city>
  <city name="Ajeta">
    <latitude>39.916667</latitude>
    <longitude>15.816667</longitude>
  </city>
  <city name="Ala">
    <latitude>45.316667</latitude>
    <longitude>7.316667</longitude>
  </city>
  <city name="Alà dei Sardi">
    <latitude>40.65</latitude>
    <longitude>9.333333</longitude>
  </city>
  <city name="Ala di Stura">
    <latitude>45.316667</latitude>
    <longitude>7.316667</longitude>
  </city>
  <city name="Alagna">
    <latitude>45.166667</latitude>
    <longitude>8.883333</longitude>
  </city>
  <city name="Alagna Valsesia">
    <latitude>45.85</latitude>
    <longitude>7.933333</longitude>
  </city>
  <city name="Alagua">
    <latitude>46.2</latitude>
    <longitude>8.333333</longitude>
  </city>
  <city name="Alanno">
    <latitude>42.3</latitude>
    <longitude>13.966667</longitude>
  </city>
  <city name="Alassio">
    <latitude>44.0</latitude>
    <longitude>8.166667</longitude>
  </city>
  <city name="Alatri">
    <latitude>41.716667</latitude>
    <longitude>13.35</longitude>
  </city>
  <city name="Alba">
    <latitude>44.7</latitude>
    <longitude>8.033333</longitude>
  </city>
  <city name="Albacina">
    <latitude>43.35</latitude>
    <longitude>13.016667</longitude>
  </city>
  <city name="Albagiara">
    <latitude>39.786944</latitude>
    <longitude>8.864444</longitude>
  </city>
  <city name="Albana">
    <latitude>46.055833</latitude>
    <longitude>13.491389</longitude>
  </city>
  <city name="Albanella">
    <latitude>40.5</latitude>
    <longitude>15.133333</longitude>
  </city>
  <city name="Albaneto">
    <latitude>42.533333</latitude>
    <longitude>13.033333</longitude>
  </city>
  <city name="Albano">
    <latitude>41.733333</latitude>
    <longitude>12.65</longitude>
  </city>
  <city name="Albano di Lucania">
    <latitude>40.583333</latitude>
    <longitude>16.033333</longitude>
  </city>
  <city name="Albano Laziale">
    <latitude>41.733333</latitude>
    <longitude>12.65</longitude>
  </city>
  <city name="Albano Sant'Alessandro">
    <latitude>45.683333</latitude>
    <longitude>9.766667</longitude>
  </city>
  <city name="Albano Vercellese">
    <latitude>45.433333</latitude>
    <longitude>8.383333</longitude>
  </city>
  <city name="Albarea">
    <latitude>44.833333</latitude>
    <longitude>11.783333</longitude>
  </city>
  <city name="Albaredo">
    <latitude>45.083333</latitude>
    <longitude>9.25</longitude>
  </city>
  <city name="Albaredo d'Adige">
    <latitude>45.316667</latitude>
    <longitude>11.266667</longitude>
  </city>
  <city name="Albaredo per San Marco">
    <latitude>46.1</latitude>
    <longitude>9.583333</longitude>
  </city>
  <city name="Albareto">
    <latitude>44.45</latitude>
    <longitude>9.7</longitude>
  </city>
  <city name="Albareto di Borgo Val di Taro">
    <latitude>44.45</latitude>
    <longitude>9.7</longitude>
  </city>
  <city name="Albareto di Val di Taro">
    <latitude>44.45</latitude>
    <longitude>9.7</longitude>
  </city>
  <city name="Albaron di Sea">
    <latitude>45.333333</latitude>
    <longitude>7.183333</longitude>
  </city>
  <city name="Albate">
    <latitude>45.783333</latitude>
    <longitude>9.116667</longitude>
  </city>
  <city name="Albe">
    <latitude>42.066667</latitude>
    <longitude>13.4</longitude>
  </city>
  <city name="Albemga">
    <latitude>44.05</latitude>
    <longitude>8.216667</longitude>
  </city>
  <city name="Albenga">
    <latitude>44.05</latitude>
    <longitude>8.216667</longitude>
  </city>
  <city name="Alberazzi">
    <latitude>45.0</latitude>
    <longitude>11.516667</longitude>
  </city>
  <city name="Alberazzo">
    <latitude>44.933333</latitude>
    <longitude>12.283333</longitude>
  </city>
  <city name="Alberese">
    <latitude>42.666667</latitude>
    <longitude>11.1</longitude>
  </city>
  <city name="Albereto di Borgotaro">
    <latitude>44.45</latitude>
    <longitude>9.7</longitude>
  </city>
  <city name="Albergo">
    <latitude>39.066667</latitude>
    <longitude>16.55</longitude>
  </city>
  <city name="Albergo Corteraso">
    <latitude>46.75</latitude>
    <longitude>10.766667</longitude>
  </city>
  <city name="Albergo del Ghertele">
    <latitude>45.933333</latitude>
    <longitude>11.433333</longitude>
  </city>
  <city name="Albergo della Posta">
    <latitude>46.533333</latitude>
    <longitude>10.583333</longitude>
  </city>
  <city name="Albergo Maso Corto">
    <latitude>46.75</latitude>
    <longitude>10.766667</longitude>
  </city>
  <city name="Albergo Monte Ranere">
    <latitude>45.95</latitude>
    <longitude>11.283333</longitude>
  </city>
  <city name="Albergo Monte Rovere">
    <latitude>45.95</latitude>
    <longitude>11.283333</longitude>
  </city>
  <city name="Alberica">
    <latitude>44.916667</latitude>
    <longitude>11.033333</longitude>
  </city>
  <city name="Albero">
    <latitude>44.033333</latitude>
    <longitude>11.616667</longitude>
  </city>
  <city name="Alberobello">
    <latitude>40.783333</latitude>
    <longitude>17.266667</longitude>
  </city>
  <city name="Alberona">
    <latitude>41.433333</latitude>
    <longitude>15.116667</longitude>
  </city>
  <city name="Alberone">
    <latitude>45.756667</latitude>
    <longitude>13.508889</longitude>
  </city>
  <city name="Alberoni">
    <latitude>45.756667</latitude>
    <longitude>13.508889</longitude>
  </city>
  <city name="Albes">
    <latitude>46.683333</latitude>
    <longitude>11.633333</longitude>
  </city>
  <city name="Albettone">
    <latitude>45.35</latitude>
    <longitude>11.583333</longitude>
  </city>
  <city name="Albi">
    <latitude>39.016667</latitude>
    <longitude>16.6</longitude>
  </city>
  <city name="Albiano">
    <latitude>44.166667</latitude>
    <longitude>9.916667</longitude>
  </city>
  <city name="Albiano d'Ivrea">
    <latitude>45.45</latitude>
    <longitude>7.95</longitude>
  </city>
  <city name="Albiate">
    <latitude>45.65</latitude>
    <longitude>9.25</longitude>
  </city>
  <city name="Albidona">
    <latitude>39.916667</latitude>
    <longitude>16.466667</longitude>
  </city>
  <city name="Albignano">
    <latitude>45.5</latitude>
    <longitude>9.483333</longitude>
  </city>
  <city name="Albignasego">
    <latitude>45.35</latitude>
    <longitude>11.866667</longitude>
  </city>
  <city name="Albina">
    <latitude>45.832778</latitude>
    <longitude>12.467222</longitude>
  </city>
  <city name="Albinea">
    <latitude>44.616667</latitude>
    <longitude>10.6</longitude>
  </city>
  <city name="Albino">
    <latitude>45.766667</latitude>
    <longitude>9.783333</longitude>
  </city>
  <city name="Albisano">
    <latitude>45.6</latitude>
    <longitude>10.7</longitude>
  </city>
  <city name="Albisola Marina">
    <latitude>44.316667</latitude>
    <longitude>8.5</longitude>
  </city>
  <city name="Albissola Marina">
    <latitude>44.316667</latitude>
    <longitude>8.5</longitude>
  </city>
  <city name="Albizzate">
    <latitude>45.733333</latitude>
    <longitude>8.8</longitude>
  </city>
  <city name="Albonese">
    <latitude>45.3</latitude>
    <longitude>8.7</longitude>
  </city>
  <city name="Albonico">
    <latitude>46.2</latitude>
    <longitude>9.416667</longitude>
  </city>
  <city name="Albuzzano">
    <latitude>45.183333</latitude>
    <longitude>9.266667</longitude>
  </city>
  <city name="Alcamo">
    <latitude>37.983333</latitude>
    <longitude>12.966667</longitude>
  </city>
  <city name="Alcara">
    <latitude>38.016667</latitude>
    <longitude>14.7</longitude>
  </city>
  <city name="Alcara li Fusi">
    <latitude>38.016667</latitude>
    <longitude>14.7</longitude>
  </city>
  <city name="Alcheda">
    <latitude>46.1975</latitude>
    <longitude>12.590833</longitude>
  </city>
  <city name="Aldegheri">
    <latitude>45.6</latitude>
    <longitude>11.166667</longitude>
  </city>
  <city name="Aldeno">
    <latitude>45.966667</latitude>
    <longitude>11.083333</longitude>
  </city>
  <city name="Aldina Seconda">
    <latitude>44.216667</latitude>
    <longitude>12.316667</longitude>
  </city>
  <city name="Ales">
    <latitude>39.770833</latitude>
    <longitude>8.815</longitude>
  </city>
  <city name="Alessándria">
    <latitude>39.95</latitude>
    <longitude>16.383333</longitude>
  </city>
  <city name="Alessandria">
    <latitude>44.9</latitude>
    <longitude>8.616667</longitude>
  </city>
  <city name="Alessandria del Carretto">
    <latitude>39.95</latitude>
    <longitude>16.383333</longitude>
  </city>
  <city name="Alessandria della Rocca">
    <latitude>37.566667</latitude>
    <longitude>13.45</longitude>
  </city>
  <city name="Alessano">
    <latitude>39.883333</latitude>
    <longitude>18.333333</longitude>
  </city>
  <city name="Alesso">
    <latitude>46.319444</latitude>
    <longitude>13.055</longitude>
  </city>
  <city name="Alezio">
    <latitude>40.066667</latitude>
    <longitude>18.05</longitude>
  </city>
  <city name="Alfano">
    <latitude>40.183333</latitude>
    <longitude>15.416667</longitude>
  </city>
  <city name="Alfedena">
    <latitude>41.733333</latitude>
    <longitude>14.033333</longitude>
  </city>
  <city name="Alfero">
    <latitude>43.85</latitude>
    <longitude>12.05</longitude>
  </city>
  <city name="Alfiano Natta">
    <latitude>45.05</latitude>
    <longitude>8.2</longitude>
  </city>
  <city name="Alfiano Nuovo">
    <latitude>45.233333</latitude>
    <longitude>10.116667</longitude>
  </city>
  <city name="Alfonsine">
    <latitude>44.506111</latitude>
    <longitude>12.056389</longitude>
  </city>
  <city name="Al Gallo">
    <latitude>46.85</latitude>
    <longitude>11.166667</longitude>
  </city>
  <city name="Al Geccio">
    <latitude>46.1</latitude>
    <longitude>8.433333</longitude>
  </city>
  <city name="Alghero">
    <latitude>40.558889</latitude>
    <longitude>8.318056</longitude>
  </city>
  <city name="Alguer">
    <latitude>40.558889</latitude>
    <longitude>8.318056</longitude>
  </city>
  <city name="Algund">
    <latitude>46.683333</latitude>
    <longitude>11.133333</longitude>
  </city>
  <city name="Alia">
    <latitude>37.783333</latitude>
    <longitude>13.716667</longitude>
  </city>
  <city name="Alì">
    <latitude>42.95</latitude>
    <longitude>12.933333</longitude>
  </city>
  <city name="Alianello">
    <latitude>40.266667</latitude>
    <longitude>16.25</longitude>
  </city>
  <city name="Aliano">
    <latitude>40.316667</latitude>
    <longitude>16.233333</longitude>
  </city>
  <city name="Alice Castello">
    <latitude>45.366667</latitude>
    <longitude>8.066667</longitude>
  </city>
  <city name="Alice Superiore">
    <latitude>45.466667</latitude>
    <longitude>7.783333</longitude>
  </city>
  <city name="Aliena">
    <latitude>42.75</latitude>
    <longitude>13.033333</longitude>
  </city>
  <city name="Alife">
    <latitude>41.333333</latitude>
    <longitude>14.333333</longitude>
  </city>
  <city name="Alì Marina">
    <latitude>38.0</latitude>
    <longitude>15.433333</longitude>
  </city>
  <city name="Alimena">
    <latitude>37.7</latitude>
    <longitude>14.116667</longitude>
  </city>
  <city name="Aliminusa">
    <latitude>37.866667</latitude>
    <longitude>13.783333</longitude>
  </city>
  <city name="Alino">
    <latitude>45.85</latitude>
    <longitude>9.633333</longitude>
  </city>
  <city name="Ali Superiore">
    <latitude>38.033333</latitude>
    <longitude>15.416667</longitude>
  </city>
  <city name="Alla">
    <latitude>45.55</latitude>
    <longitude>10.766667</longitude>
  </city>
  <city name="Allai">
    <latitude>39.958056</latitude>
    <longitude>8.863889</longitude>
  </city>
  <city name="Allana">
    <latitude>41.383333</latitude>
    <longitude>14.2</longitude>
  </city>
  <city name="Allano">
    <latitude>40.316667</latitude>
    <longitude>16.233333</longitude>
  </city>
  <city name="Alleghe">
    <latitude>46.410278</latitude>
    <longitude>12.021389</longitude>
  </city>
  <city name="Allerona">
    <latitude>42.816667</latitude>
    <longitude>11.966667</longitude>
  </city>
  <city name="Allesà">
    <latitude>45.733333</latitude>
    <longitude>7.75</longitude>
  </city>
  <city name="Alle Sarche">
    <latitude>46.05</latitude>
    <longitude>10.95</longitude>
  </city>
  <city name="Alli">
    <latitude>45.55</latitude>
    <longitude>10.766667</longitude>
  </city>
  <city name="Alliste">
    <latitude>39.95</latitude>
    <longitude>18.083333</longitude>
  </city>
  <city name="Alloche">
    <latitude>45.7</latitude>
    <longitude>8.216667</longitude>
  </city>
  <city name="Allumiere">
    <latitude>42.15</latitude>
    <longitude>11.9</longitude>
  </city>
  <city name="Almàdis">
    <latitude>46.208611</latitude>
    <longitude>12.893611</longitude>
  </city>
  <city name="Al Maso">
    <latitude>46.516667</latitude>
    <longitude>10.95</longitude>
  </city>
  <city name="Almè">
    <latitude>45.733333</latitude>
    <longitude>9.616667</longitude>
  </city>
  <city name="Almenno San Bartolomeo">
    <latitude>45.75</latitude>
    <longitude>9.566667</longitude>
  </city>
  <city name="Almenno San Salvatore">
    <latitude>45.75</latitude>
    <longitude>9.583333</longitude>
  </city>
  <city name="Almese">
    <latitude>45.116667</latitude>
    <longitude>7.383333</longitude>
  </city>
  <city name="Alo di Stura">
    <latitude>45.316667</latitude>
    <longitude>7.316667</longitude>
  </city>
  <city name="Al Passo">
    <latitude>46.316667</latitude>
    <longitude>8.383333</longitude>
  </city>
  <city name="Alpe Acquanegra">
    <latitude>46.266667</latitude>
    <longitude>9.916667</longitude>
  </city>
  <city name="Alpe Acquanera">
    <latitude>46.266667</latitude>
    <longitude>9.916667</longitude>
  </city>
  <city name="Alpe Agrosa">
    <latitude>46.116667</latitude>
    <longitude>8.133333</longitude>
  </city>
  <city name="Alpe Airale">
    <latitude>46.233333</latitude>
    <longitude>9.766667</longitude>
  </city>
  <city name="Alpe Balma Rossa">
    <latitude>46.4</latitude>
    <longitude>8.4</longitude>
  </city>
  <city name="Alpe Basciumo">
    <latitude>46.05</latitude>
    <longitude>8.233333</longitude>
  </city>
  <city name="Alpe Basso">
    <latitude>46.1</latitude>
    <longitude>8.45</longitude>
  </city>
  <city name="Alpe Busarasca">
    <latitude>46.05</latitude>
    <longitude>8.483333</longitude>
  </city>
  <city name="Alpe Caldenno">
    <latitude>46.2</latitude>
    <longitude>9.75</longitude>
  </city>
  <city name="Alpe Campo">
    <latitude>46.25</latitude>
    <longitude>10.15</longitude>
  </city>
  <city name="Alpe Campo di Sotto">
    <latitude>46.05</latitude>
    <longitude>8.45</longitude>
  </city>
  <city name="Alpe Campolomana">
    <latitude>46.1</latitude>
    <longitude>8.066667</longitude>
  </city>
  <city name="Alpe Campolungo">
    <latitude>46.283333</latitude>
    <longitude>9.9</longitude>
  </city>
  <city name="Alpe Casarolo">
    <latitude>46.05</latitude>
    <longitude>8.4</longitude>
  </city>
  <city name="Alpe Cavegna">
    <latitude>46.233333</latitude>
    <longitude>8.45</longitude>
  </city>
  <city name="Alpe Cazzola">
    <latitude>46.166667</latitude>
    <longitude>8.416667</longitude>
  </city>
  <city name="Alpe Cheggio">
    <latitude>46.083333</latitude>
    <longitude>8.116667</longitude>
  </city>
  <city name="Alpe Ciamporino">
    <latitude>46.266667</latitude>
    <longitude>8.2</longitude>
  </city>
  <city name="Alpe Col">
    <latitude>46.166667</latitude>
    <longitude>8.366667</longitude>
  </city>
  <city name="Alpe Cortefreddo">
    <latitude>46.233333</latitude>
    <longitude>8.383333</longitude>
  </city>
  <city name="Alpe Cortelancio">
    <latitude>46.016667</latitude>
    <longitude>8.116667</longitude>
  </city>
  <city name="Alpe Cortevecchio">
    <latitude>46.05</latitude>
    <longitude>8.366667</longitude>
  </city>
  <city name="Alpe Cortone">
    <latitude>46.216667</latitude>
    <longitude>8.416667</longitude>
  </city>
  <city name="Alpe Devero">
    <latitude>46.316667</latitude>
    <longitude>8.25</longitude>
  </city>
  <city name="Alpe di Bondeno">
    <latitude>46.383333</latitude>
    <longitude>9.366667</longitude>
  </city>
  <city name="Alpe di Camona">
    <latitude>46.183333</latitude>
    <longitude>8.166667</longitude>
  </city>
  <city name="Alpe di Corfino">
    <latitude>44.2</latitude>
    <longitude>10.4</longitude>
  </city>
  <city name="Alpe di Dumenza">
    <latitude>46.033333</latitude>
    <longitude>8.816667</longitude>
  </city>
  <city name="Alpe di Lenno">
    <latitude>46.0</latitude>
    <longitude>9.15</longitude>
  </city>
  <city name="Alpe di Teste">
    <latitude>46.1</latitude>
    <longitude>8.1</longitude>
  </city>
  <city name="Alpe Dosdè">
    <latitude>46.416667</latitude>
    <longitude>10.183333</longitude>
  </city>
  <city name="Alpe Forgnone">
    <latitude>46.2</latitude>
    <longitude>8.416667</longitude>
  </city>
  <city name="Alpe Forno">
    <latitude>46.033333</latitude>
    <longitude>9.45</longitude>
  </city>
  <city name="Alpe Gembrè">
    <latitude>46.316667</latitude>
    <longitude>9.95</longitude>
  </city>
  <city name="Alpe Gera">
    <latitude>46.316667</latitude>
    <longitude>9.933333</longitude>
  </city>
  <city name="Alpe Giove">
    <latitude>46.35</latitude>
    <longitude>8.366667</longitude>
  </city>
  <city name="Alpe Grasso">
    <latitude>46.016667</latitude>
    <longitude>9.4</longitude>
  </city>
  <city name="Alpe Groppera">
    <latitude>46.433333</latitude>
    <longitude>9.366667</longitude>
  </city>
  <city name="Alpe i Motti">
    <latitude>46.2</latitude>
    <longitude>8.466667</longitude>
  </city>
  <city name="Alpe Lagarasc">
    <latitude>46.016667</latitude>
    <longitude>8.333333</longitude>
  </city>
  <city name="Alpe Lagarsc">
    <latitude>46.016667</latitude>
    <longitude>8.333333</longitude>
  </city>
  <city name="Alpe Larecchio">
    <latitude>46.216667</latitude>
    <longitude>8.5</longitude>
  </city>
  <city name="Alpe Lareccio">
    <latitude>46.033333</latitude>
    <longitude>8.066667</longitude>
  </city>
  <city name="Alpe la Satta">
    <latitude>46.35</latitude>
    <longitude>8.3</longitude>
  </city>
  <city name="Alpe Lorino">
    <latitude>46.183333</latitude>
    <longitude>8.216667</longitude>
  </city>
  <city name="Alpe Mandetto">
    <latitude>45.433333</latitude>
    <longitude>7.133333</longitude>
  </city>
  <city name="Alpe Marghino">
    <latitude>46.166667</latitude>
    <longitude>8.266667</longitude>
  </city>
  <city name="Alpe Mattignale">
    <latitude>46.25</latitude>
    <longitude>8.416667</longitude>
  </city>
  <city name="Alpe Mulecetto">
    <latitude>46.416667</latitude>
    <longitude>9.416667</longitude>
  </city>
  <city name="Alpe Ogliana">
    <latitude>46.05</latitude>
    <longitude>8.35</longitude>
  </city>
  <city name="Alpe Ogliano">
    <latitude>46.05</latitude>
    <longitude>8.35</longitude>
  </city>
  <city name="Alpe Olza">
    <latitude>46.1</latitude>
    <longitude>9.616667</longitude>
  </city>
  <city name="Alpe Pilocca">
    <latitude>45.466667</latitude>
    <longitude>7.15</longitude>
  </city>
  <city name="Alpe Piodella">
    <latitude>46.283333</latitude>
    <longitude>9.283333</longitude>
  </city>
  <city name="Alpe Pitocca">
    <latitude>45.466667</latitude>
    <longitude>7.15</longitude>
  </city>
  <city name="Alpe Rasica">
    <latitude>46.05</latitude>
    <longitude>9.45</longitude>
  </city>
  <city name="Alpe Rebella">
    <latitude>46.45</latitude>
    <longitude>9.433333</longitude>
  </city>
  <city name="Alpe Rebellao">
    <latitude>46.45</latitude>
    <longitude>9.433333</longitude>
  </city>
  <city name="Alpe Regina">
    <latitude>46.45</latitude>
    <longitude>8.45</longitude>
  </city>
  <city name="Alpe Steblino">
    <latitude>46.483333</latitude>
    <longitude>10.1</longitude>
  </city>
  <city name="Alpe Strencia">
    <latitude>46.183333</latitude>
    <longitude>10.183333</longitude>
  </city>
  <city name="Alpet">
    <latitude>46.033333</latitude>
    <longitude>8.816667</longitude>
  </city>
  <city name="Alpe Tartarea">
    <latitude>44.633333</latitude>
    <longitude>7.183333</longitude>
  </city>
  <city name="Alpe Torcelli">
    <latitude>46.1</latitude>
    <longitude>8.233333</longitude>
  </city>
  <city name="Alpette">
    <latitude>45.416667</latitude>
    <longitude>7.583333</longitude>
  </city>
  <city name="Alpe Vago">
    <latitude>46.45</latitude>
    <longitude>10.083333</longitude>
  </city>
  <city name="Alpe Valaverta">
    <latitude>46.033333</latitude>
    <longitude>8.083333</longitude>
  </city>
  <city name="Alpe Vald">
    <latitude>46.083333</latitude>
    <longitude>8.416667</longitude>
  </city>
  <city name="Alpe Valle">
    <latitude>46.083333</latitude>
    <longitude>8.416667</longitude>
  </city>
  <city name="Alpe Vauzone">
    <latitude>46.083333</latitude>
    <longitude>8.166667</longitude>
  </city>
  <city name="Alpe Zucchero">
    <latitude>46.066667</latitude>
    <longitude>8.483333</longitude>
  </city>
  <city name="Alpe Zunchi">
    <latitude>46.083333</latitude>
    <longitude>8.5</longitude>
  </city>
  <city name="Alpicella">
    <latitude>44.516667</latitude>
    <longitude>9.466667</longitude>
  </city>
  <city name="Alpicelle">
    <latitude>44.516667</latitude>
    <longitude>9.466667</longitude>
  </city>
  <city name="Alpi di Vaudet">
    <latitude>45.533333</latitude>
    <longitude>7.016667</longitude>
  </city>
  <city name="Alpiggia">
    <latitude>46.35</latitude>
    <longitude>9.433333</longitude>
  </city>
  <city name="Alpignano">
    <latitude>45.1</latitude>
    <longitude>7.516667</longitude>
  </city>
  <city name="Alpi Vaudet">
    <latitude>45.533333</latitude>
    <longitude>7.016667</longitude>
  </city>
  <city name="Alseno">
    <latitude>44.9</latitude>
    <longitude>9.983333</longitude>
  </city>
  <city name="Alsium">
    <latitude>41.933333</latitude>
    <longitude>12.1</longitude>
  </city>
  <city name="Al Solivo">
    <latitude>46.216667</latitude>
    <longitude>10.35</longitude>
  </city>
  <city name="Alta Marina">
    <latitude>43.65</latitude>
    <longitude>13.333333</longitude>
  </city>
  <city name="Altamura">
    <latitude>40.816667</latitude>
    <longitude>16.55</longitude>
  </city>
  <city name="Altana">
    <latitude>46.103611</latitude>
    <longitude>13.547222</longitude>
  </city>
  <city name="Altare">
    <latitude>44.333333</latitude>
    <longitude>8.333333</longitude>
  </city>
  <city name="Altavilla">
    <latitude>42.583333</latitude>
    <longitude>13.566667</longitude>
  </city>
  <city name="Altavilla Irpina">
    <latitude>41.0</latitude>
    <longitude>14.783333</longitude>
  </city>
  <city name="Altavilla Milicia">
    <latitude>38.033333</latitude>
    <longitude>13.533333</longitude>
  </city>
  <city name="Altavilla Silentina">
    <latitude>40.533333</latitude>
    <longitude>15.133333</longitude>
  </city>
  <city name="Altavilla Vicentina">
    <latitude>45.516667</latitude>
    <longitude>11.466667</longitude>
  </city>
  <city name="Altedo">
    <latitude>44.666667</latitude>
    <longitude>11.483333</longitude>
  </city>
  <city name="Altessano">
    <latitude>45.133333</latitude>
    <longitude>7.65</longitude>
  </city>
  <city name="Altidona">
    <latitude>43.1</latitude>
    <longitude>13.8</longitude>
  </city>
  <city name="Altieri">
    <latitude>41.683333</latitude>
    <longitude>12.65</longitude>
  </city>
  <city name="Altilia">
    <latitude>39.133333</latitude>
    <longitude>16.25</longitude>
  </city>
  <city name="Altino">
    <latitude>42.1</latitude>
    <longitude>14.316667</longitude>
  </city>
  <city name="Altipiani di Arcinazzo">
    <latitude>41.85</latitude>
    <longitude>13.183333</longitude>
  </city>
  <city name="Altofonte">
    <latitude>38.05</latitude>
    <longitude>13.3</longitude>
  </city>
  <city name="Altomonte">
    <latitude>39.7</latitude>
    <longitude>16.133333</longitude>
  </city>
  <city name="Alto Nove">
    <latitude>46.053056</latitude>
    <longitude>12.319444</longitude>
  </city>
  <city name="Altopascio">
    <latitude>43.816667</latitude>
    <longitude>10.666667</longitude>
  </city>
  <city name="Altovia">
    <latitude>42.6</latitude>
    <longitude>13.466667</longitude>
  </city>
  <city name="Altuis">
    <latitude>46.583333</latitude>
    <longitude>11.916667</longitude>
  </city>
  <city name="Alture">
    <latitude>45.853889</latitude>
    <longitude>13.353611</longitude>
  </city>
  <city name="Alvera">
    <latitude>46.548889</latitude>
    <longitude>12.155556</longitude>
  </city>
  <city name="Alvi">
    <latitude>42.55</latitude>
    <longitude>13.45</longitude>
  </city>
  <city name="Alviano">
    <latitude>43.333333</latitude>
    <longitude>13.683333</longitude>
  </city>
  <city name="Alvignanello">
    <latitude>41.2</latitude>
    <longitude>14.433333</longitude>
  </city>
  <city name="Alvignano">
    <latitude>41.25</latitude>
    <longitude>14.333333</longitude>
  </city>
  <city name="Alvisopoli">
    <latitude>45.805833</latitude>
    <longitude>12.92</longitude>
  </city>
  <city name="Alvito">
    <latitude>41.683333</latitude>
    <longitude>13.75</longitude>
  </city>
  <city name="Alzano">
    <latitude>42.233333</latitude>
    <longitude>13.183333</longitude>
  </city>
  <city name="Alzano di Sopra">
    <latitude>45.733333</latitude>
    <longitude>9.733333</longitude>
  </city>
  <city name="Alzano Lombardo">
    <latitude>45.733333</latitude>
    <longitude>9.716667</longitude>
  </city>
  <city name="Alzano Maggiore">
    <latitude>45.733333</latitude>
    <longitude>9.716667</longitude>
  </city>
  <city name="Alzano Sopra">
    <latitude>45.733333</latitude>
    <longitude>9.733333</longitude>
  </city>
  <city name="Alzate">
    <latitude>45.566667</latitude>
    <longitude>8.583333</longitude>
  </city>
  <city name="Alzate con Linduno">
    <latitude>45.566667</latitude>
    <longitude>8.583333</longitude>
  </city>
  <city name="Amalafede">
    <latitude>40.233333</latitude>
    <longitude>15.066667</longitude>
  </city>
  <city name="Amalfi">
    <latitude>40.633333</latitude>
    <longitude>14.6</longitude>
  </city>
  <city name="Amandola">
    <latitude>42.983333</latitude>
    <longitude>13.35</longitude>
  </city>
  <city name="Amantea">
    <latitude>39.133333</latitude>
    <longitude>16.066667</longitude>
  </city>
  <city name="Amaro">
    <latitude>46.377778</latitude>
    <longitude>13.095833</longitude>
  </city>
  <city name="Amaroni">
    <latitude>38.783333</latitude>
    <longitude>16.45</longitude>
  </city>
  <city name="Amaseno">
    <latitude>41.466667</latitude>
    <longitude>13.333333</longitude>
  </city>
  <city name="Amato">
    <latitude>38.383333</latitude>
    <longitude>16.133333</longitude>
  </city>
  <city name="Amatrice">
    <latitude>42.633333</latitude>
    <longitude>13.283333</longitude>
  </city>
  <city name="Ambra">
    <latitude>43.416667</latitude>
    <longitude>11.6</longitude>
  </city>
  <city name="Ambrogiana">
    <latitude>43.733333</latitude>
    <longitude>11.016667</longitude>
  </city>
  <city name="Ambrogio">
    <latitude>41.4</latitude>
    <longitude>13.883333</longitude>
  </city>
  <city name="Ambuletum">
    <latitude>45.083333</latitude>
    <longitude>10.95</longitude>
  </city>
  <city name="Ameglia">
    <latitude>44.066667</latitude>
    <longitude>9.95</longitude>
  </city>
  <city name="Amelia">
    <latitude>42.55</latitude>
    <longitude>12.416667</longitude>
  </city>
  <city name="Amendolara">
    <latitude>39.95</latitude>
    <longitude>16.583333</longitude>
  </city>
  <city name="Ameno">
    <latitude>45.783333</latitude>
    <longitude>8.433333</longitude>
  </city>
  <city name="Amica">
    <latitude>39.6</latitude>
    <longitude>16.683333</longitude>
  </city>
  <city name="Ammonite">
    <latitude>44.447778</latitude>
    <longitude>12.09</longitude>
  </city>
  <city name="Amola">
    <latitude>44.45</latitude>
    <longitude>11.166667</longitude>
  </city>
  <city name="Amola del Piano">
    <latitude>44.65</latitude>
    <longitude>11.166667</longitude>
  </city>
  <city name="Amola di Piano">
    <latitude>44.65</latitude>
    <longitude>11.166667</longitude>
  </city>
  <city name="Amorosi">
    <latitude>41.2</latitude>
    <longitude>14.466667</longitude>
  </city>
  <city name="Ampezzo">
    <latitude>46.413889</latitude>
    <longitude>12.794722</longitude>
  </city>
  <city name="Ampinana">
    <latitude>43.933333</latitude>
    <longitude>11.533333</longitude>
  </city>
  <city name="Ampugnano">
    <latitude>43.266667</latitude>
    <longitude>11.25</longitude>
  </city>
  <city name="Anacapri">
    <latitude>40.55</latitude>
    <longitude>14.216667</longitude>
  </city>
  <city name="Anagni">
    <latitude>41.733333</latitude>
    <longitude>13.15</longitude>
  </city>
  <city name="Ancaiano">
    <latitude>43.3</latitude>
    <longitude>11.216667</longitude>
  </city>
  <city name="Ancarano">
    <latitude>42.833333</latitude>
    <longitude>13.733333</longitude>
  </city>
  <city name="Anchiano">
    <latitude>43.816667</latitude>
    <longitude>10.766667</longitude>
  </city>
  <city name="Anchione">
    <latitude>43.816667</latitude>
    <longitude>10.766667</longitude>
  </city>
  <city name="Ancona">
    <latitude>43.633333</latitude>
    <longitude>13.5</longitude>
  </city>
  <city name="Anconella">
    <latitude>44.3</latitude>
    <longitude>11.316667</longitude>
  </city>
  <city name="Andagna">
    <latitude>43.983333</latitude>
    <longitude>7.783333</longitude>
  </city>
  <city name="Andali">
    <latitude>39.016667</latitude>
    <longitude>16.766667</longitude>
  </city>
  <city name="Andalo">
    <latitude>46.166667</latitude>
    <longitude>11.0</longitude>
  </city>
  <city name="Andezeno">
    <latitude>45.033333</latitude>
    <longitude>7.866667</longitude>
  </city>
  <city name="Andogno">
    <latitude>46.066667</latitude>
    <longitude>10.883333</longitude>
  </city>
  <city name="Andonno">
    <latitude>44.3</latitude>
    <longitude>7.433333</longitude>
  </city>
  <city name="Andorno Cacciorna">
    <latitude>45.616667</latitude>
    <longitude>8.05</longitude>
  </city>
  <city name="Andorno Micca">
    <latitude>45.616667</latitude>
    <longitude>8.05</longitude>
  </city>
  <city name="Andrano">
    <latitude>39.983333</latitude>
    <longitude>18.383333</longitude>
  </city>
  <city name="Andrate">
    <latitude>45.533333</latitude>
    <longitude>7.883333</longitude>
  </city>
  <city name="Andraz">
    <latitude>46.483333</latitude>
    <longitude>11.983333</longitude>
  </city>
  <city name="Andrazza">
    <latitude>46.413889</latitude>
    <longitude>12.591111</longitude>
  </city>
  <city name="Andreis">
    <latitude>46.205833</latitude>
    <longitude>12.612778</longitude>
  </city>
  <city name="Andreoli">
    <latitude>42.2</latitude>
    <longitude>14.4</longitude>
  </city>
  <city name="Andrers">
    <latitude>46.205833</latitude>
    <longitude>12.612778</longitude>
  </city>
  <city name="Andretta">
    <latitude>40.933333</latitude>
    <longitude>15.316667</longitude>
  </city>
  <city name="Andria">
    <latitude>41.216667</latitude>
    <longitude>16.283333</longitude>
  </city>
  <city name="Anduins">
    <latitude>46.238056</latitude>
    <longitude>12.965833</longitude>
  </city>
  <city name="Anela">
    <latitude>40.45</latitude>
    <longitude>9.05</longitude>
  </city>
  <city name="Anfo">
    <latitude>45.766667</latitude>
    <longitude>10.483333</longitude>
  </city>
  <city name="Angeli">
    <latitude>43.05</latitude>
    <longitude>12.566667</longitude>
  </city>
  <city name="Angellara">
    <latitude>40.233333</latitude>
    <longitude>15.283333</longitude>
  </city>
  <city name="Angera">
    <latitude>45.766667</latitude>
    <longitude>8.583333</longitude>
  </city>
  <city name="Anghiari">
    <latitude>43.533333</latitude>
    <longitude>12.05</longitude>
  </city>
  <city name="Angoli">
    <latitude>38.966667</latitude>
    <longitude>16.433333</longitude>
  </city>
  <city name="Angolo">
    <latitude>45.883333</latitude>
    <longitude>10.133333</longitude>
  </city>
  <city name="Angolo Terme">
    <latitude>45.883333</latitude>
    <longitude>10.133333</longitude>
  </city>
  <city name="Angóris">
    <latitude>45.939167</latitude>
    <longitude>13.461944</longitude>
  </city>
  <city name="Angri">
    <latitude>40.733333</latitude>
    <longitude>14.566667</longitude>
  </city>
  <city name="Anguillara">
    <latitude>45.133333</latitude>
    <longitude>11.883333</longitude>
  </city>
  <city name="Anguillara Sabazia">
    <latitude>42.083333</latitude>
    <longitude>12.266667</longitude>
  </city>
  <city name="Anguillara Veneta">
    <latitude>45.133333</latitude>
    <longitude>11.883333</longitude>
  </city>
  <city name="Anitrella">
    <latitude>41.633333</latitude>
    <longitude>13.55</longitude>
  </city>
  <city name="Anna">
    <latitude>37.933333</latitude>
    <longitude>15.766667</longitude>
  </city>
  <city name="Annicco">
    <latitude>45.233333</latitude>
    <longitude>9.866667</longitude>
  </city>
  <city name="Annifo">
    <latitude>43.05</latitude>
    <longitude>12.85</longitude>
  </city>
  <city name="Annone di Brianza">
    <latitude>45.8</latitude>
    <longitude>9.333333</longitude>
  </city>
  <city name="Annone Veneto">
    <latitude>45.798333</latitude>
    <longitude>12.683889</longitude>
  </city>
  <city name="Annunziata">
    <latitude>39.166667</latitude>
    <longitude>16.066667</longitude>
  </city>
  <city name="Anoia">
    <latitude>38.45</latitude>
    <longitude>16.083333</longitude>
  </city>
  <city name="Anoia Superiore">
    <latitude>38.433333</latitude>
    <longitude>16.1</longitude>
  </city>
  <city name="Anqua">
    <latitude>43.216667</latitude>
    <longitude>10.983333</longitude>
  </city>
  <city name="Anquillara Sabazia">
    <latitude>42.083333</latitude>
    <longitude>12.266667</longitude>
  </city>
  <city name="Ansedónia">
    <latitude>42.4</latitude>
    <longitude>11.3</longitude>
  </city>
  <city name="Ansizio">
    <latitude>45.616667</latitude>
    <longitude>8.85</longitude>
  </city>
  <city name="Antea">
    <latitude>45.85</latitude>
    <longitude>9.666667</longitude>
  </city>
  <city name="Antegnate">
    <latitude>45.483333</latitude>
    <longitude>9.783333</longitude>
  </city>
  <city name="Antei Sant'Andrea">
    <latitude>45.8</latitude>
    <longitude>7.6</longitude>
  </city>
  <city name="Antella">
    <latitude>43.733333</latitude>
    <longitude>11.316667</longitude>
  </city>
  <city name="Anterivo">
    <latitude>46.283333</latitude>
    <longitude>11.366667</longitude>
  </city>
  <city name="Antermoia">
    <latitude>46.683333</latitude>
    <longitude>11.85</longitude>
  </city>
  <city name="Anterselva">
    <latitude>46.863056</latitude>
    <longitude>12.104444</longitude>
  </city>
  <city name="Anterselva Bassa">
    <latitude>46.833333</latitude>
    <longitude>12.083333</longitude>
  </city>
  <city name="Anterselva di Mezzo">
    <latitude>46.863056</latitude>
    <longitude>12.104444</longitude>
  </city>
  <city name="Anterselva Mezzavalle">
    <latitude>46.863056</latitude>
    <longitude>12.104444</longitude>
  </city>
  <city name="Antesica">
    <latitude>44.566667</latitude>
    <longitude>10.216667</longitude>
  </city>
  <city name="Antesiea">
    <latitude>44.566667</latitude>
    <longitude>10.216667</longitude>
  </city>
  <city name="Antey-Saint-André">
    <latitude>45.8</latitude>
    <longitude>7.6</longitude>
  </city>
  <city name="Antholz-Mitterthal">
    <latitude>46.863056</latitude>
    <longitude>12.104444</longitude>
  </city>
  <city name="Antica Fonte di Peio">
    <latitude>46.35</latitude>
    <longitude>10.666667</longitude>
  </city>
  <city name="Antico">
    <latitude>43.85</latitude>
    <longitude>12.3</longitude>
  </city>
  <city name="Antico di Maiolo">
    <latitude>43.85</latitude>
    <longitude>12.3</longitude>
  </city>
  <city name="Anticoli Corrado">
    <latitude>42.016667</latitude>
    <longitude>12.983333</longitude>
  </city>
  <city name="Antignano">
    <latitude>43.5</latitude>
    <longitude>10.316667</longitude>
  </city>
  <city name="Antignano di Livorno">
    <latitude>43.5</latitude>
    <longitude>10.316667</longitude>
  </city>
  <city name="Antillo">
    <latitude>37.966667</latitude>
    <longitude>15.25</longitude>
  </city>
  <city name="Antognola">
    <latitude>43.233333</latitude>
    <longitude>12.35</longitude>
  </city>
  <city name="Antona">
    <latitude>44.066667</latitude>
    <longitude>10.183333</longitude>
  </city>
  <city name="Antonimina">
    <latitude>38.266667</latitude>
    <longitude>16.15</longitude>
  </city>
  <city name="Antrodoco">
    <latitude>42.416667</latitude>
    <longitude>13.083333</longitude>
  </city>
  <city name="Antronapiana">
    <latitude>46.05</latitude>
    <longitude>8.116667</longitude>
  </city>
  <city name="Antrosano">
    <latitude>42.066667</latitude>
    <longitude>13.4</longitude>
  </city>
  <city name="Anversa">
    <latitude>41.983333</latitude>
    <longitude>13.8</longitude>
  </city>
  <city name="Anversa degli Abruzzi">
    <latitude>41.983333</latitude>
    <longitude>13.8</longitude>
  </city>
  <city name="Anzano">
    <latitude>45.988333</latitude>
    <longitude>12.329167</longitude>
  </city>
  <city name="Anzano del Parco">
    <latitude>45.766667</latitude>
    <longitude>9.2</longitude>
  </city>
  <city name="Anzano di Puglia">
    <latitude>41.116667</latitude>
    <longitude>15.283333</longitude>
  </city>
  <city name="Anzi">
    <latitude>40.516667</latitude>
    <longitude>15.916667</longitude>
  </city>
  <city name="Anzino">
    <latitude>45.983333</latitude>
    <longitude>8.15</longitude>
  </city>
  <city name="Anzio">
    <latitude>41.45</latitude>
    <longitude>12.616667</longitude>
  </city>
  <city name="Anzo">
    <latitude>44.216667</latitude>
    <longitude>9.55</longitude>
  </city>
  <city name="Anzola">
    <latitude>44.55</latitude>
    <longitude>11.183333</longitude>
  </city>
  <city name="Anzola dell'Emilia">
    <latitude>44.55</latitude>
    <longitude>11.183333</longitude>
  </city>
  <city name="Anzola d'Emilia">
    <latitude>44.55</latitude>
    <longitude>11.183333</longitude>
  </city>
  <city name="Anzola d'Ossola">
    <latitude>45.983333</latitude>
    <longitude>8.35</longitude>
  </city>
  <city name="Anzolla">
    <latitude>44.483333</latitude>
    <longitude>10.2</longitude>
  </city>
  <city name="Anzù">
    <latitude>46.0</latitude>
    <longitude>11.933333</longitude>
  </city>
  <city name="Aonedis">
    <latitude>46.150833</latitude>
    <longitude>12.964444</longitude>
  </city>
  <city name="Aosta">
    <latitude>45.733333</latitude>
    <longitude>7.333333</longitude>
  </city>
  <city name="Apagni">
    <latitude>42.883333</latitude>
    <longitude>12.883333</longitude>
  </city>
  <city name="Apatia">
    <latitude>39.216667</latitude>
    <longitude>16.75</longitude>
  </city>
  <city name="Apecchio">
    <latitude>43.55</latitude>
    <longitude>12.416667</longitude>
  </city>
  <city name="Apice">
    <latitude>41.116667</latitude>
    <longitude>14.933333</longitude>
  </city>
  <city name="Apiro">
    <latitude>43.383333</latitude>
    <longitude>13.133333</longitude>
  </city>
  <city name="Apoleggia">
    <latitude>42.5</latitude>
    <longitude>12.833333</longitude>
  </city>
  <city name="Apollosa">
    <latitude>41.083333</latitude>
    <longitude>14.7</longitude>
  </city>
  <city name="Appecano">
    <latitude>42.633333</latitude>
    <longitude>12.65</longitude>
  </city>
  <city name="Appennino">
    <latitude>42.966667</latitude>
    <longitude>13.066667</longitude>
  </city>
  <city name="Appiano">
    <latitude>45.733333</latitude>
    <longitude>8.983333</longitude>
  </city>
  <city name="Appiano Gentile">
    <latitude>45.733333</latitude>
    <longitude>8.983333</longitude>
  </city>
  <city name="Appignano">
    <latitude>42.533333</latitude>
    <longitude>13.85</longitude>
  </city>
  <city name="Appignano del Tronto">
    <latitude>42.9</latitude>
    <longitude>13.666667</longitude>
  </city>
  <city name="Aprica">
    <latitude>46.15</latitude>
    <longitude>10.1</longitude>
  </city>
  <city name="Apricale">
    <latitude>43.883333</latitude>
    <longitude>7.65</longitude>
  </city>
  <city name="Apricena">
    <latitude>41.783333</latitude>
    <longitude>15.45</longitude>
  </city>
  <city name="Apriglianello">
    <latitude>39.083333</latitude>
    <longitude>17.05</longitude>
  </city>
  <city name="Aprigliano">
    <latitude>39.233333</latitude>
    <longitude>16.333333</longitude>
  </city>
  <city name="Aprilia">
    <latitude>41.6</latitude>
    <longitude>12.65</longitude>
  </city>
  <city name="Apuania">
    <latitude>44.083333</latitude>
    <longitude>10.1</longitude>
  </city>
  <city name="Aquara">
    <latitude>40.433333</latitude>
    <longitude>15.25</longitude>
  </city>
  <city name="Aquarone">
    <latitude>38.3</latitude>
    <longitude>15.55</longitude>
  </city>
  <city name="Aquasanta">
    <latitude>42.766667</latitude>
    <longitude>13.416667</longitude>
  </city>
  <city name="Aquasparta">
    <latitude>42.683333</latitude>
    <longitude>12.55</longitude>
  </city>
  <city name="Aquaviva Picena">
    <latitude>42.95</latitude>
    <longitude>13.816667</longitude>
  </city>
  <city name="Aquila">
    <latitude>42.366667</latitude>
    <longitude>13.366667</longitude>
  </city>
  <city name="Aquila degli Abruzzi">
    <latitude>42.366667</latitude>
    <longitude>13.366667</longitude>
  </city>
  <city name="Aquilaia">
    <latitude>42.833333</latitude>
    <longitude>13.05</longitude>
  </city>
  <city name="Aquilano">
    <latitude>42.55</latitude>
    <longitude>13.616667</longitude>
  </city>
  <city name="Aquilea">
    <latitude>43.916667</latitude>
    <longitude>10.516667</longitude>
  </city>
  <city name="Aquiléia">
    <latitude>45.770278</latitude>
    <longitude>13.368333</longitude>
  </city>
  <city name="Aquileja">
    <latitude>45.770278</latitude>
    <longitude>13.368333</longitude>
  </city>
  <city name="Aquilinia">
    <latitude>45.6</latitude>
    <longitude>13.8</longitude>
  </city>
  <city name="Aquilonia">
    <latitude>41.0</latitude>
    <longitude>15.483333</longitude>
  </city>
  <city name="Aquino">
    <latitude>41.5</latitude>
    <longitude>13.7</longitude>
  </city>
  <city name="Araba">
    <latitude>46.5</latitude>
    <longitude>11.866667</longitude>
  </city>
  <city name="Arabba">
    <latitude>46.5</latitude>
    <longitude>11.866667</longitude>
  </city>
  <city name="Aradeo">
    <latitude>40.133333</latitude>
    <longitude>18.133333</longitude>
  </city>
  <city name="Arafranca">
    <latitude>42.616667</latitude>
    <longitude>13.3</longitude>
  </city>
  <city name="Aragno">
    <latitude>42.55</latitude>
    <longitude>13.45</longitude>
  </city>
  <city name="Aragona">
    <latitude>37.4</latitude>
    <longitude>13.616667</longitude>
  </city>
  <city name="Aramo">
    <latitude>43.966667</latitude>
    <longitude>10.7</longitude>
  </city>
  <city name="Arangea">
    <latitude>38.1</latitude>
    <longitude>15.7</longitude>
  </city>
  <city name="Arba">
    <latitude>46.146111</latitude>
    <longitude>12.7925</longitude>
  </city>
  <city name="Àrbatax">
    <latitude>39.934444</latitude>
    <longitude>9.705556</longitude>
  </city>
  <city name="Arbatax di Tortoli">
    <latitude>39.934444</latitude>
    <longitude>9.705556</longitude>
  </city>
  <city name="Arbocco">
    <latitude>44.383333</latitude>
    <longitude>9.191667</longitude>
  </city>
  <city name="Arbod">
    <latitude>45.766667</latitude>
    <longitude>7.3</longitude>
  </city>
  <city name="Arborea">
    <latitude>39.774444</latitude>
    <longitude>8.581944</longitude>
  </city>
  <city name="Arboree">
    <latitude>39.774444</latitude>
    <longitude>8.581944</longitude>
  </city>
  <city name="Arborio">
    <latitude>45.5</latitude>
    <longitude>8.383333</longitude>
  </city>
  <city name="Arboro">
    <latitude>45.5</latitude>
    <longitude>8.383333</longitude>
  </city>
  <city name="Arbus">
    <latitude>39.527222</latitude>
    <longitude>8.599444</longitude>
  </city>
  <city name="Arcade">
    <latitude>45.788889</latitude>
    <longitude>12.218889</longitude>
  </city>
  <city name="Arcano">
    <latitude>46.144444</latitude>
    <longitude>13.016389</longitude>
  </city>
  <city name="Arce">
    <latitude>41.583333</latitude>
    <longitude>13.566667</longitude>
  </city>
  <city name="Arcello">
    <latitude>44.95</latitude>
    <longitude>9.433333</longitude>
  </city>
  <city name="Arcene">
    <latitude>45.566667</latitude>
    <longitude>9.6</longitude>
  </city>
  <city name="Arceto">
    <latitude>44.616667</latitude>
    <longitude>10.716667</longitude>
  </city>
  <city name="Arcetri">
    <latitude>43.75</latitude>
    <longitude>11.233333</longitude>
  </city>
  <city name="Arcevia">
    <latitude>43.5</latitude>
    <longitude>12.933333</longitude>
  </city>
  <city name="Arche">
    <latitude>46.033333</latitude>
    <longitude>10.866667</longitude>
  </city>
  <city name="Archi">
    <latitude>42.083333</latitude>
    <longitude>14.383333</longitude>
  </city>
  <city name="Arcidosso">
    <latitude>42.866667</latitude>
    <longitude>11.55</longitude>
  </city>
  <city name="Arco">
    <latitude>45.916667</latitude>
    <longitude>10.883333</longitude>
  </city>
  <city name="Àrcola">
    <latitude>46.200556</latitude>
    <longitude>12.524444</longitude>
  </city>
  <city name="Arcola">
    <latitude>44.116667</latitude>
    <longitude>9.9</longitude>
  </city>
  <city name="Arcole">
    <latitude>45.35</latitude>
    <longitude>11.283333</longitude>
  </city>
  <city name="Arconate">
    <latitude>45.55</latitude>
    <longitude>8.85</longitude>
  </city>
  <city name="Arcore">
    <latitude>45.616667</latitude>
    <longitude>9.316667</longitude>
  </city>
  <city name="Arcugnano">
    <latitude>45.5</latitude>
    <longitude>11.533333</longitude>
  </city>
  <city name="Arcumeggia">
    <latitude>45.916667</latitude>
    <longitude>8.716667</longitude>
  </city>
  <city name="Ardali">
    <latitude>40.016667</latitude>
    <longitude>9.633333</longitude>
  </city>
  <city name="Ardara">
    <latitude>40.616667</latitude>
    <longitude>8.8</longitude>
  </city>
  <city name="Ardauli">
    <latitude>40.083333</latitude>
    <longitude>8.9</longitude>
  </city>
  <city name="Ardea">
    <latitude>41.6</latitude>
    <longitude>12.55</longitude>
  </city>
  <city name="Ardenno">
    <latitude>46.15</latitude>
    <longitude>9.633333</longitude>
  </city>
  <city name="Ardenza">
    <latitude>43.516667</latitude>
    <longitude>10.316667</longitude>
  </city>
  <city name="Ardesio">
    <latitude>45.933333</latitude>
    <longitude>9.933333</longitude>
  </city>
  <city name="Ardore">
    <latitude>38.183333</latitude>
    <longitude>16.166667</longitude>
  </city>
  <city name="Ardore Marina">
    <latitude>38.166667</latitude>
    <longitude>16.2</longitude>
  </city>
  <city name="Ardore Superiore">
    <latitude>38.183333</latitude>
    <longitude>16.166667</longitude>
  </city>
  <city name="Arena">
    <latitude>38.566667</latitude>
    <longitude>16.216667</longitude>
  </city>
  <city name="Arenabianca">
    <latitude>40.3</latitude>
    <longitude>15.683333</longitude>
  </city>
  <city name="Arena Po">
    <latitude>45.083333</latitude>
    <longitude>9.35</longitude>
  </city>
  <city name="Arenas">
    <latitude>39.116667</latitude>
    <longitude>8.566667</longitude>
  </city>
  <city name="Arenzano">
    <latitude>44.4</latitude>
    <longitude>8.683333</longitude>
  </city>
  <city name="Arese">
    <latitude>45.533333</latitude>
    <longitude>9.083333</longitude>
  </city>
  <city name="Arezzo">
    <latitude>44.6</latitude>
    <longitude>9.05</longitude>
  </city>
  <city name="Arfanta">
    <latitude>45.9675</latitude>
    <longitude>12.2</longitude>
  </city>
  <city name="Argallo">
    <latitude>43.916667</latitude>
    <longitude>7.8</longitude>
  </city>
  <city name="Argegno">
    <latitude>45.933333</latitude>
    <longitude>9.133333</longitude>
  </city>
  <city name="Argelato">
    <latitude>44.633333</latitude>
    <longitude>11.35</longitude>
  </city>
  <city name="Argenta">
    <latitude>44.616667</latitude>
    <longitude>11.833333</longitude>
  </city>
  <city name="Argentera">
    <latitude>44.4</latitude>
    <longitude>6.95</longitude>
  </city>
  <city name="Argentiera">
    <latitude>44.883333</latitude>
    <longitude>6.933333</longitude>
  </city>
  <city name="Argiano">
    <latitude>42.983333</latitude>
    <longitude>11.416667</longitude>
  </city>
  <city name="Argignano">
    <latitude>43.333333</latitude>
    <longitude>12.95</longitude>
  </city>
  <city name="Argine">
    <latitude>45.066667</latitude>
    <longitude>9.116667</longitude>
  </city>
  <city name="Argine del Sabato">
    <latitude>44.95</latitude>
    <longitude>11.55</longitude>
  </city>
  <city name="Arginella">
    <latitude>44.75</latitude>
    <longitude>10.766667</longitude>
  </city>
  <city name="Argnai">
    <latitude>46.233333</latitude>
    <longitude>8.266667</longitude>
  </city>
  <city name="Argusto">
    <latitude>38.666667</latitude>
    <longitude>16.433333</longitude>
  </city>
  <city name="Ariano di Puglia">
    <latitude>41.15</latitude>
    <longitude>15.083333</longitude>
  </city>
  <city name="Ariano Ferrarese">
    <latitude>44.941111</latitude>
    <longitude>12.1175</longitude>
  </city>
  <city name="Ariano Irpino">
    <latitude>41.15</latitude>
    <longitude>15.083333</longitude>
  </city>
  <city name="Ariano nel Polesine">
    <latitude>44.94</latitude>
    <longitude>12.138889</longitude>
  </city>
  <city name="Ariano Polesine">
    <latitude>44.94</latitude>
    <longitude>12.138889</longitude>
  </city>
  <city name="Ariano Polésino">
    <latitude>44.94</latitude>
    <longitude>12.138889</longitude>
  </city>
  <city name="Ari">
    <latitude>42.283333</latitude>
    <longitude>14.25</longitude>
  </city>
  <city name="Ariccia">
    <latitude>41.716667</latitude>
    <longitude>12.666667</longitude>
  </city>
  <city name="Arielli">
    <latitude>42.25</latitude>
    <longitude>14.3</longitude>
  </city>
  <city name="Arienzo">
    <latitude>41.016667</latitude>
    <longitude>14.5</longitude>
  </city>
  <city name="Arienzo San Felice">
    <latitude>41.016667</latitude>
    <longitude>14.5</longitude>
  </city>
  <city name="Arietta">
    <latitude>39.05</latitude>
    <longitude>16.783333</longitude>
  </city>
  <city name="Arigliano">
    <latitude>39.85</latitude>
    <longitude>18.35</longitude>
  </city>
  <city name="Arigna">
    <latitude>46.133333</latitude>
    <longitude>9.983333</longitude>
  </city>
  <city name="Arignano">
    <latitude>45.033333</latitude>
    <longitude>7.9</longitude>
  </city>
  <city name="Áriis">
    <latitude>45.872778</latitude>
    <longitude>13.087222</longitude>
  </city>
  <city name="Aringo">
    <latitude>42.55</latitude>
    <longitude>13.266667</longitude>
  </city>
  <city name="Arini">
    <latitude>37.816667</latitude>
    <longitude>12.483333</longitude>
  </city>
  <city name="Ariola">
    <latitude>38.583333</latitude>
    <longitude>16.233333</longitude>
  </city>
  <city name="Arischia">
    <latitude>42.416667</latitude>
    <longitude>13.333333</longitude>
  </city>
  <city name="Aritzo">
    <latitude>39.955556</latitude>
    <longitude>9.196944</longitude>
  </city>
  <city name="Arixi">
    <latitude>39.535278</latitude>
    <longitude>9.155278</longitude>
  </city>
  <city name="Arlena di Castro">
    <latitude>42.466667</latitude>
    <longitude>11.816667</longitude>
  </city>
  <city name="Arli">
    <latitude>42.8</latitude>
    <longitude>13.45</longitude>
  </city>
  <city name="Arliod">
    <latitude>45.766667</latitude>
    <longitude>7.3</longitude>
  </city>
  <city name="Arluno">
    <latitude>45.5</latitude>
    <longitude>8.933333</longitude>
  </city>
  <city name="Arma di Taggia">
    <latitude>43.833333</latitude>
    <longitude>7.85</longitude>
  </city>
  <city name="Armarolo">
    <latitude>44.6</latitude>
    <longitude>11.466667</longitude>
  </city>
  <city name="Armeno">
    <latitude>45.816667</latitude>
    <longitude>8.433333</longitude>
  </city>
  <city name="Armentano">
    <latitude>39.966667</latitude>
    <longitude>15.9</longitude>
  </city>
  <city name="Armento">
    <latitude>40.3</latitude>
    <longitude>16.066667</longitude>
  </city>
  <city name="Armo">
    <latitude>38.083333</latitude>
    <longitude>15.733333</longitude>
  </city>
  <city name="Armungia">
    <latitude>39.523333</latitude>
    <longitude>9.380833</longitude>
  </city>
  <city name="Arnara">
    <latitude>41.583333</latitude>
    <longitude>13.383333</longitude>
  </city>
  <city name="Arnauds">
    <latitude>45.066667</latitude>
    <longitude>6.683333</longitude>
  </city>
  <city name="Arnaz">
    <latitude>45.633333</latitude>
    <longitude>7.716667</longitude>
  </city>
  <city name="Arnesano">
    <latitude>40.333333</latitude>
    <longitude>18.083333</longitude>
  </city>
  <city name="Arni">
    <latitude>44.066667</latitude>
    <longitude>10.25</longitude>
  </city>
  <city name="Arnoga">
    <latitude>46.466667</latitude>
    <longitude>10.166667</longitude>
  </city>
  <city name="Arnone">
    <latitude>41.066667</latitude>
    <longitude>14.033333</longitude>
  </city>
  <city name="Arola">
    <latitude>40.633333</latitude>
    <longitude>14.433333</longitude>
  </city>
  <city name="Arona">
    <latitude>45.766667</latitude>
    <longitude>8.566667</longitude>
  </city>
  <city name="Arosio">
    <latitude>45.7</latitude>
    <longitude>9.2</longitude>
  </city>
  <city name="Arpaia">
    <latitude>41.033333</latitude>
    <longitude>14.55</longitude>
  </city>
  <city name="Arpaise">
    <latitude>41.033333</latitude>
    <longitude>14.733333</longitude>
  </city>
  <city name="Arpesina">
    <latitude>44.933333</latitude>
    <longitude>9.116667</longitude>
  </city>
  <city name="Arpino">
    <latitude>41.65</latitude>
    <longitude>13.6</longitude>
  </city>
  <city name="Arpiola">
    <latitude>44.316667</latitude>
    <longitude>9.9</longitude>
  </city>
  <city name="Arqua Petrarca">
    <latitude>45.266667</latitude>
    <longitude>11.716667</longitude>
  </city>
  <city name="Arquata">
    <latitude>44.683333</latitude>
    <longitude>8.883333</longitude>
  </city>
  <city name="Arquata del Tronto">
    <latitude>42.766667</latitude>
    <longitude>13.3</longitude>
  </city>
  <city name="Arquata Scrivia">
    <latitude>44.683333</latitude>
    <longitude>8.883333</longitude>
  </city>
  <city name="Arquata Serivia">
    <latitude>44.683333</latitude>
    <longitude>8.883333</longitude>
  </city>
  <city name="Arre">
    <latitude>45.216667</latitude>
    <longitude>11.933333</longitude>
  </city>
  <city name="Arresi">
    <latitude>39.001944</latitude>
    <longitude>8.641389</longitude>
  </city>
  <city name="Arrone">
    <latitude>42.583333</latitude>
    <longitude>12.766667</longitude>
  </city>
  <city name="Arsago">
    <latitude>45.683333</latitude>
    <longitude>8.733333</longitude>
  </city>
  <city name="Arsago Seprio">
    <latitude>45.683333</latitude>
    <longitude>8.733333</longitude>
  </city>
  <city name="Arsego">
    <latitude>45.533333</latitude>
    <longitude>11.866667</longitude>
  </city>
  <city name="Arsenti Podere Mont">
    <latitude>43.066667</latitude>
    <longitude>10.9</longitude>
  </city>
  <city name="Arsiè">
    <latitude>45.983333</latitude>
    <longitude>11.75</longitude>
  </city>
  <city name="Arsiera">
    <latitude>46.373333</latitude>
    <longitude>12.2275</longitude>
  </city>
  <city name="Arsiero">
    <latitude>45.8</latitude>
    <longitude>11.35</longitude>
  </city>
  <city name="Arsita">
    <latitude>42.5</latitude>
    <longitude>13.783333</longitude>
  </city>
  <city name="Arsoli">
    <latitude>42.033333</latitude>
    <longitude>13.016667</longitude>
  </city>
  <city name="Arta">
    <latitude>46.476944</latitude>
    <longitude>13.030833</longitude>
  </city>
  <city name="Artallo">
    <latitude>43.9</latitude>
    <longitude>8.0</longitude>
  </city>
  <city name="Artana">
    <latitude>44.65</latitude>
    <longitude>9.216667</longitude>
  </city>
  <city name="Arta Terme">
    <latitude>46.476944</latitude>
    <longitude>13.030833</longitude>
  </city>
  <city name="Artegna">
    <latitude>46.2325</latitude>
    <longitude>13.112778</longitude>
  </city>
  <city name="Artemisio">
    <latitude>42.6</latitude>
    <longitude>13.866667</longitude>
  </city>
  <city name="Artena">
    <latitude>41.733333</latitude>
    <longitude>12.916667</longitude>
  </city>
  <city name="Arten">
    <latitude>46.0</latitude>
    <longitude>11.833333</longitude>
  </city>
  <city name="Arteselle">
    <latitude>45.183333</latitude>
    <longitude>11.766667</longitude>
  </city>
  <city name="Artimino">
    <latitude>43.783333</latitude>
    <longitude>11.05</longitude>
  </city>
  <city name="Artogna Campo">
    <latitude>45.783333</latitude>
    <longitude>7.95</longitude>
  </city>
  <city name="Artogne">
    <latitude>45.85</latitude>
    <longitude>10.166667</longitude>
  </city>
  <city name="Arviè">
    <latitude>45.7</latitude>
    <longitude>7.183333</longitude>
  </city>
  <city name="Arvier">
    <latitude>45.7</latitude>
    <longitude>7.183333</longitude>
  </city>
  <city name="Arzachena">
    <latitude>41.083333</latitude>
    <longitude>9.383333</longitude>
  </city>
  <city name="Arzana">
    <latitude>39.919722</latitude>
    <longitude>9.526944</longitude>
  </city>
  <city name="Arzano">
    <latitude>40.916667</latitude>
    <longitude>14.266667</longitude>
  </city>
  <city name="Arzarello">
    <latitude>45.274167</latitude>
    <longitude>12.004167</longitude>
  </city>
  <city name="Arzene">
    <latitude>46.004722</latitude>
    <longitude>12.846389</longitude>
  </city>
  <city name="Arzeno">
    <latitude>44.35</latitude>
    <longitude>9.466667</longitude>
  </city>
  <city name="Arzenutto">
    <latitude>46.016667</latitude>
    <longitude>12.866667</longitude>
  </city>
  <city name="Arzercavalli">
    <latitude>45.25</latitude>
    <longitude>11.933333</longitude>
  </city>
  <city name="Arzergrande">
    <latitude>45.266667</latitude>
    <longitude>12.0475</longitude>
  </city>
  <city name="Arzeri di Sopra">
    <latitude>45.7</latitude>
    <longitude>12.55</longitude>
  </city>
  <city name="Arzignano">
    <latitude>45.516667</latitude>
    <longitude>11.333333</longitude>
  </city>
  <city name="Arzona">
    <latitude>38.633333</latitude>
    <longitude>16.05</longitude>
  </city>
  <city name="Ascagnano">
    <latitude>43.25</latitude>
    <longitude>12.383333</longitude>
  </city>
  <city name="Ascea">
    <latitude>40.133333</latitude>
    <longitude>15.183333</longitude>
  </city>
  <city name="Aschi">
    <latitude>41.966667</latitude>
    <longitude>13.733333</longitude>
  </city>
  <city name="Aschio">
    <latitude>42.966667</latitude>
    <longitude>13.05</longitude>
  </city>
  <city name="Asciano">
    <latitude>43.233333</latitude>
    <longitude>11.55</longitude>
  </city>
  <city name="Ascoli">
    <latitude>42.85</latitude>
    <longitude>13.566667</longitude>
  </city>
  <city name="Ascoli Piceno">
    <latitude>42.85</latitude>
    <longitude>13.566667</longitude>
  </city>
  <city name="Ascoli Satriano">
    <latitude>41.2</latitude>
    <longitude>15.566667</longitude>
  </city>
  <city name="Ascrea">
    <latitude>42.2</latitude>
    <longitude>13.0</longitude>
  </city>
  <city name="Aselogna">
    <latitude>45.166667</latitude>
    <longitude>11.25</longitude>
  </city>
  <city name="Asiago">
    <latitude>45.866667</latitude>
    <longitude>11.5</longitude>
  </city>
  <city name="Asola">
    <latitude>45.216667</latitude>
    <longitude>10.4</longitude>
  </city>
  <city name="Asolo">
    <latitude>45.8</latitude>
    <longitude>11.9</longitude>
  </city>
  <city name="Asproli">
    <latitude>42.75</latitude>
    <longitude>12.35</longitude>
  </city>
  <city name="Asseggiano">
    <latitude>45.483333</latitude>
    <longitude>12.183333</longitude>
  </city>
  <city name="Assèmini">
    <latitude>39.290556</latitude>
    <longitude>8.996944</longitude>
  </city>
  <city name="Assergi">
    <latitude>42.416667</latitude>
    <longitude>13.5</longitude>
  </city>
  <city name="Assero">
    <latitude>37.616667</latitude>
    <longitude>14.416667</longitude>
  </city>
  <city name="Assieni">
    <latitude>38.05</latitude>
    <longitude>12.683333</longitude>
  </city>
  <city name="Assisi">
    <latitude>43.066667</latitude>
    <longitude>12.616667</longitude>
  </city>
  <city name="Asso">
    <latitude>45.866667</latitude>
    <longitude>9.266667</longitude>
  </city>
  <city name="Assolo">
    <latitude>39.810278</latitude>
    <longitude>8.919444</longitude>
  </city>
  <city name="Assoro">
    <latitude>37.616667</latitude>
    <longitude>14.416667</longitude>
  </city>
  <city name="Astfeld">
    <latitude>46.666667</latitude>
    <longitude>11.366667</longitude>
  </city>
  <city name="Asti">
    <latitude>44.9</latitude>
    <longitude>8.2</longitude>
  </city>
  <city name="Asuai">
    <latitude>40.0</latitude>
    <longitude>9.216667</longitude>
  </city>
  <city name="Asuni">
    <latitude>39.872778</latitude>
    <longitude>8.946111</longitude>
  </city>
  <city name="Ateleta">
    <latitude>41.85</latitude>
    <longitude>14.2</longitude>
  </city>
  <city name="Atella">
    <latitude>40.866667</latitude>
    <longitude>15.65</longitude>
  </city>
  <city name="Atena">
    <latitude>40.45</latitude>
    <longitude>15.55</longitude>
  </city>
  <city name="Atena Lucana">
    <latitude>40.45</latitude>
    <longitude>15.55</longitude>
  </city>
  <city name="Atena Lucano">
    <latitude>40.45</latitude>
    <longitude>15.55</longitude>
  </city>
  <city name="Atessa">
    <latitude>42.066667</latitude>
    <longitude>14.45</longitude>
  </city>
  <city name="Atina">
    <latitude>41.616667</latitude>
    <longitude>13.8</longitude>
  </city>
  <city name="Atolia">
    <latitude>38.083333</latitude>
    <longitude>15.45</longitude>
  </city>
  <city name="Atrani">
    <latitude>40.633333</latitude>
    <longitude>14.616667</longitude>
  </city>
  <city name="Atri">
    <latitude>42.583333</latitude>
    <longitude>13.966667</longitude>
  </city>
  <city name="Atripalda">
    <latitude>40.916667</latitude>
    <longitude>14.833333</longitude>
  </city>
  <city name="Attiggio">
    <latitude>43.316667</latitude>
    <longitude>12.916667</longitude>
  </city>
  <city name="Attigliano">
    <latitude>42.516667</latitude>
    <longitude>12.283333</longitude>
  </city>
  <city name="Attilia">
    <latitude>39.183333</latitude>
    <longitude>16.866667</longitude>
  </city>
  <city name="Attimis">
    <latitude>46.188611</latitude>
    <longitude>13.315278</longitude>
  </city>
  <city name="Atzara">
    <latitude>39.991389</latitude>
    <longitude>9.078056</longitude>
  </city>
  <city name="Auditore">
    <latitude>43.733333</latitude>
    <longitude>12.566667</longitude>
  </city>
  <city name="Augusta">
    <latitude>37.216667</latitude>
    <longitude>15.216667</longitude>
  </city>
  <city name="Augusta Taurinorum">
    <latitude>45.05</latitude>
    <longitude>7.666667</longitude>
  </city>
  <city name="Auletta">
    <latitude>40.566667</latitude>
    <longitude>15.416667</longitude>
  </city>
  <city name="Aulla">
    <latitude>44.2</latitude>
    <longitude>9.966667</longitude>
  </city>
  <city name="Aulpi">
    <latitude>41.266667</latitude>
    <longitude>13.9</longitude>
  </city>
  <city name="Auna di Sopra">
    <latitude>46.55</latitude>
    <longitude>11.4</longitude>
  </city>
  <city name="Auna di Sotto">
    <latitude>46.516667</latitude>
    <longitude>11.433333</longitude>
  </city>
  <city name="Aunede">
    <latitude>46.432778</latitude>
    <longitude>12.293056</longitude>
  </city>
  <city name="Aupa">
    <latitude>46.506667</latitude>
    <longitude>13.252222</longitude>
  </city>
  <city name="Aurava">
    <latitude>46.038333</latitude>
    <longitude>12.883611</longitude>
  </city>
  <city name="Aurelia">
    <latitude>42.133333</latitude>
    <longitude>11.783333</longitude>
  </city>
  <city name="Aurighi">
    <latitude>43.95</latitude>
    <longitude>7.816667</longitude>
  </city>
  <city name="Aurigo">
    <latitude>43.983333</latitude>
    <longitude>7.916667</longitude>
  </city>
  <city name="Auri Grande">
    <latitude>45.683333</latitude>
    <longitude>7.133333</longitude>
  </city>
  <city name="Aurisina">
    <latitude>45.7475</latitude>
    <longitude>13.678611</longitude>
  </city>
  <city name="Aurisina Case">
    <latitude>45.749167</latitude>
    <longitude>13.670556</longitude>
  </city>
  <city name="Auronzo">
    <latitude>46.555556</latitude>
    <longitude>12.438056</longitude>
  </city>
  <city name="Auronzo di Cadore">
    <latitude>46.555556</latitude>
    <longitude>12.438056</longitude>
  </city>
  <city name="Áusa-Corno">
    <latitude>45.758056</latitude>
    <longitude>13.238056</longitude>
  </city>
  <city name="Ausonia">
    <latitude>41.35</latitude>
    <longitude>13.75</longitude>
  </city>
  <city name="Austis">
    <latitude>40.066667</latitude>
    <longitude>9.083333</longitude>
  </city>
  <city name="Autagne">
    <latitude>44.983333</latitude>
    <longitude>6.816667</longitude>
  </city>
  <city name="Auzate">
    <latitude>45.733333</latitude>
    <longitude>8.416667</longitude>
  </city>
  <city name="Avacelli">
    <latitude>43.466667</latitude>
    <longitude>12.983333</longitude>
  </city>
  <city name="Avaglio">
    <latitude>46.436389</latitude>
    <longitude>12.915278</longitude>
  </city>
  <city name="Avasinis">
    <latitude>46.290833</latitude>
    <longitude>13.0475</longitude>
  </city>
  <city name="Avausa">
    <latitude>46.521944</latitude>
    <longitude>12.824722</longitude>
  </city>
  <city name="Aveacco">
    <latitude>46.175278</latitude>
    <longitude>13.1325</longitude>
  </city>
  <city name="Aveggio">
    <latitude>44.366667</latitude>
    <longitude>9.3</longitude>
  </city>
  <city name="Ave Gratia Plena">
    <latitude>41.133333</latitude>
    <longitude>14.4</longitude>
  </city>
  <city name="Avelengo">
    <latitude>46.633333</latitude>
    <longitude>11.216667</longitude>
  </city>
  <city name="Avella">
    <latitude>40.966667</latitude>
    <longitude>14.6</longitude>
  </city>
  <city name="Avellino">
    <latitude>40.9</latitude>
    <longitude>14.783333</longitude>
  </city>
  <city name="Avena">
    <latitude>39.866667</latitude>
    <longitude>15.916667</longitude>
  </city>
  <city name="Avenale">
    <latitude>43.35</latitude>
    <longitude>13.233333</longitude>
  </city>
  <city name="Avendita">
    <latitude>42.75</latitude>
    <longitude>13.033333</longitude>
  </city>
  <city name="Avenza">
    <latitude>44.05</latitude>
    <longitude>10.066667</longitude>
  </city>
  <city name="Averara">
    <latitude>45.983333</latitude>
    <longitude>9.633333</longitude>
  </city>
  <city name="Aversa">
    <latitude>40.966667</latitude>
    <longitude>14.2</longitude>
  </city>
  <city name="Avert d' Ingherina">
    <latitude>46.233333</latitude>
    <longitude>9.283333</longitude>
  </city>
  <city name="Avert d'Inghirina">
    <latitude>46.233333</latitude>
    <longitude>9.283333</longitude>
  </city>
  <city name="Avesa">
    <latitude>45.466667</latitude>
    <longitude>11.0</longitude>
  </city>
  <city name="Avetrana">
    <latitude>40.35</latitude>
    <longitude>17.716667</longitude>
  </city>
  <city name="Avezzano">
    <latitude>42.033333</latitude>
    <longitude>13.416667</longitude>
  </city>
  <city name="Aviano">
    <latitude>46.070556</latitude>
    <longitude>12.594722</longitude>
  </city>
  <city name="Aviano-Castello">
    <latitude>46.052778</latitude>
    <longitude>12.561389</longitude>
  </city>
  <city name="Avigliana">
    <latitude>45.083333</latitude>
    <longitude>7.383333</longitude>
  </city>
  <city name="Avigliano">
    <latitude>40.733333</latitude>
    <longitude>15.716667</longitude>
  </city>
  <city name="Avigliano Lucana">
    <latitude>40.733333</latitude>
    <longitude>15.716667</longitude>
  </city>
  <city name="Avigna">
    <latitude>46.566667</latitude>
    <longitude>11.35</longitude>
  </city>
  <city name="Avilla">
    <latitude>42.65</latitude>
    <longitude>13.7</longitude>
  </city>
  <city name="Avio">
    <latitude>45.733333</latitude>
    <longitude>10.933333</longitude>
  </city>
  <city name="Avola">
    <latitude>36.9</latitude>
    <longitude>15.133333</longitude>
  </city>
  <city name="Avolasio">
    <latitude>45.883333</latitude>
    <longitude>9.516667</longitude>
  </city>
  <city name="Ayasse Grauson">
    <latitude>45.633333</latitude>
    <longitude>7.383333</longitude>
  </city>
  <city name="Aymaville">
    <latitude>45.7</latitude>
    <longitude>7.233333</longitude>
  </city>
  <city name="Aymavilles">
    <latitude>45.7</latitude>
    <longitude>7.233333</longitude>
  </city>
  <city name="Azeglio">
    <latitude>45.416667</latitude>
    <longitude>8.0</longitude>
  </city>
  <city name="Azienda le Trezze">
    <latitude>45.55</latitude>
    <longitude>12.45</longitude>
  </city>
  <city name="Azienda Piave - Isonzo">
    <latitude>45.548056</latitude>
    <longitude>12.613056</longitude>
  </city>
  <city name="Azzanello">
    <latitude>45.823056</latitude>
    <longitude>12.646667</longitude>
  </city>
  <city name="Azzano">
    <latitude>46.034167</latitude>
    <longitude>13.404167</longitude>
  </city>
  <city name="Azzano Decimo">
    <latitude>45.883056</latitude>
    <longitude>12.713056</longitude>
  </city>
  <city name="Azzate">
    <latitude>45.783333</latitude>
    <longitude>8.8</longitude>
  </city>
  <city name="Azzida">
    <latitude>46.110556</latitude>
    <longitude>13.485278</longitude>
  </city>
  <city name="Azzone">
    <latitude>45.983333</latitude>
    <longitude>10.116667</longitude>
  </city>
  <city name="Baccano">
    <latitude>42.916667</latitude>
    <longitude>12.233333</longitude>
  </city>
  <city name="Bacciolino">
    <latitude>44.030833</latitude>
    <longitude>12.184444</longitude>
  </city>
  <city name="Bacedasco">
    <latitude>44.85</latitude>
    <longitude>9.9</longitude>
  </city>
  <city name="Baceno">
    <latitude>46.266667</latitude>
    <longitude>8.316667</longitude>
  </city>
  <city name="Bacezza">
    <latitude>44.320278</latitude>
    <longitude>9.313611</longitude>
  </city>
  <city name="Bacoli">
    <latitude>40.8</latitude>
    <longitude>14.083333</longitude>
  </city>
  <city name="Bacu Abis">
    <latitude>39.243611</latitude>
    <longitude>8.461944</longitude>
  </city>
  <city name="Bacugno">
    <latitude>42.533333</latitude>
    <longitude>13.116667</longitude>
  </city>
  <city name="Badaiuz">
    <latitude>46.4425</latitude>
    <longitude>13.1775</longitude>
  </city>
  <city name="Badalucco">
    <latitude>43.916667</latitude>
    <longitude>7.85</longitude>
  </city>
  <city name="Badde Salighes">
    <latitude>40.35</latitude>
    <longitude>8.883333</longitude>
  </city>
  <city name="Baddes Sálighes">
    <latitude>40.35</latitude>
    <longitude>8.883333</longitude>
  </city>
  <city name="Badesi">
    <latitude>40.966667</latitude>
    <longitude>8.883333</longitude>
  </city>
  <city name="Badessa">
    <latitude>42.35</latitude>
    <longitude>14.033333</longitude>
  </city>
  <city name="Badesse">
    <latitude>43.383333</latitude>
    <longitude>11.266667</longitude>
  </city>
  <city name="Badia Agnano">
    <latitude>43.433333</latitude>
    <longitude>11.65</longitude>
  </city>
  <city name="Badia al Fiolo">
    <latitude>43.316667</latitude>
    <longitude>12.616667</longitude>
  </city>
  <city name="Badia a Pratáglia">
    <latitude>43.783333</latitude>
    <longitude>11.866667</longitude>
  </city>
  <city name="Badia a Ruoti">
    <latitude>43.4</latitude>
    <longitude>11.6</longitude>
  </city>
  <city name="Badia">
    <latitude>42.083333</latitude>
    <longitude>13.916667</longitude>
  </city>
  <city name="Badia Calavena">
    <latitude>45.566667</latitude>
    <longitude>11.15</longitude>
  </city>
  <city name="Badia Cantignano">
    <latitude>43.8</latitude>
    <longitude>10.5</longitude>
  </city>
  <city name="Badia di Santo Spírito">
    <latitude>42.083333</latitude>
    <longitude>13.916667</longitude>
  </city>
  <city name="Badia di Voltre">
    <latitude>44.034444</latitude>
    <longitude>12.040833</longitude>
  </city>
  <city name="Badia Morronese">
    <latitude>42.083333</latitude>
    <longitude>13.916667</longitude>
  </city>
  <city name="Badia Nuova">
    <latitude>44.15</latitude>
    <longitude>11.2</longitude>
  </city>
  <city name="Badia Pavese">
    <latitude>45.116667</latitude>
    <longitude>9.483333</longitude>
  </city>
  <city name="Badia Polesine">
    <latitude>45.083333</latitude>
    <longitude>11.483333</longitude>
  </city>
  <city name="Badia Prataglia">
    <latitude>43.783333</latitude>
    <longitude>11.866667</longitude>
  </city>
  <city name="Badia Tebalda">
    <latitude>43.7</latitude>
    <longitude>12.183333</longitude>
  </city>
  <city name="Badia Tedalda">
    <latitude>43.7</latitude>
    <longitude>12.183333</longitude>
  </city>
  <city name="Badia Vecchia">
    <latitude>38.0</latitude>
    <longitude>15.1</longitude>
  </city>
  <city name="Badiazza">
    <latitude>38.216667</latitude>
    <longitude>15.533333</longitude>
  </city>
  <city name="Badino">
    <latitude>41.283333</latitude>
    <longitude>13.2</longitude>
  </city>
  <city name="Badiola al Fango">
    <latitude>42.783333</latitude>
    <longitude>10.966667</longitude>
  </city>
  <city name="Badiola">
    <latitude>43.583333</latitude>
    <longitude>11.516667</longitude>
  </city>
  <city name="Badoara">
    <latitude>45.016667</latitude>
    <longitude>11.95</longitude>
  </city>
  <city name="Badoere">
    <latitude>45.635278</latitude>
    <longitude>12.083333</longitude>
  </city>
  <city name="Badolato">
    <latitude>38.566667</latitude>
    <longitude>16.516667</longitude>
  </city>
  <city name="Badolato Stazione">
    <latitude>38.566667</latitude>
    <longitude>16.566667</longitude>
  </city>
  <city name="Badolo">
    <latitude>44.366667</latitude>
    <longitude>11.283333</longitude>
  </city>
  <city name="Baffi">
    <latitude>39.583333</latitude>
    <longitude>16.3</longitude>
  </city>
  <city name="Bafia">
    <latitude>38.066667</latitude>
    <longitude>15.2</longitude>
  </city>
  <city name="Bagaggiolo">
    <latitude>45.569444</latitude>
    <longitude>12.411667</longitude>
  </city>
  <city name="Bagaladi">
    <latitude>38.016667</latitude>
    <longitude>15.816667</longitude>
  </city>
  <city name="Bagarotto">
    <latitude>44.966667</latitude>
    <longitude>9.916667</longitude>
  </city>
  <city name="Baggio">
    <latitude>45.45</latitude>
    <longitude>9.083333</longitude>
  </city>
  <city name="Bagheria">
    <latitude>38.083333</latitude>
    <longitude>13.5</longitude>
  </city>
  <city name="Bagini">
    <latitude>46.083333</latitude>
    <longitude>9.65</longitude>
  </city>
  <city name="Baglio Biro">
    <latitude>38.1</latitude>
    <longitude>12.733333</longitude>
  </city>
  <city name="Baglio d'Inferno">
    <latitude>37.816667</latitude>
    <longitude>12.55</longitude>
  </city>
  <city name="Baglio Guarine">
    <latitude>37.866667</latitude>
    <longitude>12.666667</longitude>
  </city>
  <city name="Baglio Guttaja">
    <latitude>37.766667</latitude>
    <longitude>12.666667</longitude>
  </city>
  <city name="Baglio Inferno">
    <latitude>37.816667</latitude>
    <longitude>12.55</longitude>
  </city>
  <city name="Baglio Manzo">
    <latitude>37.85</latitude>
    <longitude>12.516667</longitude>
  </city>
  <city name="Baglio Messina">
    <latitude>38.083333</latitude>
    <longitude>12.716667</longitude>
  </city>
  <city name="Baglio Messinello">
    <latitude>37.816667</latitude>
    <longitude>12.666667</longitude>
  </city>
  <city name="Baglio Perino">
    <latitude>37.816667</latitude>
