<?xml version="1.0" encoding="UTF-8"?>
<country code="ke" name="Kenya">
  <city name="Abarat">
    <latitude>-0.5747222</latitude>
    <longitude>39.7347222</longitude>
  </city>
  <city name="Abarati">
    <latitude>-0.5747222</latitude>
    <longitude>39.7347222</longitude>
  </city>
  <city name="Abarot">
    <latitude>-0.5747222</latitude>
    <longitude>39.7347222</longitude>
  </city>
  <city name="Achivwa">
    <latitude>-3.7666667</latitude>
    <longitude>39.15</longitude>
  </city>
  <city name="Ada">
    <latitude>-4.2</latitude>
    <longitude>39.0833333</longitude>
  </city>
  <city name="Adda">
    <latitude>-4.2</latitude>
    <longitude>39.0833333</longitude>
  </city>
  <city name="Adu">
    <latitude>-2.845</latitude>
    <longitude>39.9927778</longitude>
  </city>
  <city name="Ahero">
    <latitude>-0.1833333</latitude>
    <longitude>34.9166667</longitude>
  </city>
  <city name="Ainamoi">
    <latitude>-0.3</latitude>
    <longitude>35.2833333</longitude>
  </city>
  <city name="Ainemoi">
    <latitude>-0.3</latitude>
    <longitude>35.2833333</longitude>
  </city>
  <city name="Aisere">
    <latitude>0.2333333</latitude>
    <longitude>34.7</longitude>
  </city>
  <city name="Ajao">
    <latitude>2.95</latitude>
    <longitude>39.7</longitude>
  </city>
  <city name="Akala">
    <latitude>-0.0666667</latitude>
    <longitude>34.4333333</longitude>
  </city>
  <city name="Akelo's Village">
    <latitude>-0.6333333</latitude>
    <longitude>34.5833333</longitude>
  </city>
  <city name="Alangarua">
    <latitude>-2.0833333</latitude>
    <longitude>36.1166667</longitude>
  </city>
  <city name="Amakura">
    <latitude>0.5705556</latitude>
    <longitude>34.2719444</longitude>
  </city>
  <city name="Ambira">
    <latitude>0.1775</latitude>
    <longitude>34.2738889</longitude>
  </city>
  <city name="Amboseli">
    <latitude>-2.6666667</latitude>
    <longitude>37.2833333</longitude>
  </city>
  <city name="Amimos">
    <latitude>-0.1833333</latitude>
    <longitude>34.8</longitude>
  </city>
  <city name="Amu">
    <latitude>-2.2783333</latitude>
    <longitude>40.9033333</longitude>
  </city>
  <city name="Amukara">
    <latitude>0.5705556</latitude>
    <longitude>34.2719444</longitude>
  </city>
  <city name="Amukura">
    <latitude>0.5705556</latitude>
    <longitude>34.2719444</longitude>
  </city>
  <city name="Anasa">
    <latitude>-2.5241667</latitude>
    <longitude>40.3069444</longitude>
  </city>
  <city name="Andiwo's Village">
    <latitude>-0.5166667</latitude>
    <longitude>34.7</longitude>
  </city>
  <city name="Aneko">
    <latitude>-0.95</latitude>
    <longitude>34.15</longitude>
  </city>
  <city name="Angara Naado">
    <latitude>-1.25</latitude>
    <longitude>35.9833333</longitude>
  </city>
  <city name="Angata Naado">
    <latitude>-1.25</latitude>
    <longitude>35.9833333</longitude>
  </city>
  <city name="Anglogitat">
    <latitude>1.95</latitude>
    <longitude>35.4166667</longitude>
  </city>
  <city name="Angorangora">
    <latitude>2.6333333</latitude>
    <longitude>35.4</longitude>
  </city>
  <city name="Anio">
    <latitude>3.3319444</latitude>
    <longitude>39.7913889</longitude>
  </city>
  <city name="Ankish">
    <latitude>-1.9627778</latitude>
    <longitude>40.8697222</longitude>
  </city>
  <city name="Anyieka">
    <latitude>0.2333333</latitude>
    <longitude>34.2666667</longitude>
  </city>
  <city name="Arabia">
    <latitude>3.5255556</latitude>
    <longitude>41.5044444</longitude>
  </city>
  <city name="Arabuko">
    <latitude>-3.25</latitude>
    <longitude>39.9666667</longitude>
  </city>
  <city name="Archers Post">
    <latitude>0.65</latitude>
    <longitude>37.6833333</longitude>
  </city>
  <city name="Arda Dadaja">
    <latitude>2.9097222</latitude>
    <longitude>41.0563889</longitude>
  </city>
  <city name="Ariti">
    <latitude>-2.5166667</latitude>
    <longitude>40.3</longitude>
  </city>
  <city name="Arosen">
    <latitude>-1.95</latitude>
    <longitude>40.7166667</longitude>
  </city>
  <city name="Arwos">
    <latitude>0.2</latitude>
    <longitude>35.2333333</longitude>
  </city>
  <city name="Asa">
    <latitude>-2.0833333</latitude>
    <longitude>39.4333333</longitude>
  </city>
  <city name="Asawo">
    <latitude>-0.3333333</latitude>
    <longitude>35.0</longitude>
  </city>
  <city name="Asembo">
    <latitude>-0.1833333</latitude>
    <longitude>34.3833333</longitude>
  </city>
  <city name="Ashuwei">
    <latitude>-1.9333333</latitude>
    <longitude>41.3166667</longitude>
  </city>
  <city name="Assa">
    <latitude>-2.0833333</latitude>
    <longitude>39.4333333</longitude>
  </city>
  <city name="Assawa">
    <latitude>-0.3333333</latitude>
    <longitude>35.0</longitude>
  </city>
  <city name="Athi">
    <latitude>-2.2</latitude>
    <longitude>38.05</longitude>
  </city>
  <city name="Athinai">
    <latitude>-0.0666667</latitude>
    <longitude>35.9833333</longitude>
  </city>
  <city name="Athi New Bridge">
    <latitude>-2.2</latitude>
    <longitude>38.05</longitude>
  </city>
  <city name="Athi River">
    <latitude>-1.45</latitude>
    <longitude>36.9833333</longitude>
  </city>
  <city name="Awach Tende">
    <latitude>-0.4833333</latitude>
    <longitude>34.6166667</longitude>
  </city>
  <city name="Awasi">
    <latitude>-0.1666667</latitude>
    <longitude>35.0666667</longitude>
  </city>
  <city name="Awino">
    <latitude>-0.55</latitude>
    <longitude>34.4333333</longitude>
  </city>
  <city name="Awundo's Village">
    <latitude>-0.6333333</latitude>
    <longitude>34.5833333</longitude>
  </city>
  <city name="Ayugis">
    <latitude>-0.7333333</latitude>
    <longitude>34.5833333</longitude>
  </city>
  <city name="Bahadale">
    <latitude>-0.0430556</latitude>
    <longitude>39.0711111</longitude>
  </city>
  <city name="Bahati">
    <latitude>-1.2833333</latitude>
    <longitude>36.85</longitude>
  </city>
  <city name="Bahati Settlement">
    <latitude>-0.15</latitude>
    <longitude>36.1166667</longitude>
  </city>
  <city name="Bajumali">
    <latitude>-2.0888889</latitude>
    <longitude>41.1472222</longitude>
  </city>
  <city name="Bajumwali">
    <latitude>-2.0888889</latitude>
    <longitude>41.1472222</longitude>
  </city>
  <city name="Balguda">
    <latitude>-1.4666667</latitude>
    <longitude>39.85</longitude>
  </city>
  <city name="Bamba">
    <latitude>-3.5333333</latitude>
    <longitude>39.5166667</longitude>
  </city>
  <city name="Bamburi">
    <latitude>-4.0</latitude>
    <longitude>39.7166667</longitude>
  </city>
  <city name="Banda Ra Salama">
    <latitude>-3.7833333</latitude>
    <longitude>39.7</longitude>
  </city>
  <city name="Bandari">
    <latitude>-3.4666667</latitude>
    <longitude>39.5333333</longitude>
  </city>
  <city name="Bandari La Salaama">
    <latitude>-3.7833333</latitude>
    <longitude>39.7</longitude>
  </city>
  <city name="Bandari la Salama">
    <latitude>-3.7833333</latitude>
    <longitude>39.7</longitude>
  </city>
  <city name="Bandari Ra Salama">
    <latitude>-3.7833333</latitude>
    <longitude>39.7</longitude>
  </city>
  <city name="Banga">
    <latitude>-4.1</latitude>
    <longitude>39.2333333</longitude>
  </city>
  <city name="Bania">
    <latitude>-3.9166667</latitude>
    <longitude>39.6333333</longitude>
  </city>
  <city name="Banissa">
    <latitude>3.9038889</latitude>
    <longitude>40.3322222</longitude>
  </city>
  <city name="Banya">
    <latitude>-3.9166667</latitude>
    <longitude>39.6333333</longitude>
  </city>
  <city name="Baomo">
    <latitude>-1.9305556</latitude>
    <longitude>40.135</longitude>
  </city>
  <city name="Baragoi">
    <latitude>1.7833333</latitude>
    <longitude>36.7833333</longitude>
  </city>
  <city name="Baragoli">
    <latitude>1.7833333</latitude>
    <longitude>36.7833333</longitude>
  </city>
  <city name="Baragulu">
    <latitude>0.0275</latitude>
    <longitude>34.3161111</longitude>
  </city>
  <city name="Bara Hoyo">
    <latitude>-3.9333333</latitude>
    <longitude>39.7666667</longitude>
  </city>
  <city name="Barane">
    <latitude>-3.5833333</latitude>
    <longitude>39.8333333</longitude>
  </city>
  <city name="Barani">
    <latitude>-3.5833333</latitude>
    <longitude>39.8333333</longitude>
  </city>
  <city name="Barata">
    <latitude>0.7</latitude>
    <longitude>38.3333333</longitude>
  </city>
  <city name="Barchuma Guda">
    <latitude>1.3833333</latitude>
    <longitude>38.2166667</longitude>
  </city>
  <city name="Bargoni">
    <latitude>-2.0488889</latitude>
    <longitude>40.8002778</longitude>
  </city>
  <city name="Baricho">
    <latitude>-0.55</latitude>
    <longitude>37.25</longitude>
  </city>
  <city name="Barigito">
    <latitude>-0.9333333</latitude>
    <longitude>36.8666667</longitude>
  </city>
  <city name="Barigoni">
    <latitude>-2.0488889</latitude>
    <longitude>40.8002778</longitude>
  </city>
  <city name="Baringo">
    <latitude>0.4666667</latitude>
    <longitude>35.9666667</longitude>
  </city>
  <city name="Barisho">
    <latitude>-0.55</latitude>
    <longitude>37.25</longitude>
  </city>
  <city name="Barkowino">
    <latitude>-0.1166667</latitude>
    <longitude>34.2666667</longitude>
  </city>
  <city name="Bar Olengo">
    <latitude>0.0</latitude>
    <longitude>34.2</longitude>
  </city>
  <city name="Baroseno">
    <latitude>0.1086111</latitude>
    <longitude>34.2816667</longitude>
  </city>
  <city name="Bartabwa">
    <latitude>0.8333333</latitude>
    <longitude>35.8</longitude>
  </city>
  <city name="Bartimaro">
    <latitude>-2.3</latitude>
    <longitude>36.7666667</longitude>
  </city>
  <city name="Bartolimo">
    <latitude>0.6833333</latitude>
    <longitude>35.8166667</longitude>
  </city>
  <city name="Barwesa">
    <latitude>0.7166667</latitude>
    <longitude>35.7333333</longitude>
  </city>
  <city name="Barwessa">
    <latitude>0.7166667</latitude>
    <longitude>35.7333333</longitude>
  </city>
  <city name="Bata">
    <latitude>-1.3666667</latitude>
    <longitude>41.2333333</longitude>
  </city>
  <city name="Batani">
    <latitude>-3.9</latitude>
    <longitude>39.6</longitude>
  </city>
  <city name="Baure">
    <latitude>-1.7166667</latitude>
    <longitude>40.9666667</longitude>
  </city>
  <city name="Bavigito">
    <latitude>-0.9333333</latitude>
    <longitude>36.8666667</longitude>
  </city>
  <city name="Baymo">
    <latitude>-1.9305556</latitude>
    <longitude>40.135</longitude>
  </city>
  <city name="Bazo">
    <latitude>-4.6666667</latitude>
    <longitude>39.2166667</longitude>
  </city>
  <city name="Belewa">
    <latitude>-3.95</latitude>
    <longitude>39.6333333</longitude>
  </city>
  <city name="Belle Vue">
    <latitude>-0.2333333</latitude>
    <longitude>36.7166667</longitude>
  </city>
  <city name="Benane">
    <latitude>0.5</latitude>
    <longitude>38.6666667</longitude>
  </city>
  <city name="Bengoni">
    <latitude>-3.6333333</latitude>
    <longitude>39.4333333</longitude>
  </city>
  <city name="Benhard Estate">
    <latitude>-1.2666667</latitude>
    <longitude>36.7666667</longitude>
  </city>
  <city name="Bernhard Estate">
    <latitude>-1.2666667</latitude>
    <longitude>36.7666667</longitude>
  </city>
  <city name="Berti Finno">
    <latitude>3.3708333</latitude>
    <longitude>41.4388889</longitude>
  </city>
  <city name="Besil">
    <latitude>-2.1</latitude>
    <longitude>36.7833333</longitude>
  </city>
  <city name="Bibitoli">
    <latitude>-2.8666667</latitude>
    <longitude>39.8833333</longitude>
  </city>
  <city name="Bili">
    <latitude>-0.6113889</latitude>
    <longitude>39.7152778</longitude>
  </city>
  <city name="Biretwo">
    <latitude>0.55</latitude>
    <longitude>35.55</longitude>
  </city>
  <city name="Birithia">
    <latitude>-0.5166667</latitude>
    <longitude>36.95</longitude>
  </city>
  <city name="Bisil">
    <latitude>-2.1</latitude>
    <longitude>36.7833333</longitude>
  </city>
  <city name="Bissel">
    <latitude>-2.1</latitude>
    <longitude>36.7833333</longitude>
  </city>
  <city name="Bodhei">
    <latitude>-1.8686111</latitude>
    <longitude>40.7275</longitude>
  </city>
  <city name="Bofu">
    <latitude>-3.9666667</latitude>
    <longitude>39.4333333</longitude>
  </city>
  <city name="Bohoni">
    <latitude>-1.3666667</latitude>
    <longitude>40.0</longitude>
  </city>
  <city name="Bokoni">
    <latitude>-1.3666667</latitude>
    <longitude>40.0</longitude>
  </city>
  <city name="Bole">
    <latitude>-0.55</latitude>
    <longitude>39.7</longitude>
  </city>
  <city name="Boma">
    <latitude>-0.5666667</latitude>
    <longitude>37.2833333</longitude>
  </city>
  <city name="Bomala">
    <latitude>0.305</latitude>
    <longitude>34.1994444</longitude>
  </city>
  <city name="Bomani">
    <latitude>-3.8666667</latitude>
    <longitude>39.75</longitude>
  </city>
  <city name="Boma Upande">
    <latitude>-3.0666667</latitude>
    <longitude>40.1166667</longitude>
  </city>
  <city name="Bomburia">
    <latitude>-0.5333333</latitude>
    <longitude>34.8666667</longitude>
  </city>
  <city name="Bomet">
    <latitude>-0.7833333</latitude>
    <longitude>35.35</longitude>
  </city>
  <city name="Bondo">
    <latitude>0.2386111</latitude>
    <longitude>34.2694444</longitude>
  </city>
  <city name="Bongonoko">
    <latitude>-0.7666667</latitude>
    <longitude>39.8</longitude>
  </city>
  <city name="Bonyunyu">
    <latitude>-0.5166667</latitude>
    <longitude>34.8833333</longitude>
  </city>
  <city name="Bora Imani">
    <latitude>-2.2</latitude>
    <longitude>40.8666667</longitude>
  </city>
  <city name="Borobini">
    <latitude>-2.4566667</latitude>
    <longitude>40.2025</longitude>
  </city>
  <city name="Boro">
    <latitude>0.0858333</latitude>
    <longitude>34.235</longitude>
  </city>
  <city name="Broderick Falls">
    <latitude>0.6166667</latitude>
    <longitude>34.7666667</longitude>
  </city>
  <city name="Bubesa">
    <latitude>-2.05</latitude>
    <longitude>40.1666667</longitude>
  </city>
  <city name="Buholo">
    <latitude>0.1888889</latitude>
    <longitude>34.3341667</longitude>
  </city>
  <city name="Buji Albati">
    <latitude>-2.95</latitude>
    <longitude>39.8166667</longitude>
  </city>
  <city name="Bujwane">
    <latitude>0.1166667</latitude>
    <longitude>34.0333333</longitude>
  </city>
  <city name="Bukangasi">
    <latitude>0.0833333</latitude>
    <longitude>34.0333333</longitude>
  </city>
  <city name="Bukatwavi">
    <latitude>-2.8166667</latitude>
    <longitude>39.9666667</longitude>
  </city>
  <city name="Bukoma">
    <latitude>0.0666667</latitude>
    <longitude>33.95</longitude>
  </city>
  <city name="Bulbul">
    <latitude>-1.3333333</latitude>
    <longitude>36.6833333</longitude>
  </city>
  <city name="Bulemia">
    <latitude>0.1166667</latitude>
    <longitude>34.0</longitude>
  </city>
  <city name="Bulungo">
    <latitude>0.0166667</latitude>
    <longitude>34.1</longitude>
  </city>
  <city name="Bulwani">
    <latitude>0.0138889</latitude>
    <longitude>34.0113889</longitude>
  </city>
  <city name="Bumala">
    <latitude>0.305</latitude>
    <longitude>34.1994444</longitude>
  </city>
  <city name="Bumburia">
    <latitude>-0.5333333</latitude>
    <longitude>34.8666667</longitude>
  </city>
  <city name="Bumudondo">
    <latitude>0.0666667</latitude>
    <longitude>34.0333333</longitude>
  </city>
  <city name="Bunaba">
    <latitude>0.0666667</latitude>
    <longitude>33.9666667</longitude>
  </city>
  <city name="Buna">
    <latitude>2.7886111</latitude>
    <longitude>39.5147222</longitude>
  </city>
  <city name="Bungoma">
    <latitude>0.5666667</latitude>
    <longitude>34.5666667</longitude>
  </city>
  <city name="Bungule">
    <latitude>-3.85</latitude>
    <longitude>38.6666667</longitude>
  </city>
  <city name="Bunyala">
    <latitude>0.1</latitude>
    <longitude>33.9666667</longitude>
  </city>
  <city name="Bunyore">
    <latitude>0.0833333</latitude>
    <longitude>34.6166667</longitude>
  </city>
  <city name="Bunyunya">
    <latitude>-0.5166667</latitude>
    <longitude>34.8833333</longitude>
  </city>
  <city name="Bura">
    <latitude>-1.0941667</latitude>
    <longitude>39.9533333</longitude>
  </city>
  <city name="Burgich">
    <latitude>1.9666667</latitude>
    <longitude>35.0833333</longitude>
  </city>
  <city name="Burji">
    <latitude>3.5166667</latitude>
    <longitude>39.0666667</longitude>
  </city>
  <city name="Burji Manyatta">
    <latitude>3.5166667</latitude>
    <longitude>39.0666667</longitude>
  </city>
  <city name="Bur Mayo">
    <latitude>2.9833333</latitude>
    <longitude>40.2666667</longitude>
  </city>
  <city name="Burti Fino">
    <latitude>3.3708333</latitude>
    <longitude>41.4388889</longitude>
  </city>
  <city name="Busa">
    <latitude>-4.1333333</latitude>
    <longitude>39.0666667</longitude>
  </city>
  <city name="Busho">
    <latitude>-3.9</latitude>
    <longitude>39.0666667</longitude>
  </city>
  <city name="Busia">
    <latitude>0.3936111</latitude>
    <longitude>34.3052778</longitude>
  </city>
  <city name="Busike">
    <latitude>0.0277778</latitude>
    <longitude>33.9922222</longitude>
  </city>
  <city name="Busonga">
    <latitude>0.1130556</latitude>
    <longitude>34.1044444</longitude>
  </city>
  <city name="Bute Helu">
    <latitude>2.8333333</latitude>
    <longitude>39.85</longitude>
  </city>
  <city name="Butelu">
    <latitude>2.8333333</latitude>
    <longitude>39.85</longitude>
  </city>
  <city name="Butere">
    <latitude>0.2094444</latitude>
    <longitude>34.4927778</longitude>
  </city>
  <city name="Butsotse">
    <latitude>0.35</latitude>
    <longitude>34.7</longitude>
  </city>
  <city name="Butsotso">
    <latitude>0.35</latitude>
    <longitude>34.7</longitude>
  </city>
  <city name="Buttelu">
    <latitude>2.8333333</latitude>
    <longitude>39.85</longitude>
  </city>
  <city name="Bwaga Cheti">
    <latitude>-4.5333333</latitude>
    <longitude>39.15</longitude>
  </city>
  <city name="Bwaga Macho">
    <latitude>-4.5333333</latitude>
    <longitude>39.15</longitude>
  </city>
  <city name="Bwagamoyo">
    <latitude>-3.95</latitude>
    <longitude>39.6333333</longitude>
  </city>
  <city name="Campi ya Bibi">
    <latitude>-3.4</latitude>
    <longitude>38.0333333</longitude>
  </city>
  <city name="Ceronge">
    <latitude>-0.45</latitude>
    <longitude>36.9666667</longitude>
  </city>
  <city name="Chabia">
    <latitude>-3.4833333</latitude>
    <longitude>38.35</longitude>
  </city>
  <city name="Chala">
    <latitude>-3.3166667</latitude>
    <longitude>37.7166667</longitude>
  </city>
  <city name="Chamagel">
    <latitude>-0.6833333</latitude>
    <longitude>35.1166667</longitude>
  </city>
  <city name="Chamasiri">
    <latitude>0.7358333</latitude>
    <longitude>34.3936111</longitude>
  </city>
  <city name="Chamwanamuma">
    <latitude>-2.5166667</latitude>
    <longitude>40.3</longitude>
  </city>
  <city name="Chanani">
    <latitude>-1.55</latitude>
    <longitude>40.05</longitude>
  </city>
  <city name="Changamatak">
    <latitude>2.6333333</latitude>
    <longitude>35.65</longitude>
  </city>
  <city name="Changamwe">
    <latitude>-4.0166667</latitude>
    <longitude>39.6333333</longitude>
  </city>
  <city name="Chathoro">
    <latitude>-2.5</latitude>
    <longitude>40.2666667</longitude>
  </city>
  <city name="Chathuru">
    <latitude>-2.5</latitude>
    <longitude>40.2666667</longitude>
  </city>
  <city name="Chawia">
    <latitude>-3.4833333</latitude>
    <longitude>38.35</longitude>
  </city>
  <city name="Chebara">
    <latitude>0.8833333</latitude>
    <longitude>35.5</longitude>
  </city>
  <city name="Cheberen">
    <latitude>0.2333333</latitude>
    <longitude>35.8333333</longitude>
  </city>
  <city name="Cheberia">
    <latitude>1.3166667</latitude>
    <longitude>35.2</longitude>
  </city>
  <city name="Chebiemit">
    <latitude>0.85</latitude>
    <longitude>35.5</longitude>
  </city>
  <city name="Cheboin">
    <latitude>0.3</latitude>
    <longitude>35.5333333</longitude>
  </city>
  <city name="Chegeini">
    <latitude>-1.05</latitude>
    <longitude>36.9166667</longitude>
  </city>
  <city name="Chehe">
    <latitude>-0.4</latitude>
    <longitude>37.2166667</longitude>
  </city>
  <city name="Chelebe">
    <latitude>0.8</latitude>
    <longitude>34.55</longitude>
  </city>
  <city name="Chelelemuk">
    <latitude>0.6916667</latitude>
    <longitude>34.3591667</longitude>
  </city>
  <city name="Chemagal">
    <latitude>-0.6833333</latitude>
    <longitude>35.1166667</longitude>
  </city>
  <city name="Chemagel">
    <latitude>-0.6833333</latitude>
    <longitude>35.1166667</longitude>
  </city>
  <city name="Chemaner">
    <latitude>-0.7833333</latitude>
    <longitude>35.5</longitude>
  </city>
  <city name="Chemasiri">
    <latitude>0.7358333</latitude>
    <longitude>34.3936111</longitude>
  </city>
  <city name="Chematu">
    <latitude>-1.5833333</latitude>
    <longitude>38.3666667</longitude>
  </city>
  <city name="Chemogoch">
    <latitude>0.0166667</latitude>
    <longitude>35.9333333</longitude>
  </city>
  <city name="Chemoigut">
    <latitude>0.6833333</latitude>
    <longitude>36.2</longitude>
  </city>
  <city name="Chemosiet">
    <latitude>-0.4666667</latitude>
    <longitude>35.1666667</longitude>
  </city>
  <city name="Chemosit">
    <latitude>-0.4666667</latitude>
    <longitude>35.1666667</longitude>
  </city>
  <city name="Chemosot">
    <latitude>-0.5</latitude>
    <longitude>35.1666667</longitude>
  </city>
  <city name="Chemosusu">
    <latitude>0.0833333</latitude>
    <longitude>35.6333333</longitude>
  </city>
  <city name="Chemuswa">
    <latitude>0.35</latitude>
    <longitude>35.1166667</longitude>
  </city>
  <city name="Chemuswo">
    <latitude>0.35</latitude>
    <longitude>35.1166667</longitude>
  </city>
  <city name="Chenani">
    <latitude>-1.55</latitude>
    <longitude>40.05</longitude>
  </city>
  <city name="Chengo">
    <latitude>-3.85</latitude>
    <longitude>39.7</longitude>
  </city>
  <city name="Chengoni">
    <latitude>-3.85</latitude>
    <longitude>39.7</longitude>
  </city>
  <city name="Chepareria">
    <latitude>1.3166667</latitude>
    <longitude>35.2</longitude>
  </city>
  <city name="Chepkesin">
    <latitude>0.8833333</latitude>
    <longitude>35.8833333</longitude>
  </city>
  <city name="Chepkorio">
    <latitude>0.3833333</latitude>
    <longitude>35.5333333</longitude>
  </city>
  <city name="Chepkum">
    <latitude>0.9833333</latitude>
    <longitude>35.6166667</longitude>
  </city>
  <city name="Cheptonge">
    <latitude>0.9333333</latitude>
    <longitude>35.5</longitude>
  </city>
  <city name="Chepunyal">
    <latitude>1.5</latitude>
    <longitude>35.1666667</longitude>
  </city>
  <city name="Cheronge">
    <latitude>-0.45</latitude>
    <longitude>36.9666667</longitude>
  </city>
  <city name="Chesakaki">
    <latitude>0.8</latitude>
    <longitude>34.5</longitude>
  </city>
  <city name="Chesoi">
    <latitude>1.0666667</latitude>
    <longitude>35.6</longitude>
  </city>
  <city name="Chevani">
    <latitude>-1.4166667</latitude>
    <longitude>40.0166667</longitude>
  </city>
  <city name="Chewani">
    <latitude>-1.4166667</latitude>
    <longitude>40.0166667</longitude>
  </city>
  <city name="Chewele">
    <latitude>-1.1666667</latitude>
    <longitude>39.9666667</longitude>
  </city>
  <city name="Chiananda">
    <latitude>-0.4166667</latitude>
    <longitude>37.6333333</longitude>
  </city>
  <city name="Chiba">
    <latitude>-0.6833333</latitude>
    <longitude>37.3333333</longitude>
  </city>
  <city name="Chidutani">
    <latitude>-3.7666667</latitude>
    <longitude>39.7166667</longitude>
  </city>
  <city name="Chieko">
    <latitude>-1.15</latitude>
    <longitude>36.6333333</longitude>
  </city>
  <city name="Chiffiri">
    <latitude>-1.2955556</latitude>
    <longitude>39.7233333</longitude>
  </city>
  <city name="Chifiri">
    <latitude>-1.2955556</latitude>
    <longitude>39.7233333</longitude>
  </city>
  <city name="Chingwede">
    <latitude>-4.5</latitude>
    <longitude>39.45</longitude>
  </city>
  <city name="Chiokarige">
    <latitude>-0.2666667</latitude>
    <longitude>37.9333333</longitude>
  </city>
  <city name="Chiromo">
    <latitude>-1.2666667</latitude>
    <longitude>36.8</longitude>
  </city>
  <city name="Chirte Hiyasa">
    <latitude>-2.1166667</latitude>
    <longitude>39.65</longitude>
  </city>
  <city name="Chirte Hiyesa">
    <latitude>-2.1166667</latitude>
    <longitude>39.65</longitude>
  </city>
  <city name="Choba">
    <latitude>2.4333333</latitude>
    <longitude>38.05</longitude>
  </city>
  <city name="Choke">
    <latitude>-3.3666667</latitude>
    <longitude>38.3833333</longitude>
  </city>
  <city name="Chomboni">
    <latitude>-1.9833333</latitude>
    <longitude>37.4166667</longitude>
  </city>
  <city name="Chomo">
    <latitude>-0.8833333</latitude>
    <longitude>36.8833333</longitude>
  </city>
  <city name="Chonye">
    <latitude>-3.7833333</latitude>
    <longitude>39.6833333</longitude>
  </city>
  <city name="Chonyi">
    <latitude>-3.7833333</latitude>
    <longitude>39.6833333</longitude>
  </city>
  <city name="Chororget">
    <latitude>0.4</latitude>
    <longitude>35.5833333</longitude>
  </city>
  <city name="Chui">
    <latitude>-0.6666667</latitude>
    <longitude>37.0166667</longitude>
  </city>
  <city name="Chuka">
    <latitude>-0.3333333</latitude>
    <longitude>37.65</longitude>
  </city>
  <city name="Chura">
    <latitude>-1.2166667</latitude>
    <longitude>36.7</longitude>
  </city>
  <city name="City Estate">
    <latitude>-1.2833333</latitude>
    <longitude>36.7666667</longitude>
  </city>
  <city name="Clema Dui">
    <latitude>-1.6</latitude>
    <longitude>39.5333333</longitude>
  </city>
  <city name="Cokereria">
    <latitude>-0.4333333</latitude>
    <longitude>36.35</longitude>
  </city>
  <city name="Colbio">
    <latitude>-1.1511111</latitude>
    <longitude>41.2172222</longitude>
  </city>
  <city name="Daba">
    <latitude>-1.5666667</latitude>
    <longitude>39.45</longitude>
  </city>
  <city name="Dabel">
    <latitude>3.0888889</latitude>
    <longitude>39.2741667</longitude>
  </city>
  <city name="Dabida">
    <latitude>-3.4166667</latitude>
    <longitude>38.3</longitude>
  </city>
  <city name="Dad Dogh">
    <latitude>0.7652778</latitude>
    <longitude>40.7836111</longitude>
  </city>
  <city name="Dagamra">
    <latitude>-3.1833333</latitude>
    <longitude>39.9333333</longitude>
  </city>
  <city name="Dagoretti Corner">
    <latitude>-1.3</latitude>
    <longitude>36.7666667</longitude>
  </city>
  <city name="Dagoretti">
    <latitude>-1.3</latitude>
    <longitude>36.7666667</longitude>
  </city>
  <city name="Dakacha">
    <latitude>-3.0166667</latitude>
    <longitude>39.8</longitude>
  </city>
  <city name="Dakatcha">
    <latitude>-3.0166667</latitude>
    <longitude>39.8</longitude>
  </city>
  <city name="Dakawachu">
    <latitude>-2.6861111</latitude>
    <longitude>39.6308333</longitude>
  </city>
  <city name="Dambale">
    <latitude>-3.7</latitude>
    <longitude>39.2666667</longitude>
  </city>
  <city name="Dandora">
    <latitude>-1.25</latitude>
    <longitude>36.9</longitude>
  </city>
  <city name="Darajani">
    <latitude>-2.5833333</latitude>
    <longitude>38.1166667</longitude>
  </city>
  <city name="Darasha ya Mawe">
    <latitude>-0.4333333</latitude>
    <longitude>35.6833333</longitude>
  </city>
  <city name="Dardesa">
    <latitude>-0.9333333</latitude>
    <longitude>40.9</longitude>
  </city>
  <city name="Dar es Salaam">
    <latitude>-1.6633333</latitude>
    <longitude>41.5652778</longitude>
  </city>
  <city name="Dawsonville">
    <latitude>-0.2833333</latitude>
    <longitude>36.05</longitude>
  </city>
  <city name="Debani">
    <latitude>0.1</latitude>
    <longitude>34.0</longitude>
  </city>
  <city name="Dembwa">
    <latitude>-3.45</latitude>
    <longitude>38.3666667</longitude>
  </city>
  <city name="Denge">
    <latitude>-4.0666667</latitude>
    <longitude>39.15</longitude>
  </city>
  <city name="Dhika">
    <latitude>-1.05</latitude>
    <longitude>37.0833333</longitude>
  </city>
  <city name="Dianga">
    <latitude>-0.9333333</latitude>
    <longitude>34.5333333</longitude>
  </city>
  <city name="Dida">
    <latitude>-3.4333333</latitude>
    <longitude>39.8</longitude>
  </city>
  <city name="Dida Waredi">
    <latitude>-2.4244444</latitude>
    <longitude>40.4127778</longitude>
  </city>
  <city name="Difatha">
    <latitude>-0.55</latitude>
    <longitude>37.4</longitude>
  </city>
  <city name="Dif">
    <latitude>0.9961111</latitude>
    <longitude>40.9630556</longitude>
  </city>
  <city name="Digira">
    <latitude>-1.1</latitude>
    <longitude>40.85</longitude>
  </city>
  <city name="Digo">
    <latitude>-4.2333333</latitude>
    <longitude>39.1833333</longitude>
  </city>
  <city name="Dindiri">
    <latitude>-3.7333333</latitude>
    <longitude>39.8</longitude>
  </city>
  <city name="Dobel">
    <latitude>3.0888889</latitude>
    <longitude>39.2741667</longitude>
  </city>
  <city name="Dodori">
    <latitude>-1.9</latitude>
    <longitude>41.0666667</longitude>
  </city>
  <city name="Dol Dol">
    <latitude>0.4</latitude>
    <longitude>37.1666667</longitude>
  </city>
  <city name="Dololo">
    <latitude>-3.85</latitude>
    <longitude>39.1</longitude>
  </city>
  <city name="Don Dol">
    <latitude>0.4</latitude>
    <longitude>37.1666667</longitude>
  </city>
  <city name="Dondori">
    <latitude>-0.2</latitude>
    <longitude>36.2666667</longitude>
  </city>
  <city name="Dondueni">
    <latitude>-0.4333333</latitude>
    <longitude>37.3333333</longitude>
  </city>
  <city name="Doonholm">
    <latitude>-1.2833333</latitude>
    <longitude>36.8666667</longitude>
  </city>
  <city name="Dowsonville">
    <latitude>-0.2833333</latitude>
    <longitude>36.05</longitude>
  </city>
  <city name="Dudi">
    <latitude>-0.8</latitude>
    <longitude>34.5833333</longitude>
  </city>
  <city name="Dueadera">
    <latitude>-1.1166667</latitude>
    <longitude>40.1</longitude>
  </city>
  <city name="Duldul">
    <latitude>-1.9166667</latitude>
    <longitude>40.7333333</longitude>
  </city>
  <city name="Dulukiza">
    <latitude>-3.3833333</latitude>
    <longitude>39.6333333</longitude>
  </city>
  <city name="Dumi">
    <latitude>-2.25</latitude>
    <longitude>40.1333333</longitude>
  </city>
  <city name="Dundani">
    <latitude>-4.0833333</latitude>
    <longitude>39.2</longitude>
  </city>
  <city name="Dundori">
    <latitude>-0.2</latitude>
    <longitude>36.2666667</longitude>
  </city>
  <city name="Dungicha">
    <latitude>-3.4833333</latitude>
    <longitude>39.6166667</longitude>
  </city>
  <city name="Duruma">
    <latitude>-4.55</latitude>
    <longitude>39.0833333</longitude>
  </city>
  <city name="Dwa">
    <latitude>-2.4</latitude>
    <longitude>38.0166667</longitude>
  </city>
  <city name="Dzirive">
    <latitude>-4.5833333</latitude>
    <longitude>39.1666667</longitude>
  </city>
  <city name="Dzitsuhe">
    <latitude>-2.8666667</latitude>
    <longitude>39.9666667</longitude>
  </city>
  <city name="Eastleigh">
    <latitude>-1.2666667</latitude>
    <longitude>36.85</longitude>
  </city>
  <city name="Eburemia">
    <latitude>0.1166667</latitude>
    <longitude>34.05</longitude>
  </city>
  <city name="Ebusonga">
    <latitude>0.1130556</latitude>
    <longitude>34.1044444</longitude>
  </city>
  <city name="Egge">
    <latitude>-2.25</latitude>
    <longitude>40.1166667</longitude>
  </city>
  <city name="Eil Wak">
    <latitude>2.8094444</latitude>
    <longitude>40.9358333</longitude>
  </city>
  <city name="Ekarakara">
    <latitude>-0.9666667</latitude>
    <longitude>37.4666667</longitude>
  </city>
  <city name="Ekaru">
    <latitude>-1.2</latitude>
    <longitude>36.7</longitude>
  </city>
  <city name="Elaa">
    <latitude>-1.1666667</latitude>
    <longitude>40.7833333</longitude>
  </city>
  <city name="Ela">
    <latitude>-1.1666667</latitude>
    <longitude>40.7833333</longitude>
  </city>
  <city name="Elangata Wuas">
    <latitude>-1.8833333</latitude>
    <longitude>36.5833333</longitude>
  </city>
  <city name="El Ben">
    <latitude>2.3166667</latitude>
    <longitude>40.2</longitude>
  </city>
  <city name="Elbulbul">
    <latitude>-1.3333333</latitude>
    <longitude>36.6833333</longitude>
  </city>
  <city name="Elburgon">
    <latitude>-0.3</latitude>
    <longitude>35.8166667</longitude>
  </city>
  <city name="Eldama">
    <latitude>0.05</latitude>
    <longitude>35.7166667</longitude>
  </city>
  <city name="Eldama Ravine">
    <latitude>0.05</latitude>
    <longitude>35.7166667</longitude>
  </city>
  <city name="El Dera">
    <latitude>0.6</latitude>
    <longitude>38.85</longitude>
  </city>
  <city name="Eldoret">
    <latitude>0.5166667</latitude>
    <longitude>35.2833333</longitude>
  </city>
  <city name="Elisha">
    <latitude>-0.9166667</latitude>
    <longitude>34.5333333</longitude>
  </city>
  <city name="El Jera">
    <latitude>-1.6666667</latitude>
    <longitude>39.6</longitude>
  </city>
  <city name="Elmenteita">
    <latitude>-0.4833333</latitude>
    <longitude>36.15</longitude>
  </city>
  <city name="El Sadi">
    <latitude>1.7472222</latitude>
    <longitude>40.0688889</longitude>
  </city>
  <city name="El Wak">
    <latitude>2.8094444</latitude>
    <longitude>40.9358333</longitude>
  </city>
  <city name="Emali">
    <latitude>-2.0833333</latitude>
    <longitude>37.4666667</longitude>
  </city>
  <city name="Emasatsi">
    <latitude>0.15</latitude>
    <longitude>34.65</longitude>
  </city>
  <city name="Embakasi">
    <latitude>-1.3</latitude>
    <longitude>36.9166667</longitude>
  </city>
  <city name="Embu">
    <latitude>-0.5333333</latitude>
    <longitude>37.45</longitude>
  </city>
  <city name="Emdin">
    <latitude>0.2</latitude>
    <longitude>35.25</longitude>
  </city>
  <city name="Emening">
    <latitude>0.15</latitude>
    <longitude>35.8833333</longitude>
  </city>
  <city name="Emining">
    <latitude>0.15</latitude>
    <longitude>35.8833333</longitude>
  </city>
  <city name="Emmaloba">
    <latitude>0.0333333</latitude>
    <longitude>34.5666667</longitude>
  </city>
  <city name="Empakasi">
    <latitude>-1.3</latitude>
    <longitude>36.9166667</longitude>
  </city>
  <city name="Ena">
    <latitude>-0.4833333</latitude>
    <longitude>37.55</longitude>
  </city>
  <city name="Enangiperi">
    <latitude>-0.6833333</latitude>
    <longitude>35.9</longitude>
  </city>
  <city name="Endarasha">
    <latitude>-0.2833333</latitude>
    <longitude>35.7833333</longitude>
  </city>
  <city name="Endebess">
    <latitude>1.0666667</latitude>
    <longitude>34.85</longitude>
  </city>
  <city name="Enguli">
    <latitude>-1.9333333</latitude>
    <longitude>37.3666667</longitude>
  </city>
  <city name="Enkorika">
    <latitude>-1.9666667</latitude>
    <longitude>36.9166667</longitude>
  </city>
  <city name="Entasekera">
    <latitude>-1.85</latitude>
    <longitude>35.85</longitude>
  </city>
  <city name="Entesekera">
    <latitude>-1.85</latitude>
    <longitude>35.85</longitude>
  </city>
  <city name="Entontol">
    <latitude>-0.8833333</latitude>
    <longitude>36.0166667</longitude>
  </city>
  <city name="Enzai">
    <latitude>-1.8333333</latitude>
    <longitude>37.3166667</longitude>
  </city>
  <city name="Eoret Narasha">
    <latitude>-1.1</latitude>
    <longitude>35.9166667</longitude>
  </city>
  <city name="Esageri">
    <latitude>0.0166667</latitude>
    <longitude>35.8166667</longitude>
  </city>
  <city name="Escarpment">
    <latitude>-1.0166667</latitude>
    <longitude>36.6166667</longitude>
  </city>
  <city name="Fafsula">
    <latitude>-1.15</latitude>
    <longitude>40.0166667</longitude>
  </city>
  <city name="Fanjua">
    <latitude>-1.6666667</latitude>
    <longitude>40.1166667</longitude>
  </city>
  <city name="Faza">
    <latitude>-2.0666667</latitude>
    <longitude>41.1055556</longitude>
  </city>
  <city name="Figini">
    <latitude>-3.3833333</latitude>
    <longitude>38.3833333</longitude>
  </city>
  <city name="Finno">
    <latitude>3.3708333</latitude>
    <longitude>41.4388889</longitude>
  </city>
  <city name="Fitina">
    <latitude>-2.5</latitude>
    <longitude>40.2833333</longitude>
  </city>
  <city name="Fort Hall">
    <latitude>-0.7166667</latitude>
    <longitude>37.15</longitude>
  </city>
  <city name="Fort Harrington">
    <latitude>3.5163889</latitude>
    <longitude>39.0691667</longitude>
  </city>
  <city name="Fort Ternan">
    <latitude>-0.2</latitude>
    <longitude>35.35</longitude>
  </city>
  <city name="Frere Town">
    <latitude>-4.0166667</latitude>
    <longitude>39.7</longitude>
  </city>
  <city name="Fundi Isa">
    <latitude>-2.9408333</latitude>
    <longitude>40.1036111</longitude>
  </city>
  <city name="Fundisa">
    <latitude>-2.9</latitude>
    <longitude>40.1</longitude>
  </city>
  <city name="Fundisa Kibaoni">
    <latitude>-2.9408333</latitude>
    <longitude>40.1411111</longitude>
  </city>
  <city name="Funi Dela">
    <latitude>-1.0</latitude>
    <longitude>39.9</longitude>
  </city>
  <city name="Funi">
    <latitude>-1.0</latitude>
    <longitude>39.9</longitude>
  </city>
  <city name="Funzi">
    <latitude>-4.5666667</latitude>
    <longitude>39.4333333</longitude>
  </city>
  <city name="Furaha">
    <latitude>-2.4833333</latitude>
    <longitude>40.2</longitude>
  </city>
  <city name="Furaka">
    <latitude>-2.4833333</latitude>
    <longitude>40.2</longitude>
  </city>
  <city name="Gacarage">
    <latitude>-0.9333333</latitude>
    <longitude>36.75</longitude>
  </city>
  <city name="Gacaraigu">
    <latitude>-0.7</latitude>
    <longitude>37.0166667</longitude>
  </city>
  <city name="Gacharage">
    <latitude>-0.75</latitude>
    <longitude>36.8833333</longitude>
  </city>
  <city name="Gacharageini">
    <latitude>-0.6333333</latitude>
    <longitude>36.8833333</longitude>
  </city>
  <city name="Gacharaigu">
    <latitude>-0.7</latitude>
    <longitude>37.0166667</longitude>
  </city>
  <city name="Gacharu">
    <latitude>-0.6166667</latitude>
    <longitude>37.2</longitude>
  </city>
  <city name="Gachatha">
    <latitude>-0.4833333</latitude>
    <longitude>36.95</longitude>
  </city>
  <city name="Gachege">
    <latitude>-0.9</latitude>
    <longitude>36.8</longitude>
  </city>
  <city name="Gachichi">
    <latitude>-0.5666667</latitude>
    <longitude>36.9166667</longitude>
  </city>
  <city name="Gachie">
    <latitude>-1.2166667</latitude>
    <longitude>36.7833333</longitude>
  </city>
  <city name="Gachika">
    <latitude>-0.9666667</latitude>
    <longitude>36.7666667</longitude>
  </city>
  <city name="Gachirero">
    <latitude>-0.55</latitude>
    <longitude>37.05</longitude>
  </city>
  <city name="Gachocho">
    <latitude>-0.7833333</latitude>
    <longitude>36.9833333</longitude>
  </city>
  <city name="Gachoiri">
    <latitude>-0.9833333</latitude>
    <longitude>36.7333333</longitude>
  </city>
  <city name="Gachoka">
    <latitude>-0.6166667</latitude>
    <longitude>37.5333333</longitude>
  </city>
  <city name="Gachugi">
    <latitude>-0.95</latitude>
    <longitude>36.9166667</longitude>
  </city>
  <city name="Gachuku">
    <latitude>-0.5333333</latitude>
    <longitude>37.1166667</longitude>
  </city>
  <city name="Gacogu">
    <latitude>-0.7166667</latitude>
    <longitude>37.4166667</longitude>
  </city>
  <city name="Gacoiri">
    <latitude>-0.9833333</latitude>
    <longitude>36.7333333</longitude>
  </city>
  <city name="Gacuku">
    <latitude>-0.5333333</latitude>
    <longitude>37.1166667</longitude>
  </city>
  <city name="Gaichanjiro">
    <latitude>-0.8833333</latitude>
    <longitude>37.05</longitude>
  </city>
  <city name="Gaichanjiru">
    <latitude>-0.8833333</latitude>
    <longitude>37.05</longitude>
  </city>
  <city name="Gaikundo">
    <latitude>-0.5333333</latitude>
    <longitude>37.0</longitude>
  </city>
  <city name="Gaikuyu">
    <latitude>-0.4</latitude>
    <longitude>37.1333333</longitude>
  </city>
  <city name="Gaitega">
    <latitude>-0.7333333</latitude>
    <longitude>37.1333333</longitude>
  </city>
  <city name="Gaithece">
    <latitude>-1.0</latitude>
    <longitude>36.9</longitude>
  </city>
  <city name="Gaithege">
    <latitude>-1.0</latitude>
    <longitude>36.9</longitude>
  </city>
  <city name="Gakanga">
    <latitude>-0.4333333</latitude>
    <longitude>36.8333333</longitude>
  </city>
  <city name="Gakarara">
    <latitude>-0.9</latitude>
    <longitude>37.0</longitude>
  </city>
  <city name="Gakee">
    <latitude>-0.8833333</latitude>
    <longitude>36.8</longitude>
  </city>
  <city name="Gakira">
    <latitude>-0.6833333</latitude>
    <longitude>36.9666667</longitude>
  </city>
  <city name="Gakoe">
    <latitude>-0.6666667</latitude>
    <longitude>37.0666667</longitude>
  </city>
  <city name="Gakoi">
    <latitude>-0.6333333</latitude>
    <longitude>36.9333333</longitude>
  </city>
  <city name="Gakui">
    <latitude>-0.85</latitude>
    <longitude>36.9833333</longitude>
  </city>
  <city name="Gakuo">
    <latitude>-0.5666667</latitude>
    <longitude>37.3333333</longitude>
  </city>
  <city name="Gakurue">
    <latitude>-0.6333333</latitude>
    <longitude>37.0166667</longitude>
  </city>
  <city name="Gakuruwe">
    <latitude>-0.6333333</latitude>
    <longitude>37.0166667</longitude>
  </city>
  <city name="Gakurwe">
    <latitude>-0.4333333</latitude>
    <longitude>37.35</longitude>
  </city>
  <city name="Gakuu">
    <latitude>-0.5666667</latitude>
    <longitude>37.3333333</longitude>
  </city>
  <city name="Gakuyu">
    <latitude>-0.65</latitude>
    <longitude>37.05</longitude>
  </city>
  <city name="Gakwegore">
    <latitude>-0.4166667</latitude>
    <longitude>37.5833333</longitude>
  </city>
  <city name="Galafahi">
    <latitude>0.1</latitude>
    <longitude>34.0</longitude>
  </city>
  <city name="Galamani">
    <latitude>-1.3986111</latitude>
    <longitude>40.0111111</longitude>
  </city>
  <city name="Galanema">
    <latitude>-3.7166667</latitude>
    <longitude>39.7</longitude>
  </city>
  <city name="Galimani">
    <latitude>-1.3986111</latitude>
    <longitude>40.0111111</longitude>
  </city>
  <city name="Galole">
    <latitude>-1.5036111</latitude>
    <longitude>40.0288889</longitude>
  </city>
  <city name="Galu">
    <latitude>-4.35</latitude>
    <longitude>39.5666667</longitude>
  </city>
  <city name="Ganda">
    <latitude>-3.2166667</latitude>
    <longitude>40.0666667</longitude>
  </city>
  <city name="Gandini">
    <latitude>-4.0333333</latitude>
    <longitude>39.4666667</longitude>
  </city>
  <city name="Ganze">
    <latitude>-3.5333333</latitude>
    <longitude>39.6833333</longitude>
  </city>
  <city name="Ganzi">
    <latitude>-3.5333333</latitude>
    <longitude>39.6833333</longitude>
  </city>
  <city name="Ganzoni">
    <latitude>-3.9166667</latitude>
    <longitude>39.6333333</longitude>
  </city>
  <city name="Garashi">
    <latitude>-3.1166667</latitude>
    <longitude>39.8833333</longitude>
  </city>
  <city name="Garba">
    <latitude>0.3833333</latitude>
    <longitude>37.6</longitude>
  </city>
  <city name="Garba Tula">
    <latitude>0.5333333</latitude>
    <longitude>38.5166667</longitude>
  </city>
  <city name="Gariba">
    <latitude>0.3833333</latitude>
    <longitude>37.6</longitude>
  </city>
  <city name="Garissa">
    <latitude>-0.4569444</latitude>
    <longitude>39.6583333</longitude>
  </city>
  <city name="Garsen">
    <latitude>-2.2697222</latitude>
    <longitude>40.12</longitude>
  </city>
  <city name="Gasi">
    <latitude>-4.4166667</latitude>
    <longitude>39.5</longitude>
  </city>
  <city name="Gatakaini">
    <latitude>-0.8333333</latitude>
    <longitude>36.7833333</longitude>
  </city>
  <city name="Gatakani">
    <latitude>-0.8333333</latitude>
    <longitude>36.7833333</longitude>
  </city>
  <city name="Gatamaiy">
    <latitude>-1.0</latitude>
    <longitude>36.7333333</longitude>
  </city>
  <city name="Gatamaiyu">
    <latitude>-1.0</latitude>
    <longitude>36.7333333</longitude>
  </city>
  <city name="Gatamayu">
    <latitude>-1.0</latitude>
    <longitude>36.7333333</longitude>
  </city>
  <city name="Gatanga">
    <latitude>-0.9333333</latitude>
    <longitude>36.9666667</longitude>
  </city>
  <city name="Gatangara">
    <latitude>-0.7166667</latitude>
    <longitude>36.95</longitude>
  </city>
  <city name="Gatare">
    <latitude>-0.7333333</latitude>
    <longitude>36.7666667</longitude>
  </city>
  <city name="Gategi">
    <latitude>-0.75</latitude>
    <longitude>37.4166667</longitude>
  </city>
  <city name="Gatei">
    <latitude>-0.9833333</latitude>
    <longitude>36.9</longitude>
  </city>
  <city name="Gateiguru">
    <latitude>-0.8666667</latitude>
    <longitude>36.8833333</longitude>
  </city>
  <city name="Gathage">
    <latitude>-1.0333333</latitude>
    <longitude>36.9</longitude>
  </city>
  <city name="Gathagi">
    <latitude>-1.05</latitude>
    <longitude>36.9166667</longitude>
  </city>
  <city name="Gathairu">
    <latitude>-0.7666667</latitude>
    <longitude>37.0333333</longitude>
  </city>
  <city name="Gathaithi">
    <latitude>-0.4333333</latitude>
    <longitude>37.2</longitude>
  </city>
  <city name="Gathambi">
    <latitude>-0.4666667</latitude>
    <longitude>37.2</longitude>
  </city>
  <city name="Gathanga">
    <latitude>-1.1833333</latitude>
    <longitude>36.8</longitude>
  </city>
  <city name="Gathangwi">
    <latitude>-0.9666667</latitude>
    <longitude>36.95</longitude>
  </city>
  <city name="Gathanje">
    <latitude>-1.0833333</latitude>
    <longitude>36.7833333</longitude>
  </city>
  <city name="Gathanji">
    <latitude>-0.5333333</latitude>
    <longitude>37.0166667</longitude>
  </city>
  <city name="Gatharaini">
    <latitude>-1.2166667</latitude>
    <longitude>36.9166667</longitude>
  </city>
  <city name="Gathegia">
    <latitude>-1.0166667</latitude>
    <longitude>36.8</longitude>
  </city>
  <city name="Gathehu">
    <latitude>-0.4166667</latitude>
    <longitude>37.15</longitude>
  </city>
  <city name="Gathera">
    <latitude>-0.8</latitude>
    <longitude>37.0333333</longitude>
  </city>
  <city name="Gatheru">
    <latitude>-0.7333333</latitude>
    <longitude>37.0666667</longitude>
  </city>
  <city name="Gathiga">
    <latitude>-1.2166667</latitude>
    <longitude>36.75</longitude>
  </city>
  <city name="Gathigio">
    <latitude>-0.8</latitude>
    <longitude>37.0666667</longitude>
  </city>
  <city name="Gathigiriri">
    <latitude>-0.6833333</latitude>
    <longitude>37.4</longitude>
  </city>
  <city name="Gathima">
    <latitude>-1.0333333</latitude>
    <longitude>36.75</longitude>
  </city>
  <city name="Gathinga">
    <latitude>-0.5</latitude>
    <longitude>37.0166667</longitude>
  </city>
  <city name="Gathinja">
    <latitude>-0.7166667</latitude>
    <longitude>37.0166667</longitude>
  </city>
  <city name="Gathiriga">
    <latitude>-0.9666667</latitude>
    <longitude>36.7333333</longitude>
  </city>
  <city name="Gathiru">
    <latitude>-0.7666667</latitude>
    <longitude>37.0333333</longitude>
  </city>
  <city name="Gathiruini">
    <latitude>-1.0333333</latitude>
    <longitude>36.8166667</longitude>
  </city>
  <city name="Gathithina">
    <latitude>-1.2166667</latitude>
    <longitude>36.6833333</longitude>
  </city>
  <city name="Gathuga">
    <latitude>-1.0</latitude>
    <longitude>36.8</longitude>
  </city>
  <city name="Gathugu">
    <latitude>-0.9666667</latitude>
    <longitude>36.7333333</longitude>
  </city>
  <city name="Gathukiini">
    <latitude>-0.6333333</latitude>
    <longitude>37.05</longitude>
  </city>
  <city name="Gathumbi">
    <latitude>-0.5333333</latitude>
    <longitude>36.9</longitude>
  </city>
  <city name="Gathundia">
    <latitude>-0.25</latitude>
    <longitude>36.2833333</longitude>
  </city>
  <city name="Gathungururu">
    <latitude>-0.55</latitude>
    <longitude>37.0166667</longitude>
  </city>
  <city name="Gathuthi">
    <latitude>-0.4833333</latitude>
    <longitude>36.8833333</longitude>
  </city>
  <city name="Gathuthuma">
    <latitude>-0.4333333</latitude>
    <longitude>37.2166667</longitude>
  </city>
  <city name="Gatiabai">
    <latitude>-1.2333333</latitude>
    <longitude>36.6666667</longitude>
  </city>
  <city name="Gatiaini">
    <latitude>-0.7833333</latitude>
    <longitude>36.8333333</longitude>
  </city>
  <city name="Gatiani">
    <latitude>-0.7833333</latitude>
    <longitude>36.8333333</longitude>
  </city>
  <city name="Gatiguru">
    <latitude>-1.0666667</latitude>
    <longitude>36.8833333</longitude>
  </city>
  <city name="Gatimu">
    <latitude>-1.1666667</latitude>
    <longitude>36.65</longitude>
  </city>
  <city name="Gatina">
    <latitude>-0.55</latitude>
    <longitude>37.1333333</longitude>
  </city>
  <city name="Gatissa">
    <latitude>-0.5833333</latitude>
    <longitude>37.1833333</longitude>
  </city>
  <city name="Gatithi">
    <latitude>-0.5833333</latitude>
    <longitude>37.2</longitude>
  </city>
  <city name="Gatitu B">
    <latitude>-1.0333333</latitude>
    <longitude>36.85</longitude>
  </city>
  <city name="Gatitu">
    <latitude>-0.45</latitude>
    <longitude>37.0</longitude>
  </city>
  <city name="Gatuanibu">
    <latitude>-1.2</latitude>
    <longitude>36.6666667</longitude>
  </city>
  <city name="Gatugi One">
    <latitude>-0.5166667</latitude>
    <longitude>36.9666667</longitude>
  </city>
  <city name="Gatugi Two">
    <latitude>-0.5333333</latitude>
    <longitude>36.9666667</longitude>
  </city>
  <city name="Gatukuyu">
    <latitude>-0.9833333</latitude>
    <longitude>36.9666667</longitude>
  </city>
  <city name="Gatumbi">
    <latitude>-0.45</latitude>
    <longitude>37.35</longitude>
  </city>
  <city name="Gatumbiro">
    <latitude>-0.4666667</latitude>
    <longitude>36.8666667</longitude>
  </city>
  <city name="Gatumbiru">
    <latitude>-0.4666667</latitude>
    <longitude>36.8666667</longitude>
  </city>
  <city name="Gatundori">
    <latitude>-0.4833333</latitude>
    <longitude>37.4833333</longitude>
  </city>
  <city name="Gatundu">
    <latitude>-0.5666667</latitude>
    <longitude>36.9166667</longitude>
  </city>
  <city name="Gatunduri">
    <latitude>-0.4833333</latitude>
    <longitude>37.4833333</longitude>
  </city>
  <city name="Gatunga">
    <latitude>-0.1</latitude>
    <longitude>38.0166667</longitude>
  </city>
  <city name="Gatunganga">
    <latitude>-0.4166667</latitude>
    <longitude>37.05</longitude>
  </city>
  <city name="Gatunguru">
    <latitude>-0.9</latitude>
    <longitude>36.8333333</longitude>
  </city>
  <city name="Gatura">
    <latitude>-0.5333333</latitude>
    <longitude>37.0333333</longitude>
  </city>
  <city name="Gaturi">
    <latitude>-0.45</latitude>
    <longitude>36.85</longitude>
  </city>
  <city name="Gaturiri">
    <latitude>-0.5</latitude>
    <longitude>37.1166667</longitude>
  </city>
  <city name="Gatuto">
    <latitude>-0.5666667</latitude>
    <longitude>37.3</longitude>
  </city>
  <city name="Gatuya">
    <latitude>-0.5333333</latitude>
    <longitude>37.2166667</longitude>
  </city>
  <city name="Gatuyaini">
    <latitude>-0.55</latitude>
    <longitude>36.9333333</longitude>
  </city>
  <city name="Gatwamba">
    <latitude>-1.0166667</latitude>
    <longitude>36.7</longitude>
  </city>
  <city name="Gatwe">
    <latitude>-0.4333333</latitude>
    <longitude>37.2333333</longitude>
  </city>
  <city name="Gaze">
    <latitude>-4.4166667</latitude>
    <longitude>39.5</longitude>
  </city>
  <city name="Gazi">
    <latitude>-4.4166667</latitude>
    <longitude>39.5</longitude>
  </city>
  <city name="Gede">
    <latitude>-3.3</latitude>
    <longitude>40.0166667</longitude>
  </city>
  <city name="Gedi">
    <latitude>-3.3</latitude>
    <longitude>40.0166667</longitude>
  </city>
  <city name="Geitwa">
    <latitude>-0.6333333</latitude>
    <longitude>37.0833333</longitude>
  </city>
  <city name="Gekandu">
    <latitude>-0.7166667</latitude>
    <longitude>37.1</longitude>
  </city>
  <city name="Gekondi">
    <latitude>-0.5666667</latitude>
    <longitude>37.0333333</longitude>
  </city>
  <city name="Gekuuri">
    <latitude>-0.45</latitude>
    <longitude>37.55</longitude>
  </city>
  <city name="Gethemu">
    <latitude>-0.5</latitude>
    <longitude>37.5166667</longitude>
  </city>
  <city name="Ghalamani">
    <latitude>-1.3986111</latitude>
    <longitude>40.0111111</longitude>
  </city>
  <city name="Giachamwengi">
    <latitude>-0.45</latitude>
    <longitude>36.95</longitude>
  </city>
  <city name="Giachumi">
    <latitude>-1.0666667</latitude>
    <longitude>36.7833333</longitude>
  </city>
  <city name="Giagatika">
    <latitude>-0.4833333</latitude>
    <longitude>37.0833333</longitude>
  </city>
  <city name="Giagithu">
    <latitude>-1.1</latitude>
    <longitude>36.85</longitude>
  </city>
  <city name="Giaitu">
    <latitude>-0.4833333</latitude>
    <longitude>37.1</longitude>
  </city>
  <city name="Giakaibii">
    <latitude>-0.4166667</latitude>
    <longitude>37.15</longitude>
  </city>
  <city name="Giakibii">
    <latitude>-0.4166667</latitude>
    <longitude>37.15</longitude>
  </city>
  <city name="Giathenge">
    <latitude>-0.5166667</latitude>
    <longitude>36.9833333</longitude>
  </city>
  <city name="Giathieko">
    <latitude>-1.0833333</latitude>
    <longitude>36.8166667</longitude>
  </city>
  <city name="Giathugu One">
    <latitude>-0.5833333</latitude>
    <longitude>37.1</longitude>
  </city>
  <city name="Giathugu Two">
    <latitude>-0.5833333</latitude>
    <longitude>37.0833333</longitude>
  </city>
  <city name="Gichage">
    <latitude>-0.3333333</latitude>
    <longitude>35.85</longitude>
  </city>
  <city name="Gichagiini">
    <latitude>-0.8</latitude>
    <longitude>36.9</longitude>
  </city>
  <city name="Gicharani">
    <latitude>-1.2666667</latitude>
    <longitude>36.65</longitude>
  </city>
  <city name="Gicheha">
    <latitude>-1.0166667</latitude>
    <longitude>36.9166667</longitude>
  </city>
  <city name="Gichera">
    <latitude>-0.45</latitude>
    <longitude>37.6</longitude>
  </city>
  <city name="Gicheru">
    <latitude>-1.2</latitude>
    <longitude>36.55</longitude>
  </city>
  <city name="Gichiche">
    <latitude>-0.4333333</latitude>
    <longitude>37.5833333</longitude>
  </city>
  <city name="Gichiengo">
    <latitude>-0.95</latitude>
    <longitude>36.6166667</longitude>
  </city>
  <city name="Gichira">
    <latitude>-0.4666667</latitude>
    <longitude>37.0166667</longitude>
  </city>
  <city name="Gichocho">
    <latitude>-1.15</latitude>
    <longitude>36.8166667</longitude>
  </city>
  <city name="Gichongo">
    <latitude>-1.2666667</latitude>
    <longitude>36.6833333</longitude>
  </city>
  <city name="Gichoto">
    <latitude>-1.2833333</latitude>
    <longitude>36.65</longitude>
  </city>
  <city name="Gichugu">
    <latitude>-0.8166667</latitude>
    <longitude>37.1</longitude>
  </city>
  <city name="Gichuru">
    <latitude>-1.1666667</latitude>
    <longitude>36.6666667</longitude>
  </city>
  <city name="Gifyonzo">
    <latitude>-4.2</latitude>
    <longitude>39.25</longitude>
  </city>
  <city name="Gihigaini">
    <latitude>-0.7833333</latitude>
    <longitude>37.0833333</longitude>
  </city>
  <city name="Gikambura">
    <latitude>-1.2833333</latitude>
    <longitude>36.6333333</longitude>
  </city>
  <city name="Gikandu">
    <latitude>-0.7166667</latitude>
    <longitude>37.1</longitude>
  </city>
  <city name="Gikarmora">
    <latitude>-0.8166667</latitude>
    <longitude>37.0333333</longitude>
  </city>
  <city name="Gikaru">
    <latitude>-1.2</latitude>
    <longitude>36.7</longitude>
  </city>
  <city name="Gikigie">
    <latitude>-0.7333333</latitude>
    <longitude>36.8333333</longitude>
  </city>
  <city name="Gikoe">
    <latitude>-0.6333333</latitude>
    <longitude>36.9333333</longitude>
  </city>
  <city name="Gikoi">
    <latitude>-0.6333333</latitude>
    <longitude>36.9333333</longitude>
  </city>
  <city name="Gikomora">
    <latitude>-0.8166667</latitude>
    <longitude>37.0333333</longitude>
  </city>
  <city name="Gikondi">
    <latitude>-0.5666667</latitude>
    <longitude>37.0333333</longitude>
  </city>
  <city name="Gikui">
    <latitude>-0.9333333</latitude>
    <longitude>36.9166667</longitude>
  </city>
  <city name="Gikunguru">
    <latitude>-0.7833333</latitude>
    <longitude>37.05</longitude>
  </city>
  <city name="Gikure">
    <latitude>-0.9666667</latitude>
    <longitude>36.8333333</longitude>
  </city>
  <city name="Gikuu">
    <latitude>-0.7166667</latitude>
    <longitude>37.25</longitude>
  </city>
  <city name="Gikuyu">
    <latitude>-1.25</latitude>
    <longitude>36.6666667</longitude>
  </city>
  <city name="Gilgil">
    <latitude>-0.2166667</latitude>
    <longitude>36.2666667</longitude>
  </city>
  <city name="Giriama">
    <latitude>-3.8</latitude>
    <longitude>39.5833333</longitude>
  </city>
  <city name="Giriftu">
    <latitude>1.9913889</latitude>
    <longitude>39.7644444</longitude>
  </city>
  <city name="Gitare">
    <latitude>-0.4</latitude>
    <longitude>37.55</longitude>
  </city>
  <city name="Gitaro">
    <latitude>-0.7333333</latitude>
    <longitude>37.0666667</longitude>
  </city>
  <city name="Gitaru">
    <latitude>-1.2333333</latitude>
    <longitude>36.6833333</longitude>
  </city>
  <city name="Gitathi-ini">
    <latitude>-0.4333333</latitude>
    <longitude>36.9333333</longitude>
  </city>
  <city name="Gitembe">
    <latitude>-0.85</latitude>
    <longitude>37.05</longitude>
  </city>
  <city name="Gitero">
    <latitude>-0.45</latitude>
    <longitude>36.9333333</longitude>
  </city>
  <city name="Githagara">
    <latitude>-0.7666667</latitude>
    <longitude>37.0166667</longitude>
  </city>
  <city name="Githagoya">
    <latitude>-0.65</latitude>
    <longitude>37.2166667</longitude>
  </city>
  <city name="Githakwa">
    <latitude>-0.4666667</latitude>
    <longitude>36.9</longitude>
  </city>
  <city name="Githamba">
    <latitude>-1.0666667</latitude>
    <longitude>36.8166667</longitude>
  </city>
  <city name="Githambo">
    <latitude>-0.7166667</latitude>
    <longitude>36.8833333</longitude>
  </city>
  <city name="Githanga">
    <latitude>-0.6166667</latitude>
    <longitude>37.0666667</longitude>
  </city>
  <city name="Githega">
    <latitude>-1.0666667</latitude>
    <longitude>36.7</longitude>
  </city>
  <city name="Githembe">
    <latitude>-0.85</latitude>
    <longitude>37.05</longitude>
  </city>
  <city name="Githerere">
    <latitude>-0.4833333</latitude>
    <longitude>36.8666667</longitude>
  </city>
  <city name="Githerioni">
    <latitude>-1.0166667</latitude>
    <longitude>36.65</longitude>
  </city>
  <city name="Githiga A">
    <latitude>-1.0833333</latitude>
    <longitude>36.7333333</longitude>
  </city>
  <city name="Githiga B">
    <latitude>-1.1</latitude>
    <longitude>36.75</longitude>
  </city>
  <city name="Githiga">
    <latitude>-0.7</latitude>
    <longitude>36.9333333</longitude>
  </city>
  <city name="Githigui">
    <latitude>-1.05</latitude>
    <longitude>36.9166667</longitude>
  </city>
  <city name="Githima">
    <latitude>-0.3666667</latitude>
    <longitude>36.35</longitude>
  </city>
  <city name="Githinga B">
    <latitude>-1.0833333</latitude>
    <longitude>36.75</longitude>
  </city>
  <city name="Githioro">
    <latitude>-0.4666667</latitude>
    <longitude>36.5</longitude>
  </city>
  <city name="Githioroni">
    <latitude>-1.0166667</latitude>
    <longitude>36.65</longitude>
  </city>
  <city name="Githirioni">
    <latitude>-1.0166667</latitude>
    <longitude>36.65</longitude>
  </city>
  <city name="Githiru">
    <latitude>-0.45</latitude>
    <longitude>37.0166667</longitude>
  </city>
  <city name="Githoito">
    <latitude>-0.9666667</latitude>
    <longitude>36.65</longitude>
  </city>
  <city name="Githugi">
    <latitude>-0.5166667</latitude>
    <longitude>36.8666667</longitude>
  </city>
  <city name="Githumu">
    <latitude>-0.8166667</latitude>
    <longitude>36.9</longitude>
  </city>
  <city name="Githunguri">
    <latitude>-0.55</latitude>
    <longitude>37.1</longitude>
  </city>
  <city name="Githunguru">
    <latitude>-1.0166667</latitude>
    <longitude>36.9166667</longitude>
  </city>
  <city name="Githuri">
    <latitude>-0.7166667</latitude>
    <longitude>37.2</longitude>
  </city>
  <city name="Githuva">
    <latitude>-1.0</latitude>
    <longitude>36.9166667</longitude>
  </city>
  <city name="Githuya">
    <latitude>-0.8666667</latitude>
    <longitude>36.9666667</longitude>
  </city>
  <city name="Gitige">
    <latitude>-0.7333333</latitude>
    <longitude>37.0333333</longitude>
  </city>
  <city name="Gitiha">
    <latitude>-1.0666667</latitude>
    <longitude>36.7</longitude>
  </city>
  <city name="Gitithia">
    <latitude>-1.05</latitude>
    <longitude>36.6166667</longitude>
  </city>
  <city name="Gititu">
    <latitude>-0.5</latitude>
    <longitude>37.0333333</longitude>
  </city>
  <city name="Gitombo">
    <latitude>-1.05</latitude>
    <longitude>36.8333333</longitude>
  </city>
  <city name="Gituamba">
    <latitude>-0.7666667</latitude>
    <longitude>37.1666667</longitude>
  </city>
  <city name="Gituandaga">
    <latitude>0.1666667</latitude>
    <longitude>36.3166667</longitude>
  </city>
  <city name="Gituge">
    <latitude>-0.65</latitude>
    <longitude>37.0166667</longitude>
  </city>
  <city name="Gitugi">
    <latitude>-0.5166667</latitude>
    <longitude>36.8666667</longitude>
  </city>
  <city name="Gitugu">
    <latitude>-0.6833333</latitude>
    <longitude>36.9333333</longitude>
  </city>
  <city name="Gitui">
    <latitude>-0.7333333</latitude>
    <longitude>37.05</longitude>
  </city>
  <city name="Gitumbi">
    <latitude>-0.45</latitude>
    <longitude>37.2666667</longitude>
  </city>
  <city name="Gitura">
    <latitude>-0.9166667</latitude>
    <longitude>37.1166667</longitude>
  </city>
  <city name="Gituru">
    <latitude>-0.8166667</latitude>
    <longitude>36.8833333</longitude>
  </city>
  <city name="Gituto">
    <latitude>-0.7166667</latitude>
    <longitude>37.0166667</longitude>
  </city>
  <city name="Gitwamba">
    <latitude>-0.9</latitude>
    <longitude>36.85</longitude>
  </city>
  <city name="Gitwe">
    <latitude>-0.95</latitude>
    <longitude>36.8166667</longitude>
  </city>
  <city name="Gitweku">
    <latitude>-0.7</latitude>
    <longitude>36.9666667</longitude>
  </city>
  <city name="Godoma">
    <latitude>-4.4</latitude>
    <longitude>39.2833333</longitude>
  </city>
  <city name="Godona">
    <latitude>-4.4</latitude>
    <longitude>39.2833333</longitude>
  </city>
  <city name="God's Hill">
    <latitude>-0.5833333</latitude>
    <longitude>37.2333333</longitude>
  </city>
  <city name="Gogoni">
    <latitude>-4.4166667</latitude>
    <longitude>39.4833333</longitude>
  </city>
  <city name="Golbanti">
    <latitude>-2.4566667</latitude>
    <longitude>40.2025</longitude>
  </city>
  <city name="Golbanti Mission">
    <latitude>-2.4566667</latitude>
    <longitude>40.2025</longitude>
  </city>
  <city name="Golini">
    <latitude>-4.15</latitude>
    <longitude>39.4666667</longitude>
  </city>
  <city name="Golo">
    <latitude>-3.9333333</latitude>
    <longitude>39.6166667</longitude>
  </city>
  <city name="Gongoni">
    <latitude>-3.0333333</latitude>
    <longitude>40.1333333</longitude>
  </city>
  <city name="Gonja">
    <latitude>-4.55</latitude>
    <longitude>39.0666667</longitude>
  </city>
  <city name="Goroba">
    <latitude>-0.6333333</latitude>
    <longitude>35.65</longitude>
  </city>
  <city name="Gors">
    <latitude>-0.5666667</latitude>
    <longitude>34.7333333</longitude>
  </city>
  <city name="Goshi">
    <latitude>-3.45</latitude>
    <longitude>39.4166667</longitude>
  </city>
  <city name="Gotani">
    <latitude>-3.7833333</latitude>
    <longitude>39.5333333</longitude>
  </city>
  <city name="Gubani">
    <latitude>-1.7166667</latitude>
    <longitude>40.1166667</longitude>
  </city>
  <city name="Gulanzi">
    <latitude>-4.1833333</latitude>
    <longitude>39.2166667</longitude>
  </city>
  <city name="Gura Gura">
    <latitude>-1.0666667</latitude>
    <longitude>36.8833333</longitude>
  </city>
  <city name="Gutini">
    <latitude>-3.4166667</latitude>
    <longitude>38.6333333</longitude>
  </city>
  <city name="Gutu">
    <latitude>-0.5666667</latitude>
    <longitude>37.3166667</longitude>
  </city>
  <city name="Habaswein">
    <latitude>1.0091667</latitude>
    <longitude>39.4880556</longitude>
  </city>
  <city name="Habul">
    <latitude>-0.5166667</latitude>
    <longitude>40.9166667</longitude>
  </city>
  <city name="Hadu">
    <latitude>-2.845</latitude>
    <longitude>39.9927778</longitude>
  </city>
  <city name="Haluabagala">
    <latitude>-2.85</latitude>
    <longitude>39.6666667</longitude>
  </city>
  <city name="Haluabagalla">
    <latitude>-2.85</latitude>
    <longitude>39.6666667</longitude>
  </city>
  <city name="Handampia">
    <latitude>-1.5833333</latitude>
    <longitude>40.0666667</longitude>
  </city>
  <city name="Handarako">
    <latitude>-1.7833333</latitude>
    <longitude>39.35</longitude>
  </city>
  <city name="Handege">
    <latitude>-1.0</latitude>
    <longitude>36.8666667</longitude>
  </city>
  <city name="Hara Hurile">
    <latitude>4.05</latitude>
    <longitude>40.2666667</longitude>
  </city>
  <city name="Harambee">
    <latitude>-1.2833333</latitude>
    <longitude>36.8666667</longitude>
  </city>
  <city name="Haridfi">
    <latitude>-0.5833333</latitude>
    <longitude>40.8166667</longitude>
  </city>
  <city name="Haruru">
    <latitude>-1.3166667</latitude>
    <longitude>40.1833333</longitude>
  </city>
  <city name="Hatha-ini">
    <latitude>-0.5</latitude>
    <longitude>36.9</longitude>
  </city>
  <city name="Heho">
    <latitude>-0.8333333</latitude>
    <longitude>37.1166667</longitude>
  </city>
  <city name="Heni Village">
    <latitude>-0.7833333</latitude>
    <longitude>36.55</longitude>
  </city>
  <city name="Hewani">
    <latitude>-2.2361111</latitude>
    <longitude>40.1947222</longitude>
  </city>
  <city name="Hidio">
    <latitude>-2.235</latitude>
    <longitude>40.7433333</longitude>
  </city>
  <city name="Hidiyo">
    <latitude>-2.235</latitude>
    <longitude>40.7433333</longitude>
  </city>
  <city name="Highridge">
    <latitude>-1.25</latitude>
    <longitude>36.8</longitude>
  </city>
  <city name="Higlet">
    <latitude>-1.0666667</latitude>
    <longitude>40.3166667</longitude>
  </city>
  <city name="Hindi">
    <latitude>-2.1813889</latitude>
    <longitude>40.825</longitude>
  </city>
  <city name="Hithe">
    <latitude>-0.4833333</latitude>
    <longitude>36.8666667</longitude>
  </city>
  <city name="Hoeys Bridge">
    <latitude>0.8833333</latitude>
    <longitude>35.1166667</longitude>
  </city>
  <city name="Hola">
    <latitude>-1.5036111</latitude>
    <longitude>40.0288889</longitude>
  </city>
  <city name="Homa Bay">
    <latitude>-0.5166667</latitude>
    <longitude>34.45</longitude>
  </city>
  <city name="Homa">
    <latitude>-0.5166667</latitude>
    <longitude>34.45</longitude>
  </city>
  <city name="Homa Lime Kowuor">
    <latitude>-0.4333333</latitude>
    <longitude>34.4666667</longitude>
  </city>
  <city name="Homa Line Owurs">
    <latitude>-0.4333333</latitude>
    <longitude>34.4666667</longitude>
  </city>
  <city name="Huguini">
    <latitude>-0.4833333</latitude>
    <longitude>36.85</longitude>
  </city>
  <city name="Huhoini">
    <latitude>-0.5166667</latitude>
    <longitude>37.0166667</longitude>
  </city>
  <city name="Huho-ini">
    <latitude>-0.5666667</latitude>
    <longitude>36.9333333</longitude>
  </city>
  <city name="Huhu-ini">
    <latitude>-0.5666667</latitude>
    <longitude>36.9333333</longitude>
  </city>
  <city name="Hunters Tree">
    <latitude>0.3166667</latitude>
    <longitude>35.1833333</longitude>
  </city>
  <city name="Ianzoni">
    <latitude>-1.6833333</latitude>
    <longitude>37.3166667</longitude>
  </city>
  <city name="Icaci">
    <latitude>-0.9833333</latitude>
    <longitude>36.8833333</longitude>
  </city>
  <city name="Icaciri">
    <latitude>-0.9833333</latitude>
    <longitude>36.8833333</longitude>
  </city>
  <city name="Icagiciru">
    <latitude>-0.45</latitude>
    <longitude>36.8666667</longitude>
  </city>
  <city name="Ichachiri">
    <latitude>-0.9833333</latitude>
    <longitude>36.8833333</longitude>
  </city>
  <city name="Ichagak">
    <latitude>-0.8166667</latitude>
    <longitude>37.0833333</longitude>
  </city>
  <city name="Ichagaki">
    <latitude>-0.8166667</latitude>
    <longitude>37.0666667</longitude>
  </city>
  <city name="Ichagichiru">
    <latitude>-0.45</latitude>
    <longitude>36.8666667</longitude>
  </city>
  <city name="Ichamara">
    <latitude>-0.55</latitude>
    <longitude>37.0833333</longitude>
  </city>
  <city name="Ichichi">
    <latitude>-0.7</latitude>
    <longitude>36.85</longitude>
  </city>
  <city name="Idokho">
    <latitude>0.05</latitude>
    <longitude>34.0</longitude>
  </city>
  <city name="Idsowe">
    <latitude>-2.2991667</latitude>
    <longitude>40.1358333</longitude>
  </city>
  <city name="Igikiro">
    <latitude>-0.8166667</latitude>
    <longitude>37.1833333</longitude>
  </city>
  <city name="Igria">
    <latitude>-1.1</latitude>
    <longitude>40.85</longitude>
  </city>
  <city name="Ihigaini">
    <latitude>-0.6833333</latitude>
    <longitude>36.9833333</longitude>
  </city>
  <city name="Ihinga">
    <latitude>-0.7666667</latitude>
    <longitude>37.0</longitude>
  </city>
  <city name="Ihithe">
    <latitude>-0.4833333</latitude>
    <longitude>36.8666667</longitude>
  </city>
  <city name="Ihua">
    <latitude>-0.4333333</latitude>
    <longitude>36.8833333</longitude>
  </city>
  <city name="Ihuririo">
    <latitude>-0.55</latitude>
    <longitude>36.8833333</longitude>
  </city>
  <city name="Ihururu">
    <latitude>-0.4166667</latitude>
    <longitude>36.8833333</longitude>
  </city>
  <city name="Ihurururu">
    <latitude>-0.4166667</latitude>
    <longitude>36.8833333</longitude>
  </city>
  <city name="Ihwagi">
    <latitude>-0.45</latitude>
    <longitude>37.15</longitude>
  </city>
  <city name="Iiuni">
    <latitude>-1.6833333</latitude>
    <longitude>37.3333333</longitude>
  </city>
  <city name="Ijara">
    <latitude>-1.6033333</latitude>
    <longitude>40.5252778</longitude>
  </city>
  <city name="Ikalaasa">
    <latitude>-1.5333333</latitude>
    <longitude>37.6666667</longitude>
  </city>
  <city name="Ikanga">
    <latitude>-3.3666667</latitude>
    <longitude>38.5166667</longitude>
  </city>
  <city name="Ikarakara">
    <latitude>-0.9666667</latitude>
    <longitude>37.4666667</longitude>
  </city>
  <city name="Ikinu">
    <latitude>-1.1</latitude>
    <longitude>36.8</longitude>
  </city>
  <city name="Ikonge">
    <latitude>-0.5333333</latitude>
    <longitude>35.0166667</longitude>
  </city>
  <city name="Ikoo">
    <latitude>-1.1833333</latitude>
    <longitude>38.1666667</longitude>
  </city>
  <city name="Ikuma">
    <latitude>-1.0</latitude>
    <longitude>36.8666667</longitude>
  </city>
  <city name="Ikumbi">
    <latitude>-0.7833333</latitude>
    <longitude>36.9</longitude>
  </city>
  <city name="Ikundu">
    <latitude>-0.7666667</latitude>
    <longitude>37.15</longitude>
  </city>
  <city name="Ikutha">
    <latitude>-2.0666667</latitude>
    <longitude>38.1833333</longitude>
  </city>
  <city name="Ilassit">
    <latitude>-2.95</latitude>
    <longitude>37.5666667</longitude>
  </city>
  <city name="Ilbisil">
    <latitude>-2.1</latitude>
    <longitude>36.7833333</longitude>
  </city>
  <city name="Ildarakwa">
    <latitude>-0.0666667</latitude>
    <longitude>36.5166667</longitude>
  </city>
  <city name="Ildolidol">
    <latitude>0.4</latitude>
    <longitude>37.1666667</longitude>
  </city>
  <city name="Ilkabere">
    <latitude>-0.9641667</latitude>
    <longitude>41.05</longitude>
  </city>
  <city name="Ilpartimaro">
    <latitude>-2.2666667</latitude>
    <longitude>36.7166667</longitude>
  </city>
  <city name="Ilyagaleni">
    <latitude>-1.75</latitude>
    <longitude>36.7</longitude>
  </city>
  <city name="Imale">
    <latitude>-2.15</latitude>
    <longitude>38.2833333</longitude>
  </city>
  <city name="Iminuet">
    <latitude>-0.85</latitude>
    <longitude>35.4833333</longitude>
  </city>
  <city name="Ina">
    <latitude>-0.4833333</latitude>
    <longitude>37.55</longitude>
  </city>
  <city name="Ingile">
    <latitude>-1.6</latitude>
    <longitude>39.8166667</longitude>
  </city>
  <city name="Ingille">
    <latitude>-1.6</latitude>
    <longitude>39.8166667</longitude>
  </city>
  <city name="Inyokoni">
    <latitude>-1.7833333</latitude>
    <longitude>37.4</longitude>
  </city>
  <city name="Irangi">
    <latitude>-0.35</latitude>
    <longitude>39.4833333</longitude>
  </city>
  <city name="Iregi">
    <latitude>-0.7666667</latitude>
    <longitude>37.1</longitude>
  </city>
  <city name="Iriguini">
    <latitude>-0.8</latitude>
    <longitude>36.9666667</longitude>
  </city>
  <city name="Iruri">
    <latitude>-0.35</latitude>
    <longitude>37.0833333</longitude>
  </city>
  <city name="Ishiara">
    <latitude>-0.45</latitude>
    <longitude>37.7833333</longitude>
  </city>
  <city name="Isiolo">
    <latitude>0.35</latitude>
    <longitude>37.5833333</longitude>
  </city>
  <city name="Issa">
    <latitude>0.7166667</latitude>
    <longitude>35.8166667</longitude>
  </city>
  <city name="Issas">
    <latitude>0.7166667</latitude>
    <longitude>35.8166667</longitude>
  </city>
  <city name="Isuvya">
    <latitude>-1.55</latitude>
    <longitude>37.2666667</longitude>
  </city>
  <city name="Itaga">
    <latitude>-0.8</latitude>
    <longitude>37.0333333</longitude>
  </city>
  <city name="Itetani">
    <latitude>-1.5833333</latitude>
    <longitude>37.3833333</longitude>
  </city>
  <city name="Ithaithi">
    <latitude>-0.4666667</latitude>
    <longitude>37.0666667</longitude>
  </city>
  <city name="Ithanji">
    <latitude>-0.5333333</latitude>
    <longitude>37.05</longitude>
  </city>
  <city name="Ithareni">
    <latitude>-0.5</latitude>
    <longitude>37.3166667</longitude>
  </city>
  <city name="Ithekahuno">
    <latitude>-0.5166667</latitude>
    <longitude>37.05</longitude>
  </city>
  <city name="Ithemboni">
    <latitude>-1.65</latitude>
    <longitude>37.45</longitude>
  </city>
  <city name="Ithenguri">
    <latitude>-0.4666667</latitude>
    <longitude>36.9666667</longitude>
  </city>
  <city name="Itheru">
    <latitude>-0.8</latitude>
    <longitude>37.1166667</longitude>
  </city>
  <city name="Ithirameru">
    <latitude>-0.95</latitude>
    <longitude>36.7833333</longitude>
  </city>
  <city name="Ithoku">
    <latitude>-1.8333333</latitude>
    <longitude>38.5666667</longitude>
  </city>
  <city name="Ithumba">
    <latitude>-2.2</latitude>
    <longitude>38.4</longitude>
  </city>
  <city name="Itiati">
    <latitude>-0.4166667</latitude>
    <longitude>37.1</longitude>
  </city>
  <city name="Itugururu">
    <latitude>-0.4166667</latitude>
    <longitude>37.7166667</longitude>
  </city>
  <city name="Itundu">
    <latitude>-0.4166667</latitude>
    <longitude>37.1833333</longitude>
  </city>
  <city name="Ituru">
    <latitude>-1.0</latitude>
    <longitude>36.9166667</longitude>
  </city>
  <city name="Iuani">
    <latitude>-1.7333333</latitude>
    <longitude>37.5166667</longitude>
  </city>
  <city name="Iyego">
    <latitude>-0.6666667</latitude>
    <longitude>36.9833333</longitude>
  </city>
  <city name="Jaba Dimtu">
    <latitude>2.8863889</latitude>
    <longitude>41.0480556</longitude>
  </city>
  <city name="Jaleny">
    <latitude>-0.9833333</latitude>
    <longitude>34.45</longitude>
  </city>
  <city name="Jaleny's Village">
    <latitude>-0.9833333</latitude>
    <longitude>34.45</longitude>
  </city>
  <city name="Jambe">
    <latitude>-4.6</latitude>
    <longitude>39.1666667</longitude>
  </city>
  <city name="Jambole">
    <latitude>-3.7</latitude>
    <longitude>39.2666667</longitude>
  </city>
  <city name="Jamhuri Park">
    <latitude>-1.3</latitude>
    <longitude>36.7666667</longitude>
  </city>
  <city name="Jamji">
    <latitude>-0.4666667</latitude>
    <longitude>35.1833333</longitude>
  </city>
  <city name="Janoni">
    <latitude>-0.5666667</latitude>
    <longitude>38.5166667</longitude>
  </city>
  <city name="Jarabuni">
    <latitude>-3.6333333</latitude>
    <longitude>39.7333333</longitude>
  </city>
  <city name="Jarabunyi">
    <latitude>-3.6333333</latitude>
    <longitude>39.7333333</longitude>
  </city>
  <city name="Jara">
    <latitude>-0.7111111</latitude>
    <longitude>39.8102778</longitude>
  </city>
  <city name="Jara Melka">
    <latitude>-0.7111111</latitude>
    <longitude>39.8102778</longitude>
  </city>
  <city name="Jaribuni">
    <latitude>-3.6333333</latitude>
    <longitude>39.7333333</longitude>
  </city>
  <city name="Jego">
    <latitude>-4.65</latitude>
    <longitude>39.1833333</longitude>
  </city>
  <city name="Jera">
    <latitude>0.2861111</latitude>
    <longitude>34.2625</longitude>
  </city>
  <city name="Jeure">
    <latitude>-3.8666667</latitude>
    <longitude>39.7833333</longitude>
  </city>
  <city name="Jeuri">
    <latitude>-3.8666667</latitude>
    <longitude>39.7833333</longitude>
  </city>
  <city name="Jila">
    <latitude>-3.4166667</latitude>
    <longitude>39.5333333</longitude>
  </city>
  <city name="Jilore">
    <latitude>-3.1833333</latitude>
    <longitude>39.9</longitude>
  </city>
  <city name="Jilore Suore">
    <latitude>-3.1833333</latitude>
    <longitude>39.9</longitude>
  </city>
  <city name="Jipe">
    <latitude>-2.1666667</latitude>
    <longitude>40.8833333</longitude>
  </city>
  <city name="Jiweni">
    <latitude>-4.25</latitude>
    <longitude>39.1833333</longitude>
  </city>
  <city name="Jomvu">
    <latitude>-3.9833333</latitude>
    <longitude>39.6166667</longitude>
  </city>
  <city name="Jora">
    <latitude>-3.8333333</latitude>
    <longitude>38.65</longitude>
  </city>
  <city name="Josephs">
    <latitude>-0.6166667</latitude>
    <longitude>34.5666667</longitude>
  </city>
  <city name="Juga">
    <latitude>-1.1833333</latitude>
    <longitude>37.1166667</longitude>
  </city>
  <city name="Juja">
    <latitude>-1.1833333</latitude>
    <longitude>37.1166667</longitude>
  </city>
  <city name="Jumba la Mtwana">
    <latitude>-3.95</latitude>
    <longitude>39.7666667</longitude>
  </city>
  <city name="Jumvu">
    <latitude>-3.9833333</latitude>
    <longitude>39.6166667</longitude>
  </city>
  <city name="Junda">
    <latitude>-4.0166667</latitude>
    <longitude>39.6666667</longitude>
  </city>
  <city name="Junja">
    <latitude>-2.0833333</latitude>
    <longitude>40.7666667</longitude>
  </city>
  <city name="Junju">
    <latitude>-3.85</latitude>
    <longitude>39.7333333</longitude>
  </city>
  <city name="Kaaga">
    <latitude>0.0666667</latitude>
    <longitude>37.65</longitude>
  </city>
  <city name="Kaagogi">
    <latitude>-0.4333333</latitude>
    <longitude>36.9</longitude>
  </city>
  <city name="Kaani">
    <latitude>-1.5166667</latitude>
    <longitude>37.35</longitude>
  </city>
  <city name="Kaathene">
    <latitude>0.2333333</latitude>
    <longitude>37.9333333</longitude>
  </city>
  <city name="Kabae">
    <latitude>-0.5166667</latitude>
    <longitude>37.3166667</longitude>
  </city>
  <city name="Kabage">
    <latitude>-0.4</latitude>
    <longitude>36.8166667</longitude>
  </city>
  <city name="Kabaldamet">
    <latitude>1.2333333</latitude>
    <longitude>35.6333333</longitude>
  </city>
  <city name="Kabaloamet">
    <latitude>1.2333333</latitude>
    <longitude>35.6333333</longitude>
  </city>
  <city name="Kabara">
    <latitude>-0.5166667</latitude>
    <longitude>37.3166667</longitude>
  </city>
  <city name="Kabare">
    <latitude>-0.5166667</latitude>
    <longitude>37.3166667</longitude>
  </city>
  <city name="Kabarnet">
    <latitude>0.5</latitude>
    <longitude>35.75</longitude>
  </city>
  <city name="Kabartonjo">
    <latitude>0.6333333</latitude>
    <longitude>35.8</longitude>
  </city>
  <city name="Kabartonjo Mission">
    <latitude>0.6333333</latitude>
    <longitude>35.8</longitude>
  </city>
  <city name="Kabaru">
    <latitude>-0.2833333</latitude>
    <longitude>37.1666667</longitude>
  </city>
  <city name="Kabati">
    <latitude>-0.95</latitude>
    <longitude>37.1</longitude>
  </city>
  <city name="Kabebero">
    <latitude>-0.55</latitude>
    <longitude>36.8666667</longitude>
  </city>
  <city name="Kabete">
    <latitude>-1.2666667</latitude>
    <longitude>36.7166667</longitude>
  </city>
  <city name="Kabetwa">
    <latitude>1.15</latitude>
    <longitude>35.6333333</longitude>
  </city>
  <city name="Kabiboni">
    <latitude>-3.0</latitude>
    <longitude>40.0166667</longitude>
  </city>
  <city name="Kabieni">
    <latitude>-3.8833333</latitude>
    <longitude>39.5833333</longitude>
  </city>
  <city name="Kabimoi">
    <latitude>0.0166667</latitude>
    <longitude>35.7833333</longitude>
  </city>
  <city name="Kabisaga">
    <latitude>0.4333333</latitude>
    <longitude>35.1166667</longitude>
  </city>
  <city name="Kabiyet">
    <latitude>0.4</latitude>
    <longitude>35.0833333</longitude>
  </city>
  <city name="Kabluk">
    <latitude>0.5666667</latitude>
    <longitude>35.65</longitude>
  </city>
  <city name="Kabochu">
    <latitude>-1.1833333</latitude>
    <longitude>36.6833333</longitude>
  </city>
  <city name="Kabola">
    <latitude>-0.8333333</latitude>
    <longitude>34.5333333</longitude>
  </city>
  <city name="Kabondo">
    <latitude>-0.45</latitude>
    <longitude>34.8833333</longitude>
  </city>
  <city name="Kabonge">
    <latitude>-0.5</latitude>
    <longitude>37.2166667</longitude>
  </city>
  <city name="Kabuku">
    <latitude>-0.95</latitude>
    <longitude>37.1</longitude>
  </city>
  <city name="Kabungwa">
    <latitude>0.2166667</latitude>
    <longitude>35.15</longitude>
  </city>
  <city name="Kabuti">
    <latitude>-0.4333333</latitude>
    <longitude>37.3333333</longitude>
  </city>
  <city name="Kacheliba">
    <latitude>1.4833333</latitude>
    <longitude>35.0166667</longitude>
  </city>
  <city name="Kadenge">
    <latitude>0.0236111</latitude>
    <longitude>34.1858333</longitude>
  </city>
  <city name="Kadengi">
    <latitude>0.0236111</latitude>
    <longitude>34.1858333</longitude>
  </city>
  <city name="Kadimu">
    <latitude>-0.0666667</latitude>
    <longitude>34.15</longitude>
  </city>
  <city name="Kadzeweni">
    <latitude>-3.65</latitude>
    <longitude>39.4833333</longitude>
  </city>
  <city name="Kadzinuni">
    <latitude>-3.75</latitude>
    <longitude>39.8166667</longitude>
  </city>
  <city name="Kaembekaesha">
    <latitude>-3.0666667</latitude>
    <longitude>40.1</longitude>
  </city>
  <city name="Kagaa">
    <latitude>-0.75</latitude>
    <longitude>36.9666667</longitude>
  </city>
  <city name="Kagaare">
    <latitude>-0.4333333</latitude>
    <longitude>37.5666667</longitude>
  </city>
  <city name="Kagaari">
    <latitude>-0.4333333</latitude>
    <longitude>37.5666667</longitude>
  </city>
  <city name="Kaganda">
    <latitude>-0.75</latitude>
    <longitude>36.95</longitude>
  </city>
  <city name="Kagarii">
    <latitude>-0.5666667</latitude>
    <longitude>37.0166667</longitude>
  </city>
  <city name="Kagarumo">
    <latitude>-0.85</latitude>
    <longitude>37.1</longitude>
  </city>
  <city name="Kagere">
    <latitude>-0.5</latitude>
    <longitude>36.95</longitude>
  </city>
  <city name="Kagicha">
    <latitude>-0.6</latitude>
    <longitude>36.9</longitude>
  </city>
  <city name="Kagioini">
    <latitude>-0.4833333</latitude>
    <longitude>36.9</longitude>
  </city>
  <city name="Kagio">
    <latitude>-0.6166667</latitude>
    <longitude>37.25</longitude>
  </city>
  <city name="Kagira">
    <latitude>-0.85</latitude>
    <longitude>37.0333333</longitude>
  </city>
  <city name="Kagondo">
    <latitude>-1.2666667</latitude>
    <longitude>36.7</longitude>
  </city>
  <city name="Kagondu">
    <latitude>-0.7666667</latitude>
    <longitude>36.8666667</longitude>
  </city>
  <city name="Kagongo">
    <latitude>-0.5</latitude>
    <longitude>37.3333333</longitude>
  </city>
  <city name="Kagonye">
    <latitude>-0.5166667</latitude>
    <longitude>36.9166667</longitude>
  </city>
  <city name="Kagumaini">
    <latitude>-0.9833333</latitude>
    <longitude>36.9</longitude>
  </city>
  <city name="Kagumoini">
    <latitude>-0.5333333</latitude>
    <longitude>37.1</longitude>
  </city>
  <city name="Kagumo">
    <latitude>-0.4666667</latitude>
    <longitude>37.2333333</longitude>
  </city>
  <city name="Kagundo">
    <latitude>-0.45</latitude>
    <longitude>36.8833333</longitude>
  </city>
  <city name="Kagunduine">
    <latitude>-0.9</latitude>
    <longitude>37.05</longitude>
  </city>
  <city name="Kagundu-ini">
    <latitude>-0.45</latitude>
    <longitude>36.8833333</longitude>
  </city>
  <city name="Kagunduini">
    <latitude>-0.9</latitude>
    <longitude>37.05</longitude>
  </city>
  <city name="Kagundu">
    <latitude>-0.45</latitude>
    <longitude>36.8833333</longitude>
  </city>
  <city name="Kagurumo">
    <latitude>-0.85</latitude>
    <longitude>37.1</longitude>
  </city>
  <city name="Kaguthi">
    <latitude>-0.8833333</latitude>
    <longitude>36.9666667</longitude>
  </city>
  <city name="Kagwathi">
    <latitude>-0.4666667</latitude>
    <longitude>36.9166667</longitude>
  </city>
  <city name="Kagwe">
    <latitude>-1.0</latitude>
    <longitude>36.7333333</longitude>
  </city>
  <city name="Kagwongo">
    <latitude>-0.9833333</latitude>
    <longitude>36.7333333</longitude>
  </city>
  <city name="Kahaaro">
    <latitude>-0.5333333</latitude>
    <longitude>37.05</longitude>
  </city>
  <city name="Kahaini">
    <latitude>-0.85</latitude>
    <longitude>37.1666667</longitude>
  </city>
  <city name="Kahara">
    <latitude>-0.5333333</latitude>
    <longitude>37.05</longitude>
  </city>
  <city name="Kaharati">
    <latitude>-0.85</latitude>
    <longitude>37.1333333</longitude>
  </city>
  <city name="Kaharo">
    <latitude>-0.6</latitude>
    <longitude>37.0666667</longitude>
  </city>
  <city name="Kahawa">
    <latitude>-1.1833333</latitude>
    <longitude>36.9166667</longitude>
  </city>
  <city name="Kahigaini">
    <latitude>-0.4</latitude>
    <longitude>36.8666667</longitude>
  </city>
  <city name="Kahiga">
    <latitude>-0.4333333</latitude>
    <longitude>37.0333333</longitude>
  </city>
  <city name="Kahithe">
    <latitude>-0.7333333</latitude>
    <longitude>36.9833333</longitude>
  </city>
  <city name="Kahuguini">
    <latitude>-1.0333333</latitude>
    <longitude>36.9</longitude>
  </city>
  <city name="Kahuhia">
    <latitude>-0.7166667</latitude>
    <longitude>37.05</longitude>
  </city>
  <city name="Kahuho">
    <latitude>-1.2166667</latitude>
    <longitude>36.6833333</longitude>
  </city>
  <city name="Kahunguini">
    <latitude>-1.0333333</latitude>
    <longitude>36.9</longitude>
  </city>
  <city name="Kahuro">
    <latitude>-0.75</latitude>
    <longitude>37.0</longitude>
  </city>
  <city name="Kahuti">
    <latitude>-0.7</latitude>
    <longitude>36.9666667</longitude>
  </city>
  <city name="Kaiboi">
    <latitude>0.4166667</latitude>
    <longitude>35.05</longitude>
  </city>
  <city name="Kailembwa">
    <latitude>-2.2</latitude>
    <longitude>38.0666667</longitude>
  </city>
  <city name="Kaimba">
    <latitude>-1.2</latitude>
    <longitude>36.6833333</longitude>
  </city>
  <city name="Kaimu">
    <latitude>-1.1666667</latitude>
    <longitude>38.0</longitude>
  </city>
  <city name="Kairi Ka Igamba">
    <latitude>-0.9166667</latitude>
    <longitude>36.8833333</longitude>
  </city>
  <city name="Kairi">
    <latitude>-1.0833333</latitude>
    <longitude>36.8333333</longitude>
  </city>
  <city name="Kairo">
    <latitude>-0.6</latitude>
    <longitude>36.8666667</longitude>
  </city>
  <city name="Kairori">
    <latitude>-0.4333333</latitude>
    <longitude>37.4666667</longitude>
  </city>
  <city name="Kairuri">
    <latitude>-0.4333333</latitude>
    <longitude>37.4666667</longitude>
  </city>
  <city name="Kairuthi">
    <latitude>-0.5333333</latitude>
    <longitude>36.8833333</longitude>
  </city>
  <city name="Kaitheri">
    <latitude>-0.5166667</latitude>
    <longitude>37.2833333</longitude>
  </city>
  <city name="Kaitui">
    <latitude>-0.2833333</latitude>
    <longitude>35.1666667</longitude>
  </city>
  <city name="Kaituiy">
    <latitude>-0.2833333</latitude>
    <longitude>35.1666667</longitude>
  </city>
  <city name="Kaiyaba">
    <latitude>-0.4666667</latitude>
    <longitude>37.0833333</longitude>
  </city>
  <city name="Kajiado">
    <latitude>-1.85</latitude>
    <longitude>36.7833333</longitude>
  </city>
  <city name="Kajinga">
    <latitude>-1.2</latitude>
    <longitude>36.6833333</longitude>
  </city>
  <city name="Kajire">
    <latitude>-3.5166667</latitude>
    <longitude>38.6</longitude>
  </city>
  <city name="Kakalia">
    <latitude>-1.6</latitude>
    <longitude>37.3666667</longitude>
  </city>
  <city name="Kakamega">
    <latitude>0.2833333</latitude>
    <longitude>34.75</longitude>
  </city>
  <city name="Kakangani">
    <latitude>-2.4166667</latitude>
    <longitude>37.9833333</longitude>
  </city>
  <city name="Kakomani">
    <latitude>-3.85</latitude>
    <longitude>39.6333333</longitude>
  </city>
  <city name="Kakoneni">
    <latitude>-3.1666667</latitude>
    <longitude>39.8666667</longitude>
  </city>
  <city name="Kakuma">
    <latitude>3.7166667</latitude>
    <longitude>34.8666667</longitude>
  </city>
  <city name="Kakunike">
    <latitude>-0.7666667</latitude>
    <longitude>38.35</longitude>
  </city>
  <city name="Kakunio">
    <latitude>-1.9166667</latitude>
    <longitude>38.1666667</longitude>
  </city>
  <city name="Kakuyuni">
    <latitude>-3.2166667</latitude>
    <longitude>40.0</longitude>
  </city>
  <city name="Kakya">
    <latitude>-1.6</latitude>
    <longitude>39.0333333</longitude>
  </city>
  <city name="Kalaluwe">
    <latitude>-2.9825</latitude>
    <longitude>39.7391667</longitude>
  </city>
  <city name="Kalamba">
    <latitude>-1.8666667</latitude>
    <longitude>37.5166667</longitude>
  </city>
  <city name="Kalandini">
    <latitude>-0.1666667</latitude>
    <longitude>34.3666667</longitude>
  </city>
  <city name="Kalasa">
    <latitude>-1.5333333</latitude>
    <longitude>37.6666667</longitude>
  </city>
  <city name="Kalawa">
    <latitude>-1.3666667</latitude>
    <longitude>38.0166667</longitude>
  </city>
  <city name="Kalawa Market">
    <latitude>-1.65</latitude>
    <longitude>37.7</longitude>
  </city>
  <city name="Kalema">
    <latitude>-1.7833333</latitude>
    <longitude>36.0666667</longitude>
  </city>
  <city name="Kalemma">
    <latitude>-1.7833333</latitude>
    <longitude>36.0666667</longitude>
  </city>
  <city name="Kalii">
    <latitude>-2.1</latitude>
    <longitude>37.7666667</longitude>
  </city>
  <city name="Kali">
    <latitude>-1.6333333</latitude>
    <longitude>37.3833333</longitude>
  </city>
  <city name="Kalimbui">
    <latitude>-1.1</latitude>
    <longitude>37.9666667</longitude>
  </city>
  <city name="Kalimoni">
    <latitude>-1.1</latitude>
    <longitude>37.0166667</longitude>
  </city>
  <city name="Kalitini">
    <latitude>-0.9833333</latitude>
    <longitude>38.25</longitude>
  </city>
  <city name="Kalivu">
    <latitude>-2.0166667</latitude>
    <longitude>38.1</longitude>
  </city>
  <city name="Kaloleni">
    <latitude>-3.8166667</latitude>
    <longitude>39.6333333</longitude>
  </city>
  <city name="Kalota">
    <latitude>-2.5166667</latitude>
    <longitude>40.3666667</longitude>
  </city>
  <city name="Kalulini">
    <latitude>-2.35</latitude>
    <longitude>37.9833333</longitude>
  </city>
  <city name="Kaluluini">
    <latitude>-2.1</latitude>
    <longitude>38.2833333</longitude>
  </city>
  <city name="Kalundu">
    <latitude>-1.35</latitude>
    <longitude>38.0166667</longitude>
  </city>
  <city name="Kamacharia">
    <latitude>-0.6</latitude>
    <longitude>37.0</longitude>
  </city>
  <city name="Kamae">
    <latitude>-0.85</latitude>
    <longitude>36.6333333</longitude>
  </city>
  <city name="Kamaende">
    <latitude>-0.3666667</latitude>
    <longitude>37.85</longitude>
  </city>
  <city name="Kamahia">
    <latitude>-1.0333333</latitude>
    <longitude>36.7166667</longitude>
  </city>
  <city name="Kamakoiwa">
    <latitude>0.7833333</latitude>
    <longitude>34.7833333</longitude>
  </city>
  <city name="Kamakuywa">
    <latitude>0.7833333</latitude>
    <longitude>34.7833333</longitude>
  </city>
  <city name="Kamale">
    <latitude>-2.75</latitude>
    <longitude>40.0</longitude>
  </city>
  <city name="Kamamut">
    <latitude>0.4333333</latitude>
    <longitude>34.9833333</longitude>
  </city>
  <city name="Kamando">
    <latitude>-1.1</latitude>
    <longitude>36.7666667</longitude>
  </city>
  <city name="Kamandura">
    <latitude>-1.1333333</latitude>
    <longitude>36.6333333</longitude>
  </city>
  <city name="Kamarabuyon">
    <latitude>0.4833333</latitude>
    <longitude>36.1833333</longitude>
  </city>
  <city name="Kamarr">
    <latitude>0.2666667</latitude>
    <longitude>36.0166667</longitude>
  </city>
  <city name="Kamathuri">
    <latitude>-0.5666667</latitude>
    <longitude>37.2333333</longitude>
  </city>
  <city name="Kamatu">
    <latitude>-0.5</latitude>
    <longitude>37.1</longitude>
  </city>
  <city name="Kambaa">
    <latitude>-0.9833333</latitude>
    <longitude>36.65</longitude>
  </city>
  <city name="Kambara">
    <latitude>-0.6666667</latitude>
    <longitude>37.05</longitude>
  </city>
  <city name="Kamberua">
    <latitude>-0.7333333</latitude>
    <longitude>37.2</longitude>
  </city>
  <city name="Kambi ya Munyu">
    <latitude>-2.3166667</latitude>
    <longitude>37.9166667</longitude>
  </city>
  <city name="Kambu">
    <latitude>-2.5833333</latitude>
    <longitude>38.0833333</longitude>
  </city>
  <city name="Kamburu">
    <latitude>-1.0333333</latitude>
    <longitude>36.7333333</longitude>
  </city>
  <city name="Kameichiri">
    <latitude>-0.65</latitude>
    <longitude>37.3</longitude>
  </city>
  <city name="Kamira">
    <latitude>-0.8166667</latitude>
    <longitude>37.05</longitude>
  </city>
  <city name="Kamirithu">
    <latitude>-1.1166667</latitude>
    <longitude>36.6333333</longitude>
  </city>
  <city name="Kamisinga">
    <latitude>0.8</latitude>
    <longitude>34.7</longitude>
  </city>
  <city name="Kamleza">
    <latitude>-3.45</latitude>
    <longitude>37.6833333</longitude>
  </city>
  <city name="Kamnunguuawa">
    <latitude>1.9666667</latitude>
    <longitude>35.1333333</longitude>
  </city>
  <city name="Kamokabi">
    <latitude>-0.7666667</latitude>
    <longitude>36.9333333</longitude>
  </city>
  <city name="Kamondo">
    <latitude>-1.1</latitude>
    <longitude>36.7333333</longitude>
  </city>
  <city name="Kampi ya Bibi">
    <latitude>-3.4</latitude>
    <longitude>38.0333333</longitude>
  </city>
  <city name="Kampi-Ya-Chumvi">
    <latitude>0.4333333</latitude>
    <longitude>37.6333333</longitude>
  </city>
  <city name="Kampi Ya Juu">
    <latitude>0.3333333</latitude>
    <longitude>37.5666667</longitude>
  </city>
  <city name="Kampi ya Kerengenzi">
    <latitude>-2.9166667</latitude>
    <longitude>40.1333333</longitude>
  </city>
  <city name="Kampi ya Kerenzeni">
    <latitude>-2.9166667</latitude>
    <longitude>40.1333333</longitude>
  </city>
  <city name="Kampi ya Njemi">
