<?xml version="1.0" encoding="UTF-8"?>
<country code="lv" name="Lettonie">
  <city name="Abaine">
    <latitude>56.8333333</latitude>
    <longitude>26.8666667</longitude>
  </city>
  <city name="Abali">
    <latitude>57.0833333</latitude>
    <longitude>21.6833333</longitude>
  </city>
  <city name="Abaruni">
    <latitude>55.9833333</latitude>
    <longitude>26.5666667</longitude>
  </city>
  <city name="Abaruny">
    <latitude>55.9833333</latitude>
    <longitude>26.5666667</longitude>
  </city>
  <city name="Abava">
    <latitude>56.95</latitude>
    <longitude>22.9666667</longitude>
  </city>
  <city name="Abava Bijusas Pusmuizas Centrs">
    <latitude>57.1</latitude>
    <longitude>21.8833333</longitude>
  </city>
  <city name="Abeles">
    <latitude>56.4797222</latitude>
    <longitude>23.2611111</longitude>
  </city>
  <city name="Abeli">
    <latitude>56.4797222</latitude>
    <longitude>23.2611111</longitude>
  </city>
  <city name="Abelites">
    <latitude>56.7666667</latitude>
    <longitude>21.4666667</longitude>
  </city>
  <city name="Abelkrogs">
    <latitude>57.0833333</latitude>
    <longitude>21.6833333</longitude>
  </city>
  <city name="Abelnieki">
    <latitude>57.3</latitude>
    <longitude>21.6</longitude>
  </city>
  <city name="Abgunste">
    <latitude>56.4763889</latitude>
    <longitude>23.4869444</longitude>
  </city>
  <city name="Aboldari">
    <latitude>56.9333333</latitude>
    <longitude>27.0333333</longitude>
  </city>
  <city name="Aboli">
    <latitude>56.8</latitude>
    <longitude>22.3833333</longitude>
  </city>
  <city name="Abolini">
    <latitude>56.5308333</latitude>
    <longitude>23.6061111</longitude>
  </city>
  <city name="Abolkalni">
    <latitude>56.6666667</latitude>
    <longitude>26.25</longitude>
  </city>
  <city name="Aboltini">
    <latitude>57.6013889</latitude>
    <longitude>24.4952778</longitude>
  </city>
  <city name="Abragciems">
    <latitude>57.2027778</latitude>
    <longitude>23.2036111</longitude>
  </city>
  <city name="Abragtsiems">
    <latitude>57.2027778</latitude>
    <longitude>23.2036111</longitude>
  </city>
  <city name="Abragtsiyems">
    <latitude>57.2027778</latitude>
    <longitude>23.2036111</longitude>
  </city>
  <city name="Abricki">
    <latitude>56.5</latitude>
    <longitude>28.0</longitude>
  </city>
  <city name="Abrina">
    <latitude>56.9666667</latitude>
    <longitude>27.6166667</longitude>
  </city>
  <city name="Abrini">
    <latitude>56.9666667</latitude>
    <longitude>27.6166667</longitude>
  </city>
  <city name="Abritski">
    <latitude>56.5</latitude>
    <longitude>28.0</longitude>
  </city>
  <city name="Abrupe">
    <latitude>57.1333333</latitude>
    <longitude>26.0</longitude>
  </city>
  <city name="Abrup'i">
    <latitude>57.1333333</latitude>
    <longitude>26.0</longitude>
  </city>
  <city name="Abrupji">
    <latitude>57.1333333</latitude>
    <longitude>26.0</longitude>
  </city>
  <city name="Absera">
    <latitude>56.2</latitude>
    <longitude>25.6166667</longitude>
  </city>
  <city name="Abserdi">
    <latitude>56.2</latitude>
    <longitude>25.6166667</longitude>
  </city>
  <city name="Abserdy">
    <latitude>56.2</latitude>
    <longitude>25.6166667</longitude>
  </city>
  <city name="Abtupe">
    <latitude>57.1333333</latitude>
    <longitude>26.0</longitude>
  </city>
  <city name="Abulas">
    <latitude>56.8</latitude>
    <longitude>22.3833333</longitude>
  </city>
  <city name="Adamamuiza">
    <latitude>57.4333333</latitude>
    <longitude>26.6666667</longitude>
  </city>
  <city name="Adami">
    <latitude>57.4333333</latitude>
    <longitude>26.6666667</longitude>
  </city>
  <city name="Adamova">
    <latitude>56.3</latitude>
    <longitude>28.1666667</longitude>
  </city>
  <city name="Adams">
    <latitude>57.4333333</latitude>
    <longitude>26.6666667</longitude>
  </city>
  <city name="Adazhi-02">
    <latitude>57.0938889</latitude>
    <longitude>24.3655556</longitude>
  </city>
  <city name="Adazhi">
    <latitude>57.0758333</latitude>
    <longitude>24.3213889</longitude>
  </city>
  <city name="Adazi 2">
    <latitude>57.0938889</latitude>
    <longitude>24.3655556</longitude>
  </city>
  <city name="Adazi">
    <latitude>57.0758333</latitude>
    <longitude>24.3213889</longitude>
  </city>
  <city name="Adazi Divi">
    <latitude>57.0938889</latitude>
    <longitude>24.3655556</longitude>
  </city>
  <city name="Aderkasi">
    <latitude>56.85</latitude>
    <longitude>25.3333333</longitude>
  </city>
  <city name="Aderkasu Muiza">
    <latitude>56.85</latitude>
    <longitude>25.3333333</longitude>
  </city>
  <city name="Adganiski">
    <latitude>55.9166667</latitude>
    <longitude>27.4166667</longitude>
  </city>
  <city name="Adgoniski">
    <latitude>55.9166667</latitude>
    <longitude>27.4166667</longitude>
  </city>
  <city name="Adminani">
    <latitude>56.5166667</latitude>
    <longitude>25.8</longitude>
  </city>
  <city name="Aduliena">
    <latitude>57.0833333</latitude>
    <longitude>26.5166667</longitude>
  </city>
  <city name="Adumnieki">
    <latitude>56.85</latitude>
    <longitude>26.0333333</longitude>
  </city>
  <city name="Adzas">
    <latitude>56.85</latitude>
    <longitude>21.55</longitude>
  </city>
  <city name="Adze">
    <latitude>56.85</latitude>
    <longitude>21.55</longitude>
  </city>
  <city name="Adze Muizas Centrs">
    <latitude>56.85</latitude>
    <longitude>21.55</longitude>
  </city>
  <city name="Adzes">
    <latitude>56.85</latitude>
    <longitude>21.55</longitude>
  </city>
  <city name="Adzhuny">
    <latitude>56.3208333</latitude>
    <longitude>24.0625</longitude>
  </city>
  <city name="Adzhyuny">
    <latitude>56.3208333</latitude>
    <longitude>24.0625</longitude>
  </city>
  <city name="Adzi">
    <latitude>56.85</latitude>
    <longitude>21.55</longitude>
  </city>
  <city name="Adziuni">
    <latitude>56.3208333</latitude>
    <longitude>24.0625</longitude>
  </city>
  <city name="Adzjuni">
    <latitude>56.3208333</latitude>
    <longitude>24.0625</longitude>
  </city>
  <city name="Adzuni">
    <latitude>56.3208333</latitude>
    <longitude>24.0625</longitude>
  </city>
  <city name="Adzu Viensetas">
    <latitude>56.85</latitude>
    <longitude>21.55</longitude>
  </city>
  <city name="Agenkalne Inlet">
    <latitude>56.9397222</latitude>
    <longitude>24.0738889</longitude>
  </city>
  <city name="Agenskalna">
    <latitude>56.9397222</latitude>
    <longitude>24.0738889</longitude>
  </city>
  <city name="Agenskalns">
    <latitude>56.9397222</latitude>
    <longitude>24.0738889</longitude>
  </city>
  <city name="Aglona">
    <latitude>56.1333333</latitude>
    <longitude>27.0166667</longitude>
  </city>
  <city name="Aglonas Muiza">
    <latitude>56.1333333</latitude>
    <longitude>27.0166667</longitude>
  </city>
  <city name="Agluna">
    <latitude>56.1333333</latitude>
    <longitude>27.0166667</longitude>
  </city>
  <city name="Agureckaja">
    <latitude>56.15</latitude>
    <longitude>27.15</longitude>
  </city>
  <city name="Aijazi">
    <latitude>57.3816667</latitude>
    <longitude>24.7438889</longitude>
  </city>
  <city name="Ainazi">
    <latitude>57.8636111</latitude>
    <longitude>24.3577778</longitude>
  </city>
  <city name="Aishpury">
    <latitude>55.9666667</latitude>
    <longitude>27.1666667</longitude>
  </city>
  <city name="Aiskari">
    <latitude>56.7333333</latitude>
    <longitude>26.7</longitude>
  </city>
  <city name="Aiskorkli">
    <latitude>56.7333333</latitude>
    <longitude>26.7</longitude>
  </city>
  <city name="Aispuri">
    <latitude>55.9666667</latitude>
    <longitude>27.1666667</longitude>
  </city>
  <city name="Aispute">
    <latitude>56.7166667</latitude>
    <longitude>21.6</longitude>
  </city>
  <city name="Aistere">
    <latitude>56.6333333</latitude>
    <longitude>21.3</longitude>
  </city>
  <city name="Aistereskrogs">
    <latitude>56.6333333</latitude>
    <longitude>21.3</longitude>
  </city>
  <city name="Aiviekstes">
    <latitude>56.7666667</latitude>
    <longitude>26.4</longitude>
  </city>
  <city name="Aizape">
    <latitude>56.9166667</latitude>
    <longitude>22.6</longitude>
  </city>
  <city name="Aizdzire">
    <latitude>57.0</latitude>
    <longitude>22.7333333</longitude>
  </city>
  <city name="Aizdzires Muiza">
    <latitude>57.0</latitude>
    <longitude>22.7333333</longitude>
  </city>
  <city name="Aizkakles">
    <latitude>56.7333333</latitude>
    <longitude>26.7</longitude>
  </city>
  <city name="Aizkalne">
    <latitude>56.2</latitude>
    <longitude>26.7833333</longitude>
  </city>
  <city name="Aizkalni">
    <latitude>56.2</latitude>
    <longitude>26.7833333</longitude>
  </city>
  <city name="Aizkarkles">
    <latitude>56.7333333</latitude>
    <longitude>26.7</longitude>
  </city>
  <city name="Aizklani">
    <latitude>57.6666667</latitude>
    <longitude>22.5666667</longitude>
  </city>
  <city name="Aizkraukle">
    <latitude>56.6</latitude>
    <longitude>25.1833333</longitude>
  </city>
  <city name="Aizkraukles Muiza">
    <latitude>56.6</latitude>
    <longitude>25.1833333</longitude>
  </city>
  <city name="Aizkuja">
    <latitude>56.9333333</latitude>
    <longitude>26.4</longitude>
  </city>
  <city name="Aizkujas Muiza">
    <latitude>56.9333333</latitude>
    <longitude>26.4</longitude>
  </city>
  <city name="Aizpure">
    <latitude>56.9469444</latitude>
    <longitude>23.2925</longitude>
  </city>
  <city name="Aizpures Pusmuiza">
    <latitude>56.9469444</latitude>
    <longitude>23.2925</longitude>
  </city>
  <city name="Aizpuri">
    <latitude>55.9666667</latitude>
    <longitude>27.1666667</longitude>
  </city>
  <city name="Aizpurve">
    <latitude>57.1166667</latitude>
    <longitude>27.65</longitude>
  </city>
  <city name="Aizpurves">
    <latitude>56.9666667</latitude>
    <longitude>26.4166667</longitude>
  </city>
  <city name="Aizpurvi">
    <latitude>56.25</latitude>
    <longitude>25.8</longitude>
  </city>
  <city name="Aizpute">
    <latitude>56.7166667</latitude>
    <longitude>21.6</longitude>
  </city>
  <city name="Aizputes-Padure">
    <latitude>56.7333333</latitude>
    <longitude>21.5833333</longitude>
  </city>
  <city name="Aizstraunieki">
    <latitude>56.6888889</latitude>
    <longitude>23.21</longitude>
  </city>
  <city name="Aizstrautnieki">
    <latitude>56.6888889</latitude>
    <longitude>23.21</longitude>
  </city>
  <city name="Aiztere">
    <latitude>56.6333333</latitude>
    <longitude>21.3</longitude>
  </city>
  <city name="Aizteri">
    <latitude>56.6333333</latitude>
    <longitude>21.3</longitude>
  </city>
  <city name="Aizuarsa">
    <latitude>56.75</latitude>
    <longitude>27.9</longitude>
  </city>
  <city name="Aizupe">
    <latitude>56.6913889</latitude>
    <longitude>23.7977778</longitude>
  </city>
  <city name="Aizupes">
    <latitude>56.6955556</latitude>
    <longitude>23.8008333</longitude>
  </city>
  <city name="Aizupes Lamani">
    <latitude>56.5</latitude>
    <longitude>25.9666667</longitude>
  </city>
  <city name="Aizupes Muiza">
    <latitude>56.9166667</latitude>
    <longitude>22.6</longitude>
  </city>
  <city name="Aizupi">
    <latitude>57.0166667</latitude>
    <longitude>22.4166667</longitude>
  </city>
  <city name="Aizupiesi">
    <latitude>56.6666667</latitude>
    <longitude>27.2</longitude>
  </city>
  <city name="Aizupisi">
    <latitude>56.6666667</latitude>
    <longitude>27.2</longitude>
  </city>
  <city name="Aizviki">
    <latitude>56.3333333</latitude>
    <longitude>21.7333333</longitude>
  </city>
  <city name="Aizviki Muizas Centrs">
    <latitude>56.3333333</latitude>
    <longitude>21.7333333</longitude>
  </city>
  <city name="Akacijas">
    <latitude>56.5522222</latitude>
    <longitude>23.4175</longitude>
  </city>
  <city name="Akagals">
    <latitude>56.8833333</latitude>
    <longitude>21.1833333</longitude>
  </city>
  <city name="Akanstaka">
    <latitude>57.0666667</latitude>
    <longitude>25.05</longitude>
  </city>
  <city name="Akasi">
    <latitude>56.5166667</latitude>
    <longitude>28.0333333</longitude>
  </city>
  <city name="Akavina">
    <latitude>57.4666667</latitude>
    <longitude>27.3166667</longitude>
  </city>
  <city name="Akavinas">
    <latitude>57.4666667</latitude>
    <longitude>27.3166667</longitude>
  </city>
  <city name="Akeni">
    <latitude>56.8666667</latitude>
    <longitude>25.6833333</longitude>
  </city>
  <city name="Akenstaka">
    <latitude>57.0666667</latitude>
    <longitude>25.05</longitude>
  </city>
  <city name="Akenstakas Muiza">
    <latitude>57.0666667</latitude>
    <longitude>25.05</longitude>
  </city>
  <city name="Akenu Pusmuiza">
    <latitude>56.8666667</latitude>
    <longitude>25.6833333</longitude>
  </city>
  <city name="Akermani">
    <latitude>56.8652778</latitude>
    <longitude>24.4266667</longitude>
  </city>
  <city name="Akishi">
    <latitude>56.5166667</latitude>
    <longitude>28.0333333</longitude>
  </city>
  <city name="Aklaisciems">
    <latitude>57.1833333</latitude>
    <longitude>22.6666667</longitude>
  </city>
  <city name="Aklaistsiems">
    <latitude>57.1833333</latitude>
    <longitude>22.6666667</longitude>
  </city>
  <city name="Akmenai">
    <latitude>57.0833333</latitude>
    <longitude>21.5333333</longitude>
  </city>
  <city name="Akmenaji">
    <latitude>57.0833333</latitude>
    <longitude>21.5333333</longitude>
  </city>
  <city name="Akmendziras">
    <latitude>57.4808333</latitude>
    <longitude>21.6827778</longitude>
  </city>
  <city name="Akmene">
    <latitude>56.7166667</latitude>
    <longitude>21.3833333</longitude>
  </city>
  <city name="Akmenes">
    <latitude>56.7166667</latitude>
    <longitude>21.3833333</longitude>
  </city>
  <city name="Akmenes Muiza">
    <latitude>56.7166667</latitude>
    <longitude>21.3833333</longitude>
  </city>
  <city name="Akmeni">
    <latitude>56.9166667</latitude>
    <longitude>22.9666667</longitude>
  </city>
  <city name="Akmenmuiza">
    <latitude>56.9166667</latitude>
    <longitude>22.9666667</longitude>
  </city>
  <city name="Akmenruci">
    <latitude>56.9166667</latitude>
    <longitude>27.35</longitude>
  </city>
  <city name="Akniste">
    <latitude>56.1666667</latitude>
    <longitude>25.75</longitude>
  </city>
  <city name="Alanda">
    <latitude>56.5166667</latitude>
    <longitude>21.1166667</longitude>
  </city>
  <city name="Alande">
    <latitude>56.55</latitude>
    <longitude>21.25</longitude>
  </city>
  <city name="Alava">
    <latitude>56.5025</latitude>
    <longitude>23.2147222</longitude>
  </city>
  <city name="Alave">
    <latitude>56.5025</latitude>
    <longitude>23.2147222</longitude>
  </city>
  <city name="Aldari">
    <latitude>57.0547222</latitude>
    <longitude>24.345</longitude>
  </city>
  <city name="Alderi">
    <latitude>57.0547222</latitude>
    <longitude>24.345</longitude>
  </city>
  <city name="Alderu Muiza">
    <latitude>57.0547222</latitude>
    <longitude>24.345</longitude>
  </city>
  <city name="Aleksandropole">
    <latitude>57.0</latitude>
    <longitude>27.1333333</longitude>
  </city>
  <city name="Aleksandrovo">
    <latitude>56.25</latitude>
    <longitude>27.55</longitude>
  </city>
  <city name="Alkoni">
    <latitude>57.3597222</latitude>
    <longitude>21.6272222</longitude>
  </city>
  <city name="Alksnajciems">
    <latitude>57.31</latitude>
    <longitude>23.0458333</longitude>
  </city>
  <city name="Alksnajs">
    <latitude>57.31</latitude>
    <longitude>23.0458333</longitude>
  </city>
  <city name="Alksne">
    <latitude>57.4166667</latitude>
    <longitude>27.05</longitude>
  </city>
  <city name="Allazhi">
    <latitude>57.0269444</latitude>
    <longitude>24.8213889</longitude>
  </city>
  <city name="Allazi">
    <latitude>56.8</latitude>
    <longitude>21.9666667</longitude>
  </city>
  <city name="Allazmuiza">
    <latitude>57.0269444</latitude>
    <longitude>24.8213889</longitude>
  </city>
  <city name="Allazu Muiza">
    <latitude>57.0269444</latitude>
    <longitude>24.8213889</longitude>
  </city>
  <city name="Almale">
    <latitude>56.9833333</latitude>
    <longitude>21.6333333</longitude>
  </city>
  <city name="Almjudzi">
    <latitude>57.1666667</latitude>
    <longitude>22.15</longitude>
  </city>
  <city name="Alodzene">
    <latitude>57.3166667</latitude>
    <longitude>27.3333333</longitude>
  </city>
  <city name="Alodzeni">
    <latitude>57.3166667</latitude>
    <longitude>27.3333333</longitude>
  </city>
  <city name="Alodzeny">
    <latitude>57.3166667</latitude>
    <longitude>27.3333333</longitude>
  </city>
  <city name="Aloja">
    <latitude>57.7669444</latitude>
    <longitude>24.8825</longitude>
  </city>
  <city name="Alojas Muiza">
    <latitude>57.7669444</latitude>
    <longitude>24.8825</longitude>
  </city>
  <city name="Aloya">
    <latitude>57.7669444</latitude>
    <longitude>24.8825</longitude>
  </city>
  <city name="Alshi">
    <latitude>56.4833333</latitude>
    <longitude>22.0833333</longitude>
  </city>
  <city name="Alshvanga">
    <latitude>56.9833333</latitude>
    <longitude>21.5666667</longitude>
  </city>
  <city name="Alsi">
    <latitude>56.4833333</latitude>
    <longitude>22.0833333</longitude>
  </city>
  <city name="Alsunga">
    <latitude>56.9833333</latitude>
    <longitude>21.5666667</longitude>
  </city>
  <city name="Alsung">
    <latitude>56.9833333</latitude>
    <longitude>21.5666667</longitude>
  </city>
  <city name="Alsupe">
    <latitude>57.0833333</latitude>
    <longitude>26.3666667</longitude>
  </city>
  <city name="Alsupes">
    <latitude>57.0833333</latitude>
    <longitude>26.3666667</longitude>
  </city>
  <city name="Alsupes Pusmuiza">
    <latitude>57.0833333</latitude>
    <longitude>26.3666667</longitude>
  </city>
  <city name="Alsvanga">
    <latitude>56.9833333</latitude>
    <longitude>21.5666667</longitude>
  </city>
  <city name="Alsvika">
    <latitude>57.4</latitude>
    <longitude>26.8833333</longitude>
  </city>
  <city name="Alsviki">
    <latitude>57.4</latitude>
    <longitude>26.8833333</longitude>
  </city>
  <city name="Alsvikis">
    <latitude>57.4333333</latitude>
    <longitude>26.95</longitude>
  </city>
  <city name="Alt-Schwaneburg">
    <latitude>57.1833333</latitude>
    <longitude>26.75</longitude>
  </city>
  <city name="Aluksne">
    <latitude>57.4166667</latitude>
    <longitude>27.05</longitude>
  </city>
  <city name="Alunani">
    <latitude>56.55</latitude>
    <longitude>25.9666667</longitude>
  </city>
  <city name="Alunany">
    <latitude>56.55</latitude>
    <longitude>25.9666667</longitude>
  </city>
  <city name="Alzani">
    <latitude>56.75</latitude>
    <longitude>26.35</longitude>
  </city>
  <city name="Alzenova">
    <latitude>56.0833333</latitude>
    <longitude>27.5833333</longitude>
  </city>
  <city name="Alzezere">
    <latitude>57.2333333</latitude>
    <longitude>27.3833333</longitude>
  </city>
  <city name="Amaliesmuyzha">
    <latitude>57.2166667</latitude>
    <longitude>21.7</longitude>
  </city>
  <city name="Amalijas">
    <latitude>57.2166667</latitude>
    <longitude>21.7</longitude>
  </city>
  <city name="Amalijasmuiza">
    <latitude>57.2166667</latitude>
    <longitude>21.7</longitude>
  </city>
  <city name="Amaliyyasmuyzha">
    <latitude>57.2166667</latitude>
    <longitude>21.7</longitude>
  </city>
  <city name="Amata">
    <latitude>57.2</latitude>
    <longitude>25.15</longitude>
  </city>
  <city name="Amazi">
    <latitude>57.8636111</latitude>
    <longitude>24.3577778</longitude>
  </city>
  <city name="Ambeli">
    <latitude>56.0333333</latitude>
    <longitude>26.8333333</longitude>
  </city>
  <city name="Amburga">
    <latitude>56.5619444</latitude>
    <longitude>23.9822222</longitude>
  </city>
  <city name="Amele">
    <latitude>57.3833333</latitude>
    <longitude>22.2333333</longitude>
  </city>
  <city name="Ameli">
    <latitude>57.3833333</latitude>
    <longitude>22.2333333</longitude>
  </city>
  <city name="Amelmuiza Muizas Centrs">
    <latitude>57.3833333</latitude>
    <longitude>22.2333333</longitude>
  </city>
  <city name="Amjudzu Ciems">
    <latitude>57.1666667</latitude>
    <longitude>22.15</longitude>
  </city>
  <city name="Anakhitte">
    <latitude>57.3166667</latitude>
    <longitude>22.2666667</longitude>
  </city>
  <city name="Anas">
    <latitude>56.9166667</latitude>
    <longitude>21.9666667</longitude>
  </city>
  <city name="Ance">
    <latitude>57.5166667</latitude>
    <longitude>22.0166667</longitude>
  </city>
  <city name="Ance Muizas Centrs">
    <latitude>57.5166667</latitude>
    <longitude>22.0166667</longitude>
  </city>
  <city name="Ancene">
    <latitude>56.1</latitude>
    <longitude>25.9666667</longitude>
  </city>
  <city name="Ancenes">
    <latitude>56.1</latitude>
    <longitude>25.9666667</longitude>
  </city>
  <city name="Anceni">
    <latitude>56.1</latitude>
    <longitude>25.9666667</longitude>
  </city>
  <city name="Anchkina">
    <latitude>56.2833333</latitude>
    <longitude>26.6166667</longitude>
  </city>
  <city name="Anchkini">
    <latitude>56.2833333</latitude>
    <longitude>26.6166667</longitude>
  </city>
  <city name="Anchkuna">
    <latitude>56.3</latitude>
    <longitude>26.45</longitude>
  </city>
  <city name="Anciems">
    <latitude>57.3333333</latitude>
    <longitude>25.1333333</longitude>
  </city>
  <city name="Ancipova">
    <latitude>57.0333333</latitude>
    <longitude>27.7333333</longitude>
  </city>
  <city name="Anckini">
    <latitude>56.2833333</latitude>
    <longitude>26.6166667</longitude>
  </city>
  <city name="Anckuli">
    <latitude>56.3</latitude>
    <longitude>26.45</longitude>
  </city>
  <city name="Ancveiri">
    <latitude>56.1</latitude>
    <longitude>26.9666667</longitude>
  </city>
  <city name="Ancveirini">
    <latitude>56.1</latitude>
    <longitude>26.9666667</longitude>
  </city>
  <city name="Ancverini-I">
    <latitude>56.1</latitude>
    <longitude>26.9666667</longitude>
  </city>
  <city name="Ancvirini">
    <latitude>56.1</latitude>
    <longitude>26.9666667</longitude>
  </city>
  <city name="Anderi">
    <latitude>56.4833333</latitude>
    <longitude>21.6666667</longitude>
  </city>
  <city name="Andini">
    <latitude>56.15</latitude>
    <longitude>27.4166667</longitude>
  </city>
  <city name="Andrejsala">
    <latitude>56.9655556</latitude>
    <longitude>24.0947222</longitude>
  </city>
  <city name="Andrepna">
    <latitude>56.1833333</latitude>
    <longitude>27.3833333</longitude>
  </city>
  <city name="Andrepno">
    <latitude>56.1833333</latitude>
    <longitude>27.3833333</longitude>
  </city>
  <city name="Andri">
    <latitude>56.3666667</latitude>
    <longitude>27.8666667</longitude>
  </city>
  <city name="Andriceni">
    <latitude>57.1833333</latitude>
    <longitude>25.0333333</longitude>
  </city>
  <city name="Andrupene">
    <latitude>56.1833333</latitude>
    <longitude>27.3833333</longitude>
  </city>
  <city name="Anduni">
    <latitude>56.15</latitude>
    <longitude>27.4166667</longitude>
  </city>
  <city name="Anduny">
    <latitude>56.15</latitude>
    <longitude>27.4166667</longitude>
  </city>
  <city name="Andzani">
    <latitude>56.4833333</latitude>
    <longitude>25.3</longitude>
  </city>
  <city name="Andzeli">
    <latitude>56.1666667</latitude>
    <longitude>27.55</longitude>
  </city>
  <city name="Andzeni">
    <latitude>56.4833333</latitude>
    <longitude>25.3</longitude>
  </city>
  <city name="Ane">
    <latitude>56.6475</latitude>
    <longitude>23.8136111</longitude>
  </city>
  <city name="Anger">
    <latitude>57.1630556</latitude>
    <longitude>23.2241667</longitude>
  </city>
  <city name="Ani">
    <latitude>57.0916667</latitude>
    <longitude>24.4713889</longitude>
  </city>
  <city name="Aniany">
    <latitude>56.8333333</latitude>
    <longitude>27.8166667</longitude>
  </city>
  <city name="Anna">
    <latitude>57.3333333</latitude>
    <longitude>27.0333333</longitude>
  </city>
  <city name="Annahitte">
    <latitude>57.3166667</latitude>
    <longitude>22.2666667</longitude>
  </city>
  <city name="Annapole">
    <latitude>56.2166667</latitude>
    <longitude>27.9666667</longitude>
  </city>
  <city name="Annas">
    <latitude>57.3333333</latitude>
    <longitude>27.0333333</longitude>
  </city>
  <city name="(( Annas ))">
    <latitude>56.4</latitude>
    <longitude>23.9</longitude>
  </city>
  <city name="Annasbirze">
    <latitude>57.1833333</latitude>
    <longitude>27.3</longitude>
  </city>
  <city name="Annaskalni">
    <latitude>56.6666667</latitude>
    <longitude>22.5333333</longitude>
  </city>
  <city name="Annaskrogs">
    <latitude>56.9180556</latitude>
    <longitude>23.8030556</longitude>
  </city>
  <city name="Annasmaja">
    <latitude>57.2333333</latitude>
    <longitude>21.6</longitude>
  </city>
  <city name="Annasm Turlaji">
    <latitude>56.6833333</latitude>
    <longitude>27.45</longitude>
  </city>
  <city name="Annasmuiza">
    <latitude>57.35</latitude>
    <longitude>27.0666667</longitude>
  </city>
  <city name="Annas Muiza">
    <latitude>57.0333333</latitude>
    <longitude>25.3666667</longitude>
  </city>
  <city name="Annas Muizas Centrs">
    <latitude>57.3333333</latitude>
    <longitude>27.0333333</longitude>
  </city>
  <city name="Annasmuyzha">
    <latitude>56.4</latitude>
    <longitude>23.9</longitude>
  </city>
  <city name="Annas Pusmuiza">
    <latitude>56.3363889</latitude>
    <longitude>23.0777778</longitude>
  </city>
  <city name="Annenieki">
    <latitude>56.6722222</latitude>
    <longitude>23.0897222</longitude>
  </city>
  <city name="Anneniyeki">
    <latitude>56.6722222</latitude>
    <longitude>23.0897222</longitude>
  </city>
  <city name="Anni">
    <latitude>57.7</latitude>
    <longitude>26.1833333</longitude>
  </city>
  <city name="Anskina">
    <latitude>56.2833333</latitude>
    <longitude>26.6166667</longitude>
  </city>
  <city name="Anspaki">
    <latitude>56.2666667</latitude>
    <longitude>26.7666667</longitude>
  </city>
  <city name="Anspoki">
    <latitude>56.2666667</latitude>
    <longitude>26.7666667</longitude>
  </city>
  <city name="Antakole">
    <latitude>55.7833333</latitude>
    <longitude>26.45</longitude>
  </city>
  <city name="Antani">
    <latitude>57.1666667</latitude>
    <longitude>26.8833333</longitude>
  </city>
  <city name="Antany">
    <latitude>57.1666667</latitude>
    <longitude>26.8833333</longitude>
  </city>
  <city name="Antinciems">
    <latitude>56.9769444</latitude>
    <longitude>23.4594444</longitude>
  </city>
  <city name="Antini">
    <latitude>57.0333333</latitude>
    <longitude>21.7166667</longitude>
  </city>
  <city name="Antintsiems">
    <latitude>56.9769444</latitude>
    <longitude>23.4594444</longitude>
  </city>
  <city name="Antin'tsiyem">
    <latitude>56.9769444</latitude>
    <longitude>23.4594444</longitude>
  </city>
  <city name="Antipava">
    <latitude>57.0333333</latitude>
    <longitude>27.7333333</longitude>
  </city>
  <city name="Antokoli">
    <latitude>55.7833333</latitude>
    <longitude>26.45</longitude>
  </city>
  <city name="Antoni">
    <latitude>56.35</latitude>
    <longitude>26.9</longitude>
  </city>
  <city name="Antoniski">
    <latitude>56.2833333</latitude>
    <longitude>26.95</longitude>
  </city>
  <city name="Antonopole">
    <latitude>56.35</latitude>
    <longitude>27.15</longitude>
  </city>
  <city name="Antony">
    <latitude>56.35</latitude>
    <longitude>26.9</longitude>
  </city>
  <city name="Antopole">
    <latitude>56.35</latitude>
    <longitude>27.15</longitude>
  </city>
  <city name="Antopols">
    <latitude>56.35</latitude>
    <longitude>27.15</longitude>
  </city>
  <city name="Antropova">
    <latitude>56.2833333</latitude>
    <longitude>27.5333333</longitude>
  </city>
  <city name="Antropovas">
    <latitude>56.2833333</latitude>
    <longitude>27.5333333</longitude>
  </city>
  <city name="Antsany">
    <latitude>56.8333333</latitude>
    <longitude>27.8166667</longitude>
  </city>
  <city name="Antse">
    <latitude>57.5166667</latitude>
    <longitude>22.0166667</longitude>
  </city>
  <city name="Antseni">
    <latitude>56.1</latitude>
    <longitude>25.9666667</longitude>
  </city>
  <city name="Antsverni">
    <latitude>56.1</latitude>
    <longitude>26.9666667</longitude>
  </city>
  <city name="Antuzhi">
    <latitude>56.6166667</latitude>
    <longitude>25.95</longitude>
  </city>
  <city name="Antuzi">
    <latitude>56.6166667</latitude>
    <longitude>25.95</longitude>
  </city>
  <city name="Antypava">
    <latitude>57.0333333</latitude>
    <longitude>27.7333333</longitude>
  </city>
  <city name="Antzinishni">
    <latitude>56.1</latitude>
    <longitude>25.9666667</longitude>
  </city>
  <city name="Anuzi">
    <latitude>57.4166667</latitude>
    <longitude>22.6</longitude>
  </city>
  <city name="Anzuli">
    <latitude>56.3333333</latitude>
    <longitude>26.7666667</longitude>
  </city>
  <city name="Apali">
    <latitude>56.0</latitude>
    <longitude>27.75</longitude>
  </city>
  <city name="Ape">
    <latitude>57.5333333</latitude>
    <longitude>26.6666667</longitude>
  </city>
  <city name="Apgulde">
    <latitude>56.5344444</latitude>
    <longitude>23.2391667</longitude>
  </city>
  <city name="Apin">
    <latitude>57.5</latitude>
    <longitude>25.25</longitude>
  </city>
  <city name="Apini">
    <latitude>57.5</latitude>
    <longitude>25.25</longitude>
  </city>
  <city name="Apogi">
    <latitude>56.9666667</latitude>
    <longitude>26.6833333</longitude>
  </city>
  <city name="Aponosi">
    <latitude>56.7666667</latitude>
    <longitude>27.6166667</longitude>
  </city>
  <city name="Apran">
    <latitude>57.1333333</latitude>
    <longitude>25.6666667</longitude>
  </city>
  <city name="Aprani">
    <latitude>57.1333333</latitude>
    <longitude>25.6666667</longitude>
  </city>
  <city name="Aprany">
    <latitude>57.1333333</latitude>
    <longitude>25.6666667</longitude>
  </city>
  <city name="Apriki">
    <latitude>56.8</latitude>
    <longitude>21.5</longitude>
  </city>
  <city name="Apriti">
    <latitude>56.8</latitude>
    <longitude>21.5</longitude>
  </city>
  <city name="Apsalas">
    <latitude>56.7166667</latitude>
    <longitude>26.4833333</longitude>
  </city>
  <city name="Apsenieki">
    <latitude>56.0666667</latitude>
    <longitude>27.1</longitude>
  </city>
  <city name="Apserde">
    <latitude>56.2</latitude>
    <longitude>25.6166667</longitude>
  </city>
  <city name="Apserdes">
    <latitude>56.2</latitude>
    <longitude>25.6166667</longitude>
  </city>
  <city name="Apserdi">
    <latitude>56.2</latitude>
    <longitude>25.6166667</longitude>
  </city>
  <city name="Apshenieki">
    <latitude>56.0666667</latitude>
    <longitude>27.1</longitude>
  </city>
  <city name="Apshutsiems">
    <latitude>57.0616667</latitude>
    <longitude>23.3055556</longitude>
  </city>
  <city name="Apshutsiyem">
    <latitude>57.0616667</latitude>
    <longitude>23.3055556</longitude>
  </city>
  <city name="Apshutsiyems">
    <latitude>57.0616667</latitude>
    <longitude>23.3055556</longitude>
  </city>
  <city name="Apsites">
    <latitude>56.6666667</latitude>
    <longitude>22.9666667</longitude>
  </city>
  <city name="Apskalni">
    <latitude>56.7166667</latitude>
    <longitude>26.3833333</longitude>
  </city>
  <city name="Apsuciems">
    <latitude>57.4833333</latitude>
    <longitude>22.7666667</longitude>
  </city>
  <city name="Apsukrogs">
    <latitude>56.8166667</latitude>
    <longitude>25.6166667</longitude>
  </city>
  <city name="Apukalns">
    <latitude>57.55</latitude>
    <longitude>26.9</longitude>
  </city>
  <city name="Apuze">
    <latitude>57.0333333</latitude>
    <longitude>21.8</longitude>
  </city>
  <city name="Araisi">
    <latitude>57.25</latitude>
    <longitude>25.2666667</longitude>
  </city>
  <city name="Araisu Macitaja Muiza">
    <latitude>57.25</latitude>
    <longitude>25.2666667</longitude>
  </city>
  <city name="Araji">
    <latitude>57.6833333</latitude>
    <longitude>25.2833333</longitude>
  </city>
  <city name="Arakste">
    <latitude>58.0166667</latitude>
    <longitude>25.3333333</longitude>
  </city>
  <city name="Araksti">
    <latitude>58.0166667</latitude>
    <longitude>25.3333333</longitude>
  </city>
  <city name="Arayshi">
    <latitude>57.25</latitude>
    <longitude>25.2666667</longitude>
  </city>
  <city name="Arciema Muiza">
    <latitude>57.6633333</latitude>
    <longitude>24.7788889</longitude>
  </city>
  <city name="Arciema Stacija">
    <latitude>57.6841667</latitude>
    <longitude>24.7955556</longitude>
  </city>
  <city name="Arciems">
    <latitude>57.6633333</latitude>
    <longitude>24.7788889</longitude>
  </city>
  <city name="Ardava">
    <latitude>56.15</latitude>
    <longitude>26.7833333</longitude>
  </city>
  <city name="Arendale">
    <latitude>56.15</latitude>
    <longitude>26.6</longitude>
  </city>
  <city name="Arendole">
    <latitude>56.15</latitude>
    <longitude>26.6</longitude>
  </city>
  <city name="Arhitekts">
    <latitude>57.1197222</latitude>
    <longitude>24.2319444</longitude>
  </city>
  <city name="Arini">
    <latitude>56.5363889</latitude>
    <longitude>23.9052778</longitude>
  </city>
  <city name="Arkamani">
    <latitude>57.2</latitude>
    <longitude>22.05</longitude>
  </city>
  <city name="Arkhitekts">
    <latitude>57.1197222</latitude>
    <longitude>24.2319444</longitude>
  </city>
  <city name="Arlava">
    <latitude>57.4</latitude>
    <longitude>22.6</longitude>
  </city>
  <city name="Armani">
    <latitude>56.1833333</latitude>
    <longitude>27.5666667</longitude>
  </city>
  <city name="Armushki">
    <latitude>56.6</latitude>
    <longitude>26.85</longitude>
  </city>
  <city name="Armuski">
    <latitude>56.6</latitude>
    <longitude>26.85</longitude>
  </city>
  <city name="Arni">
    <latitude>56.8</latitude>
    <longitude>25.7333333</longitude>
  </city>
  <city name="Arniceni">
    <latitude>56.9333333</latitude>
    <longitude>26.15</longitude>
  </city>
  <city name="Arny">
    <latitude>56.8</latitude>
    <longitude>25.7333333</longitude>
  </city>
  <city name="Aroniesi">
    <latitude>56.6833333</latitude>
    <longitude>26.0</longitude>
  </city>
  <city name="Aronyeshi">
    <latitude>56.6833333</latitude>
    <longitude>26.0</longitude>
  </city>
  <city name="Artemovka">
    <latitude>56.1333333</latitude>
    <longitude>27.5333333</longitude>
  </city>
  <city name="Artjomovka">
    <latitude>56.1333333</latitude>
    <longitude>27.5333333</longitude>
  </city>
  <city name="Artsems">
    <latitude>57.6633333</latitude>
    <longitude>24.7788889</longitude>
  </city>
  <city name="Artsiyems">
    <latitude>57.6633333</latitude>
    <longitude>24.7788889</longitude>
  </city>
  <city name="(( Arupite ))">
    <latitude>57.0166667</latitude>
    <longitude>24.65</longitude>
  </city>
  <city name="Asaci">
    <latitude>56.5833333</latitude>
    <longitude>27.25</longitude>
  </city>
  <city name="Asani">
    <latitude>56.3666667</latitude>
    <longitude>27.6</longitude>
  </city>
  <city name="Asare">
    <latitude>56.1166667</latitude>
    <longitude>25.9</longitude>
  </city>
  <city name="Asari">
    <latitude>56.9572222</latitude>
    <longitude>23.6877778</longitude>
  </city>
  <city name="Ascuki">
    <latitude>56.1</latitude>
    <longitude>26.6666667</longitude>
  </city>
  <city name="Asinava">
    <latitude>56.6333333</latitude>
    <longitude>27.1333333</longitude>
  </city>
  <city name="Asinici">
    <latitude>56.5</latitude>
    <longitude>28.0833333</longitude>
  </city>
  <city name="Asite">
    <latitude>56.4666667</latitude>
    <longitude>21.6666667</longitude>
  </city>
  <city name="Aslupes">
    <latitude>57.0833333</latitude>
    <longitude>26.35</longitude>
  </city>
  <city name="Asninas">
    <latitude>56.6666667</latitude>
    <longitude>26.9166667</longitude>
  </city>
  <city name="Asninskija">
    <latitude>56.6666667</latitude>
    <longitude>26.9166667</longitude>
  </city>
  <city name="Assern">
    <latitude>56.9572222</latitude>
    <longitude>23.6877778</longitude>
  </city>
  <city name="Astasova">
    <latitude>56.1333333</latitude>
    <longitude>27.3666667</longitude>
  </city>
  <city name="Astere">
    <latitude>57.6144444</latitude>
    <longitude>24.7366667</longitude>
  </city>
  <city name="Asteres Muiza">
    <latitude>57.6144444</latitude>
    <longitude>24.7366667</longitude>
  </city>
  <city name="Asti">
    <latitude>57.2166667</latitude>
    <longitude>21.4666667</longitude>
  </city>
  <city name="Astici">
    <latitude>56.3</latitude>
    <longitude>27.5166667</longitude>
  </city>
  <city name="Asune">
    <latitude>56.0333333</latitude>
    <longitude>27.6166667</longitude>
  </city>
  <city name="Atashene">
    <latitude>56.5333333</latitude>
    <longitude>26.4</longitude>
  </city>
  <city name="Atashiene">
    <latitude>56.5333333</latitude>
    <longitude>26.4</longitude>
  </city>
  <city name="Atasiene">
    <latitude>56.5333333</latitude>
    <longitude>26.4</longitude>
  </city>
  <city name="Atasiene Muizas Centrs">
    <latitude>56.5333333</latitude>
    <longitude>26.4</longitude>
  </city>
  <city name="Atasienes Pusmuizas Centrs">
    <latitude>56.5333333</latitude>
    <longitude>26.4</longitude>
  </city>
  <city name="Ate">
    <latitude>57.3166667</latitude>
    <longitude>26.9333333</longitude>
  </city>
  <city name="Ate Muizas Centrs">
    <latitude>57.3166667</latitude>
    <longitude>26.9333333</longitude>
  </city>
  <city name="Atmatas">
    <latitude>56.7666667</latitude>
    <longitude>21.7833333</longitude>
  </city>
  <city name="Atmodas">
    <latitude>57.2730556</latitude>
    <longitude>24.77</longitude>
  </city>
  <city name="Atspuki">
    <latitude>56.6166667</latitude>
    <longitude>26.85</longitude>
  </city>
  <city name="Atzeli">
    <latitude>56.5833333</latitude>
    <longitude>21.6666667</longitude>
  </city>
  <city name="Auce">
    <latitude>56.4666667</latitude>
    <longitude>22.8833333</longitude>
  </city>
  <city name="Auces Muiza">
    <latitude>56.51</latitude>
    <longitude>23.3391667</longitude>
  </city>
  <city name="Auchi">
    <latitude>56.5936111</latitude>
    <longitude>23.9588889</longitude>
  </city>
  <city name="Auci">
    <latitude>56.5936111</latitude>
    <longitude>23.9588889</longitude>
  </city>
  <city name="Auciema Muiza">
    <latitude>57.3333333</latitude>
    <longitude>25.1333333</longitude>
  </city>
  <city name="Auciems">
    <latitude>57.3333333</latitude>
    <longitude>25.1333333</longitude>
  </city>
  <city name="Aucugals">
    <latitude>56.4666667</latitude>
    <longitude>21.0166667</longitude>
  </city>
  <city name="Aucupis">
    <latitude>57.8666667</latitude>
    <longitude>25.7666667</longitude>
  </city>
  <city name="Audara">
    <latitude>56.4833333</latitude>
    <longitude>21.6666667</longitude>
  </city>
  <city name="Audare">
    <latitude>56.4833333</latitude>
    <longitude>21.6666667</longitude>
  </city>
  <city name="Audari">
    <latitude>56.4833333</latitude>
    <longitude>21.6666667</longitude>
  </city>
  <city name="Audera">
    <latitude>56.4833333</latitude>
    <longitude>21.6666667</longitude>
  </city>
  <city name="Auderi">
    <latitude>56.4833333</latitude>
    <longitude>21.6666667</longitude>
  </city>
  <city name="Audini">
    <latitude>56.15</latitude>
    <longitude>27.4166667</longitude>
  </city>
  <city name="Audrini">
    <latitude>56.5833333</latitude>
    <longitude>27.25</longitude>
  </city>
  <city name="Audrupe">
    <latitude>56.4833333</latitude>
    <longitude>23.7666667</longitude>
  </city>
  <city name="(( Audruve ))">
    <latitude>56.4833333</latitude>
    <longitude>23.7666667</longitude>
  </city>
  <city name="Audruves">
    <latitude>56.4833333</latitude>
    <longitude>23.7666667</longitude>
  </city>
  <city name="Audruves Muiza">
    <latitude>56.4833333</latitude>
    <longitude>23.7666667</longitude>
  </city>
  <city name="Audze">
    <latitude>56.5522222</latitude>
    <longitude>23.4175</longitude>
  </city>
  <city name="Audzi">
    <latitude>56.5522222</latitude>
    <longitude>23.4175</longitude>
  </city>
  <city name="Audzini">
    <latitude>56.5522222</latitude>
    <longitude>23.4175</longitude>
  </city>
  <city name="Audzu">
    <latitude>56.5522222</latitude>
    <longitude>23.4175</longitude>
  </city>
  <city name="Audzu Muiza">
    <latitude>56.5522222</latitude>
    <longitude>23.4175</longitude>
  </city>
  <city name="Augsmukti">
    <latitude>56.2666667</latitude>
    <longitude>26.3833333</longitude>
  </city>
  <city name="Augs-Podrags">
    <latitude>56.9747222</latitude>
    <longitude>24.0802778</longitude>
  </city>
  <city name="Augstari">
    <latitude>56.8666667</latitude>
    <longitude>27.0833333</longitude>
  </city>
  <city name="Augstasila">
    <latitude>57.0166667</latitude>
    <longitude>27.5833333</longitude>
  </city>
  <city name="Augstasils">
    <latitude>57.0166667</latitude>
    <longitude>27.5833333</longitude>
  </city>
  <city name="Augstkalne">
    <latitude>56.405</latitude>
    <longitude>23.3402778</longitude>
  </city>
  <city name="Augstkalni">
    <latitude>57.2</latitude>
    <longitude>26.1166667</longitude>
  </city>
  <city name="Augstkalniesi">
    <latitude>57.2</latitude>
    <longitude>26.1166667</longitude>
  </city>
  <city name="Augstkalnyeshi">
    <latitude>57.2</latitude>
    <longitude>26.1166667</longitude>
  </city>
  <city name="Augstroze">
    <latitude>57.5</latitude>
    <longitude>25.0</longitude>
  </city>
  <city name="Augstrozes Muiza">
    <latitude>57.5</latitude>
    <longitude>25.0</longitude>
  </city>
  <city name="Augstsils">
    <latitude>57.0166667</latitude>
    <longitude>27.5833333</longitude>
  </city>
  <city name="Augstup'i">
    <latitude>56.7333333</latitude>
    <longitude>22.1166667</longitude>
  </city>
  <city name="Augstupji">
    <latitude>56.7333333</latitude>
    <longitude>22.1166667</longitude>
  </city>
  <city name="Auguliena">
    <latitude>57.2666667</latitude>
    <longitude>26.6833333</longitude>
  </city>
  <city name="Auguste">
    <latitude>56.4166667</latitude>
    <longitude>21.7666667</longitude>
  </city>
  <city name="Augusti">
    <latitude>56.4166667</latitude>
    <longitude>21.7666667</longitude>
  </city>
  <city name="Augustova">
    <latitude>56.4333333</latitude>
    <longitude>26.6</longitude>
  </city>
  <city name="Augustroze">
    <latitude>57.5</latitude>
    <longitude>25.0</longitude>
  </city>
  <city name="Aujiena">
    <latitude>57.9</latitude>
    <longitude>25.3166667</longitude>
  </city>
  <city name="Auksteni">
    <latitude>55.9833333</latitude>
    <longitude>26.4666667</longitude>
  </city>
  <city name="Aukstinskaja">
    <latitude>55.9833333</latitude>
    <longitude>26.4666667</longitude>
  </city>
  <city name="Aukstraupe">
    <latitude>56.1833333</latitude>
    <longitude>25.6833333</longitude>
  </city>
  <city name="Auleja">
    <latitude>56.05</latitude>
    <longitude>27.2833333</longitude>
  </city>
  <city name="Auleya">
    <latitude>56.05</latitude>
    <longitude>27.2833333</longitude>
  </city>
  <city name="Aulija">
    <latitude>56.05</latitude>
    <longitude>27.2833333</longitude>
  </city>
  <city name="Auliya">
    <latitude>56.05</latitude>
    <longitude>27.2833333</longitude>
  </city>
  <city name="Aulukalna Muiza">
    <latitude>57.2333333</latitude>
    <longitude>25.7833333</longitude>
  </city>
  <city name="Aulukalni">
    <latitude>57.2333333</latitude>
    <longitude>25.7833333</longitude>
  </city>
  <city name="Aulukalns">
    <latitude>57.2333333</latitude>
    <longitude>25.7833333</longitude>
  </city>
  <city name="Aulukalns Muizas Centrs">
    <latitude>57.2333333</latitude>
    <longitude>25.7833333</longitude>
  </city>
  <city name="Aumeistera">
    <latitude>57.5166667</latitude>
    <longitude>26.2</longitude>
  </city>
  <city name="Aumeistera Muiza">
    <latitude>57.5166667</latitude>
    <longitude>26.2</longitude>
  </city>
  <city name="Aumeisteri">
    <latitude>57.5166667</latitude>
    <longitude>26.2</longitude>
  </city>
  <city name="Aumeisteris">
    <latitude>57.5166667</latitude>
    <longitude>26.2</longitude>
  </city>
  <city name="Auni">
    <latitude>56.8833333</latitude>
    <longitude>22.3666667</longitude>
  </city>
  <city name="Aunini">
    <latitude>57.1333333</latitude>
    <longitude>25.25</longitude>
  </city>
  <city name="Auny">
    <latitude>56.8833333</latitude>
    <longitude>22.3666667</longitude>
  </city>
  <city name="Aurava">
    <latitude>57.2166667</latitude>
    <longitude>27.1166667</longitude>
  </city>
  <city name="Auri">
    <latitude>56.5641667</latitude>
    <longitude>23.2933333</longitude>
  </city>
  <city name="Auri Gut">
    <latitude>56.5641667</latitude>
    <longitude>23.2933333</longitude>
  </city>
  <city name="Auru">
    <latitude>56.5641667</latitude>
    <longitude>23.2933333</longitude>
  </city>
  <city name="Auru Muiza">
    <latitude>56.5641667</latitude>
    <longitude>23.2933333</longitude>
  </city>
  <city name="Ausatas">
    <latitude>56.6505556</latitude>
    <longitude>23.1461111</longitude>
  </city>
  <city name="Ausati">
    <latitude>56.6505556</latitude>
    <longitude>23.1461111</longitude>
  </city>
  <city name="Ausatu">
    <latitude>56.6505556</latitude>
    <longitude>23.1461111</longitude>
  </city>
  <city name="Ausatu Muiza">
    <latitude>56.6505556</latitude>
    <longitude>23.1461111</longitude>
  </city>
  <city name="Ausekli">
    <latitude>56.55</latitude>
    <longitude>21.9166667</longitude>
  </city>
  <city name="Ausgaleni">
    <latitude>55.9666667</latitude>
    <longitude>26.4333333</longitude>
  </city>
  <city name="Aushkinyeki">
    <latitude>57.0166667</latitude>
    <longitude>27.3333333</longitude>
  </city>
  <city name="Auskinieki">
    <latitude>57.0166667</latitude>
    <longitude>27.3333333</longitude>
  </city>
  <city name="Ausmas">
    <latitude>57.4216667</latitude>
    <longitude>24.6983333</longitude>
  </city>
  <city name="Aususala">
    <latitude>56.95</latitude>
    <longitude>27.5</longitude>
  </city>
  <city name="Autse">
    <latitude>56.4666667</latitude>
    <longitude>22.8833333</longitude>
  </city>
  <city name="Autsugals">
    <latitude>56.4666667</latitude>
    <longitude>21.0166667</longitude>
  </city>
  <city name="Autz">
    <latitude>56.4666667</latitude>
    <longitude>22.8833333</longitude>
  </city>
  <city name="Auzas">
    <latitude>56.9666667</latitude>
    <longitude>25.1</longitude>
  </city>
  <city name="Auzgulani">
    <latitude>55.9666667</latitude>
    <longitude>26.4333333</longitude>
  </city>
  <city name="Auzguleni">
    <latitude>55.9666667</latitude>
    <longitude>26.4333333</longitude>
  </city>
  <city name="Auzhgulyany">
    <latitude>55.9666667</latitude>
    <longitude>26.4333333</longitude>
  </city>
  <city name="Auzi">
    <latitude>56.3333333</latitude>
    <longitude>21.0</longitude>
  </city>
  <city name="Auzini">
    <latitude>56.4666667</latitude>
    <longitude>27.6</longitude>
  </city>
  <city name="Auzukrogs">
    <latitude>56.9666667</latitude>
    <longitude>25.1</longitude>
  </city>
  <city name="Avangards">
    <latitude>56.4052778</latitude>
    <longitude>23.75</longitude>
  </city>
  <city name="Avisi">
    <latitude>56.65</latitude>
    <longitude>27.7833333</longitude>
  </city>
  <city name="(( Avoti ))">
    <latitude>56.9666667</latitude>
    <longitude>23.8333333</longitude>
  </city>
  <city name="Avotini">
    <latitude>56.6727778</latitude>
    <longitude>23.5519444</longitude>
  </city>
  <city name="Avotkalni">
    <latitude>57.7161111</latitude>
    <longitude>24.4469444</longitude>
  </city>
  <city name="Avoty">
    <latitude>56.9666667</latitude>
    <longitude>23.8333333</longitude>
  </city>
  <city name="Aynazhi">
    <latitude>57.8636111</latitude>
    <longitude>24.3577778</longitude>
  </city>
  <city name="Ayzhpuri">
    <latitude>55.9666667</latitude>
    <longitude>27.1666667</longitude>
  </city>
  <city name="Ayzkalne">
    <latitude>56.2</latitude>
    <longitude>26.7833333</longitude>
  </city>
  <city name="Ayzkalnyshi">
    <latitude>56.2</latitude>
    <longitude>26.7833333</longitude>
  </city>
  <city name="Ayzklaany">
    <latitude>57.6666667</latitude>
    <longitude>22.5666667</longitude>
  </city>
  <city name="Ayzkraukle">
    <latitude>56.6</latitude>
    <longitude>25.1833333</longitude>
  </city>
  <city name="Ayzpurve">
    <latitude>57.1166667</latitude>
    <longitude>27.65</longitude>
  </city>
  <city name="Ayzpute">
    <latitude>56.7166667</latitude>
    <longitude>21.6</longitude>
  </city>
  <city name="Ayzstrautniyeki">
    <latitude>56.6888889</latitude>
    <longitude>23.21</longitude>
  </city>
  <city name="Ayzupe">
    <latitude>56.9166667</latitude>
    <longitude>22.6</longitude>
  </city>
  <city name="Ayzupiyeshi">
    <latitude>57.2486111</latitude>
    <longitude>23.0266667</longitude>
  </city>
  <city name="Ayzviki">
    <latitude>56.3333333</latitude>
    <longitude>21.7333333</longitude>
  </city>
  <city name="Azi">
    <latitude>57.15</latitude>
    <longitude>26.4666667</longitude>
  </city>
  <city name="Azu">
    <latitude>57.15</latitude>
    <longitude>26.4666667</longitude>
  </city>
  <city name="Azu Ciems">
    <latitude>57.5666667</latitude>
    <longitude>22.35</longitude>
  </city>
  <city name="Azu Dzirnavas">
    <latitude>57.15</latitude>
    <longitude>26.4666667</longitude>
  </city>
  <city name="Azu Muiza">
    <latitude>57.5666667</latitude>
    <longitude>22.35</longitude>
  </city>
  <city name="Babecka">
    <latitude>57.4</latitude>
    <longitude>27.2</longitude>
  </city>
  <city name="Baberbeki">
    <latitude>56.9436111</latitude>
    <longitude>23.9555556</longitude>
  </city>
  <city name="Babetska">
    <latitude>57.4</latitude>
    <longitude>27.2</longitude>
  </city>
  <city name="Babite">
    <latitude>56.9583333</latitude>
    <longitude>23.9508333</longitude>
  </city>
  <city name="Babitskiy">
    <latitude>56.9583333</latitude>
    <longitude>23.9508333</longitude>
  </city>
  <city name="Babri">
    <latitude>56.35</latitude>
    <longitude>26.35</longitude>
  </city>
  <city name="Baci">
    <latitude>57.5666667</latitude>
    <longitude>25.9666667</longitude>
  </city>
  <city name="Badnava">
    <latitude>57.2166667</latitude>
    <longitude>27.8166667</longitude>
  </city>
  <city name="Badnova">
    <latitude>57.2166667</latitude>
    <longitude>27.8166667</longitude>
  </city>
  <city name="Baga-Asite">
    <latitude>56.4666667</latitude>
    <longitude>21.6666667</longitude>
  </city>
  <city name="Bagu">
    <latitude>56.5333333</latitude>
    <longitude>25.35</longitude>
  </city>
  <city name="Bahareva">
    <latitude>57.0833333</latitude>
    <longitude>27.7333333</longitude>
  </city>
  <city name="Baizkalna Muiza">
    <latitude>57.3333333</latitude>
    <longitude>25.5666667</longitude>
  </city>
  <city name="Baizkalns">
    <latitude>57.3333333</latitude>
    <longitude>25.5666667</longitude>
  </city>
  <city name="Bajari">
    <latitude>56.6166667</latitude>
    <longitude>25.3833333</longitude>
  </city>
  <city name="Bajerini">
    <latitude>57.6166667</latitude>
    <longitude>26.0666667</longitude>
  </city>
  <city name="Bakuli">
    <latitude>56.6147222</latitude>
    <longitude>23.4538889</longitude>
  </city>
  <city name="Bakuzhi">
    <latitude>56.4833333</latitude>
    <longitude>21.9</longitude>
  </city>
  <city name="Bakuzi">
    <latitude>56.4833333</latitude>
    <longitude>21.9</longitude>
  </city>
  <city name="Balabisi">
    <latitude>56.4833333</latitude>
    <longitude>27.0666667</longitude>
  </city>
  <city name="Balabiski">
    <latitude>56.4833333</latitude>
    <longitude>27.0666667</longitude>
  </city>
  <city name="Balani">
    <latitude>56.35</latitude>
    <longitude>27.3833333</longitude>
  </city>
  <city name="Balbieri">
    <latitude>56.6666667</latitude>
    <longitude>25.4833333</longitude>
  </city>
  <city name="Balbishi">
    <latitude>56.4833333</latitude>
    <longitude>27.0666667</longitude>
  </city>
  <city name="Balda">
    <latitude>56.2833333</latitude>
    <longitude>27.2166667</longitude>
  </city>
  <city name="Baldone">
    <latitude>56.7069444</latitude>
    <longitude>24.3519444</longitude>
  </city>
  <city name="Baldones">
    <latitude>56.9833333</latitude>
    <longitude>27.0333333</longitude>
  </city>
  <city name="Baldones Muiza">
    <latitude>56.7069444</latitude>
    <longitude>24.3519444</longitude>
  </city>
  <city name="Baldonieki">
    <latitude>56.7166667</latitude>
    <longitude>21.1333333</longitude>
  </city>
  <city name="Baldoniyeki">
    <latitude>56.7166667</latitude>
    <longitude>21.1333333</longitude>
  </city>
  <city name="Balduri">
    <latitude>57.0333333</latitude>
    <longitude>24.05</longitude>
  </city>
  <city name="Balgale">
    <latitude>57.1666667</latitude>
    <longitude>22.9</longitude>
  </city>
  <city name="Balgali">
    <latitude>56.5833333</latitude>
    <longitude>25.9833333</longitude>
  </city>
  <city name="Balgaln">
    <latitude>56.5833333</latitude>
    <longitude>25.9833333</longitude>
  </city>
  <city name="Balgalvji">
    <latitude>56.5833333</latitude>
    <longitude>25.9833333</longitude>
  </city>
  <city name="Balinava">
    <latitude>56.4</latitude>
    <longitude>27.45</longitude>
  </city>
  <city name="Balini">
    <latitude>57.0333333</latitude>
    <longitude>21.6666667</longitude>
  </city>
  <city name="(( Balkas ))">
    <latitude>56.7541667</latitude>
    <longitude>24.2458333</longitude>
  </city>
  <city name="Balkitis">
    <latitude>57.4666667</latitude>
    <longitude>25.5833333</longitude>
  </city>
  <city name="Balobyshi">
    <latitude>56.4833333</latitude>
    <longitude>27.0666667</longitude>
  </city>
  <city name="Baloza">
    <latitude>56.9333333</latitude>
    <longitude>26.6333333</longitude>
  </city>
  <city name="Baloza Pusmuiza">
    <latitude>56.9333333</latitude>
    <longitude>26.6333333</longitude>
  </city>
  <city name="Baloz">
    <latitude>56.9980556</latitude>
    <longitude>24.2694444</longitude>
  </city>
  <city name="Balozhi">
    <latitude>56.9333333</latitude>
    <longitude>26.6333333</longitude>
  </city>
  <city name="Balozi">
    <latitude>57.1833333</latitude>
    <longitude>25.3666667</longitude>
  </city>
  <city name="Balozkrogs">
    <latitude>56.9980556</latitude>
    <longitude>24.2694444</longitude>
  </city>
  <city name="Balseri">
    <latitude>57.0175</latitude>
    <longitude>24.3094444</longitude>
  </city>
  <city name="Baltaci">
    <latitude>56.0833333</latitude>
    <longitude>26.5333333</longitude>
  </city>
  <city name="Balta Dukstigala">
    <latitude>56.3666667</latitude>
    <longitude>27.4333333</longitude>
  </city>
  <city name="Baltais Dukstgals">
    <latitude>56.3666667</latitude>
    <longitude>27.4333333</longitude>
  </city>
  <city name="Baltaiskrogs">
    <latitude>56.4666667</latitude>
    <longitude>22.2166667</longitude>
  </city>
  <city name="Baltayki">
    <latitude>56.7</latitude>
    <longitude>21.8</longitude>
  </city>
  <city name="Baltayskrogs">
    <latitude>56.4666667</latitude>
    <longitude>22.2166667</longitude>
  </city>
  <city name="Balten">
    <latitude>56.9166667</latitude>
    <longitude>26.2666667</longitude>
  </city>
  <city name="Balteni">
    <latitude>56.3666667</latitude>
    <longitude>27.5166667</longitude>
  </city>
  <city name="Baltezers">
    <latitude>57.0175</latitude>
    <longitude>24.3094444</longitude>
  </city>
  <city name="Baltgalvji">
    <latitude>57.0833333</latitude>
    <longitude>25.65</longitude>
  </city>
  <city name="Baltimuiza">
    <latitude>56.05</latitude>
    <longitude>25.9</longitude>
  </city>
  <city name="Baltinava">
    <latitude>56.95</latitude>
    <longitude>27.65</longitude>
  </city>
  <city name="Baltini">
    <latitude>56.9166667</latitude>
    <longitude>26.2666667</longitude>
  </city>
  <city name="Baltinova">
    <latitude>56.95</latitude>
    <longitude>27.65</longitude>
  </city>
  <city name="Baltmuiza">
    <latitude>56.05</latitude>
    <longitude>25.9</longitude>
  </city>
  <city name="Balucki">
    <latitude>56.3666667</latitude>
    <longitude>27.1333333</longitude>
  </city>
  <city name="Balvi">
    <latitude>57.1333333</latitude>
    <longitude>27.25</longitude>
  </city>
  <city name="Balvy">
    <latitude>57.1333333</latitude>
    <longitude>27.25</longitude>
  </city>
  <city name="Balyni">
    <latitude>57.7833333</latitude>
    <longitude>25.65</longitude>
  </city>
  <city name="Bambi">
    <latitude>57.0127778</latitude>
    <longitude>24.6230556</longitude>
  </city>
  <city name="Banazi">
    <latitude>56.3833333</latitude>
    <longitude>21.1</longitude>
  </city>
  <city name="Bandenieki">
    <latitude>56.3675</latitude>
    <longitude>23.4925</longitude>
  </city>
  <city name="Banuzi">
    <latitude>57.15</latitude>
    <longitude>25.5833333</longitude>
  </city>
  <city name="Banuzu Muiza">
    <latitude>57.15</latitude>
    <longitude>25.5833333</longitude>
  </city>
  <city name="Barakani">
    <latitude>56.35</latitude>
    <longitude>26.15</longitude>
  </city>
  <city name="Barauka">
    <latitude>55.75</latitude>
    <longitude>26.7833333</longitude>
  </city>
  <city name="Baravaja">
    <latitude>56.35</latitude>
    <longitude>27.1666667</longitude>
  </city>
  <city name="Baravaya">
    <latitude>56.35</latitude>
    <longitude>27.1666667</longitude>
  </city>
  <city name="Baraviki">
    <latitude>56.6</latitude>
    <longitude>25.8833333</longitude>
  </city>
  <city name="Barbali">
    <latitude>56.6166667</latitude>
    <longitude>26.4333333</longitude>
  </city>
  <city name="Barbele">
    <latitude>56.4502778</latitude>
    <longitude>24.5983333</longitude>
  </city>
  <city name="Barbeles Macitaja Muiza">
    <latitude>56.4502778</latitude>
    <longitude>24.5983333</longitude>
  </city>
  <city name="Barbuli-Tropi">
    <latitude>56.6666667</latitude>
    <longitude>26.5333333</longitude>
  </city>
  <city name="Bardas">
    <latitude>57.5666667</latitude>
    <longitude>26.95</longitude>
  </city>
  <city name="Bardaskrogs">
    <latitude>57.5666667</latitude>
    <longitude>26.95</longitude>
  </city>
  <city name="Bardzhuni">
    <latitude>56.2952778</latitude>
    <longitude>24.5675</longitude>
  </city>
  <city name="Bardzoni">
    <latitude>56.2952778</latitude>
    <longitude>24.5675</longitude>
  </city>
  <city name="Bardzuni">
    <latitude>56.2952778</latitude>
    <longitude>24.5675</longitude>
  </city>
  <city name="Barguly">
    <latitude>56.6</latitude>
    <longitude>27.9833333</longitude>
  </city>
  <city name="Barisi">
    <latitude>56.6333333</latitude>
    <longitude>25.0833333</longitude>
  </city>
  <city name="Barisova">
    <latitude>57.2166667</latitude>
    <longitude>27.7333333</longitude>
  </city>
  <city name="Bariss">
    <latitude>57.5333333</latitude>
    <longitude>25.75</longitude>
  </city>
  <city name="Barkani">
    <latitude>56.8333333</latitude>
    <longitude>27.7166667</longitude>
  </city>
  <city name="Barkava">
    <latitude>56.7166667</latitude>
    <longitude>26.6</longitude>
  </city>
  <city name="Barovka">
    <latitude>56.5</latitude>
    <longitude>26.4833333</longitude>
  </city>
  <city name="Barta">
    <latitude>56.35</latitude>
    <longitude>21.3166667</longitude>
  </city>
  <city name="Bartas Muiza">
    <latitude>56.35</latitude>
    <longitude>21.3166667</longitude>
  </city>
  <city name="Bartnieki">
    <latitude>56.65</latitude>
    <longitude>27.9166667</longitude>
  </city>
  <city name="Bartuli">
    <latitude>56.6</latitude>
    <longitude>27.9833333</longitude>
  </city>
  <city name="Base">
    <latitude>56.8833333</latitude>
    <longitude>21.6833333</longitude>
  </city>
  <city name="Basi">
    <latitude>57.1333333</latitude>
    <longitude>26.0166667</longitude>
  </city>
  <city name="Baski">
    <latitude>56.2</latitude>
    <longitude>26.85</longitude>
  </city>
  <city name="Bata">
    <latitude>56.4333333</latitude>
    <longitude>21.8833333</longitude>
  </city>
  <city name="Batari">
    <latitude>56.4833333</latitude>
    <longitude>27.6</longitude>
  </city>
  <city name="Batsari">
    <latitude>56.4833333</latitude>
    <longitude>27.6</longitude>
  </city>
  <city name="Baumani">
    <latitude>57.0333333</latitude>
    <longitude>22.4166667</longitude>
  </city>
  <city name="Bauni">
    <latitude>56.9</latitude>
    <longitude>22.0833333</longitude>
  </city>
  <city name="Baunu Muiza">
    <latitude>57.75</latitude>
    <longitude>25.1833333</longitude>
  </city>
  <city name="Bauri">
    <latitude>56.5833333</latitude>
    <longitude>26.0</longitude>
  </city>
  <city name="Bauska">
    <latitude>56.4075</latitude>
    <longitude>24.1905556</longitude>
  </city>
  <city name="Bauske">
    <latitude>56.4075</latitude>
    <longitude>24.1905556</longitude>
  </city>
  <city name="Bauzas">
    <latitude>56.6</latitude>
    <longitude>22.05</longitude>
  </city>
  <city name="Bayari">
    <latitude>56.4275</latitude>
    <longitude>24.2963889</longitude>
  </city>
  <city name="Bayary">
    <latitude>56.4408333</latitude>
    <longitude>23.8180556</longitude>
  </city>
  <city name="Bazciems">
    <latitude>56.9366667</latitude>
    <longitude>23.6058333</longitude>
  </city>
  <city name="Bazhtsiyems">
    <latitude>56.9366667</latitude>
    <longitude>23.6058333</longitude>
  </city>
  <city name="Bazniekrogs">
    <latitude>57.5</latitude>
    <longitude>25.0</longitude>
  </city>
  <city name="Bazniikrogs">
    <latitude>57.5</latitude>
    <longitude>25.0</longitude>
  </city>
  <city name="Baznitskrogs">
    <latitude>57.5</latitude>
    <longitude>25.0</longitude>
  </city>
  <city name="(( Bazunes ))">
    <latitude>56.75</latitude>
    <longitude>23.95</longitude>
  </city>
  <city name="Bebe">
    <latitude>56.6666667</latitude>
    <longitude>21.2333333</longitude>
  </city>
  <city name="Beberbeki">
    <latitude>56.9436111</latitude>
    <longitude>23.9555556</longitude>
  </city>
  <city name="Bebrene">
    <latitude>56.0666667</latitude>
    <longitude>26.1166667</longitude>
  </city>
  <city name="Bebrenes Muiza">
    <latitude>56.0666667</latitude>
    <longitude>26.1166667</longitude>
  </city>
  <city name="Bebri">
    <latitude>56.7333333</latitude>
    <longitude>25.5</longitude>
  </city>
  <city name="Beceri">
    <latitude>56.3833333</latitude>
    <longitude>27.65</longitude>
  </city>
  <city name="Bechery">
    <latitude>56.3833333</latitude>
    <longitude>27.65</longitude>
  </city>
  <city name="Bedres">
    <latitude>56.7666667</latitude>
    <longitude>22.9833333</longitude>
  </city>
  <city name="Beika">
    <latitude>57.5333333</latitude>
    <longitude>25.0666667</longitude>
  </city>
  <city name="Beites">
    <latitude>57.1377778</latitude>
    <longitude>24.8397222</longitude>
  </city>
  <city name="Beja">
    <latitude>57.4</latitude>
    <longitude>27.2333333</longitude>
  </city>
  <city name="Beki">
    <latitude>56.15</latitude>
    <longitude>26.9333333</longitude>
  </city>
  <city name="Bekshi">
    <latitude>56.4166667</latitude>
    <longitude>27.2333333</longitude>
  </city>
  <city name="Beksi">
    <latitude>56.4166667</latitude>
    <longitude>27.2333333</longitude>
  </city>
  <city name="Bekukrogs">
    <latitude>56.6644444</latitude>
    <longitude>24.3463889</longitude>
  </city>
  <city name="Belagrudava">
    <latitude>56.0333333</latitude>
    <longitude>27.0666667</longitude>
  </city>
  <city name="Belajeva">
    <latitude>56.25</latitude>
    <longitude>28.1166667</longitude>
  </city>
  <city name="Belauski">
    <latitude>56.85</latitude>
    <longitude>27.1166667</longitude>
  </city>
  <city name="Belava">
    <latitude>57.2833333</latitude>
    <longitude>26.7833333</longitude>
  </city>
  <city name="Belavas Kalns">
    <latitude>57.2833333</latitude>
    <longitude>26.8</longitude>
  </city>
  <city name="Belavas Muiza">
    <latitude>56.6333333</latitude>
    <longitude>26.2166667</longitude>
  </city>
  <city name="Beles">
    <latitude>57.2333333</latitude>
    <longitude>21.4833333</longitude>
  </city>
  <city name="Belevo">
    <latitude>56.6</latitude>
    <longitude>27.7</longitude>
  </city>
  <city name="Belina">
    <latitude>56.9833333</latitude>
    <longitude>27.5833333</longitude>
  </city>
  <city name="Belobabina">
    <latitude>56.4</latitude>
    <longitude>26.95</longitude>
  </city>
  <city name="Belogrudeva">
    <latitude>56.0333333</latitude>
    <longitude>27.0666667</longitude>
  </city>
  <city name="Belogrudova">
    <latitude>56.0333333</latitude>
    <longitude>27.0666667</longitude>
  </city>
  <city name="Belomokki">
    <latitude>56.4333333</latitude>
    <longitude>27.7166667</longitude>
  </city>
  <city name="Belyayevo">
    <latitude>56.25</latitude>
    <longitude>28.1166667</longitude>
  </city>
  <city name="Benas">
    <latitude>57.0333333</latitude>
    <longitude>21.4</longitude>
  </city>
  <city name="Bene">
    <latitude>56.4588889</latitude>
    <longitude>23.0644444</longitude>
  </city>
  <city name="Benes Muiza">
    <latitude>56.4833333</latitude>
    <longitude>23.0633333</longitude>
  </city>
  <city name="Benkava">
    <latitude>56.4166667</latitude>
    <longitude>22.8</longitude>
  </city>
  <city name="Benuzhi">
    <latitude>56.8961111</latitude>
    <longitude>23.7177778</longitude>
  </city>
  <city name="Benuzi">
    <latitude>56.8961111</latitude>
    <longitude>23.7177778</longitude>
  </city>
  <city name="Berenati">
    <latitude>56.3833333</latitude>
    <longitude>20.9833333</longitude>
  </city>
  <city name="Berezauka">
    <latitude>55.9666667</latitude>
    <longitude>27.0833333</longitude>
  </city>
  <city name="Berezki">
    <latitude>55.8166667</latitude>
    <longitude>27.45</longitude>
  </city>
  <city name="Berezniki">
    <latitude>56.3166667</latitude>
    <longitude>27.4</longitude>
  </city>
  <city name="Berezovka">
    <latitude>55.9666667</latitude>
    <longitude>27.0833333</longitude>
  </city>
  <city name="Bergi">
    <latitude>56.9863889</latitude>
    <longitude>24.2991667</longitude>
  </city>
  <city name="Berjozki">
    <latitude>55.8166667</latitude>
    <longitude>27.45</longitude>
  </city>
  <city name="Berkene">
    <latitude>56.4341667</latitude>
    <longitude>23.4797222</longitude>
  </city>
  <city name="Bernadskaja">
    <latitude>55.9833333</latitude>
    <longitude>27.0166667</longitude>
  </city>
  <city name="Bernadskaya">
    <latitude>55.9833333</latitude>
    <longitude>27.0166667</longitude>
  </city>
  <city name="Bernani">
    <latitude>56.4666667</latitude>
    <longitude>26.5833333</longitude>
  </city>
  <city name="Bernany">
    <latitude>56.6833333</latitude>
    <longitude>26.95</longitude>
  </city>
  <city name="Bernate">
    <latitude>56.3833333</latitude>
    <longitude>20.9833333</longitude>
  </city>
  <city name="Bernaten">
    <latitude>56.3833333</latitude>
    <longitude>20.9833333</longitude>
  </city>
  <city name="Bernati">
    <latitude>56.3833333</latitude>
    <longitude>20.9833333</longitude>
  </city>
  <city name="Berozki">
    <latitude>55.8166667</latitude>
    <longitude>27.45</longitude>
  </city>
  <city name="Bersmuiza">
    <latitude>56.6872222</latitude>
    <longitude>23.4402778</longitude>
  </city>
  <city name="Bersmuyzha">
    <latitude>56.6872222</latitude>
    <longitude>23.4402778</longitude>
  </city>
  <city name="Berstele">
    <latitude>56.4375</latitude>
    <longitude>23.9197222</longitude>
  </city>
  <city name="Bertmeji">
    <latitude>57.4333333</latitude>
    <longitude>22.4</longitude>
  </city>
  <city name="Bertmeju Ciems">
    <latitude>57.4333333</latitude>
    <longitude>22.4</longitude>
  </city>
  <city name="Bertulaisi">
    <latitude>56.4277778</latitude>
    <longitude>23.2055556</longitude>
  </city>
  <city name="Bertulayshi">
    <latitude>56.4277778</latitude>
    <longitude>23.2055556</longitude>
  </city>
  <city name="Bervircava">
    <latitude>56.4052778</latitude>
    <longitude>23.75</longitude>
  </city>
  <city name="Bervircavas Muiza">
    <latitude>56.4052778</latitude>
    <longitude>23.75</longitude>
  </city>
  <city name="Bervirtsava">
    <latitude>56.4052778</latitude>
    <longitude>23.75</longitude>
  </city>
  <city name="Berzaine">
    <latitude>57.5833333</latitude>
    <longitude>25.2166667</longitude>
  </city>
  <city name="Berzaini">
    <latitude>56.4336111</latitude>
    <longitude>23.2208333</longitude>
  </city>
  <city name="(( Berzalne ))">
    <latitude>56.6333333</latitude>
    <longitude>23.4</longitude>
  </city>
  <city name="Berzauka">
    <latitude>56.7666667</latitude>
    <longitude>27.85</longitude>
  </city>
  <city name="Berzaune">
    <latitude>56.8</latitude>
    <longitude>26.0333333</longitude>
  </city>
  <city name="Berzaunes Muiza">
    <latitude>56.8</latitude>
    <longitude>26.0333333</longitude>
  </city>
  <city name="Berzayni">
    <latitude>56.4336111</latitude>
    <longitude>23.2208333</longitude>
  </city>
  <city name="Berzbeke">
    <latitude>56.6666667</latitude>
    <longitude>23.2336111</longitude>
  </city>
  <city name="Berzciems">
    <latitude>56.8825</latitude>
    <longitude>23.9363889</longitude>
  </city>
  <city name="Berze">
    <latitude>56.6872222</latitude>
    <longitude>23.4402778</longitude>
  </city>
  <city name="Berzeskrogs">
    <latitude>57.2833333</latitude>
    <longitude>25.5</longitude>
  </city>
  <city name="Berzgale">
    <latitude>56.5025</latitude>
    <longitude>23.2147222</longitude>
  </city>
  <city name="Berzgali">
    <latitude>56.5025</latitude>
    <longitude>23.2147222</longitude>
  </city>
  <city name="Berzi">
    <latitude>56.3455556</latitude>
    <longitude>24.1061111</longitude>
  </city>
  <city name="Berzini">
    <latitude>55.8166667</latitude>
    <longitude>27.45</longitude>
  </city>
  <city name="Berzisi">
    <latitude>56.85</latitude>
    <longitude>27.0833333</longitude>
  </city>
  <city name="Berzkalne">
    <latitude>57.1</latitude>
    <longitude>27.35</longitude>
  </city>
  <city name="Berzkalni">
    <latitude>56.95</latitude>
    <longitude>21.5</longitude>
  </city>
  <city name="Berzkalns">
    <latitude>57.6</latitude>
    <longitude>26.0666667</longitude>
  </city>
  <city name="Berzkrasti">
    <latitude>56.5955556</latitude>
    <longitude>23.2894444</longitude>
  </city>
  <city name="Berzmuiza">
    <latitude>56.4941667</latitude>
    <longitude>24.1241667</longitude>
  </city>
  <city name="Berzmuiza Muizas Centrs">
    <latitude>56.6872222</latitude>
    <longitude>23.4402778</longitude>
  </city>
  <city name="Berzpils">
    <latitude>56.85</latitude>
    <longitude>27.0833333</longitude>
  </city>
  <city name="Berzs">
    <latitude>56.95</latitude>
    <longitude>25.2166667</longitude>
  </city>
  <city name="(( Berzsipele ))">
    <latitude>56.7255556</latitude>
    <longitude>23.3894444</longitude>
  </city>
  <city name="Berzskiy">
    <latitude>56.6872222</latitude>
    <longitude>23.4402778</longitude>
  </city>
  <city name="Berzspile">
    <latitude>56.7255556</latitude>
    <longitude>23.3894444</longitude>
  </city>
  <city name="Berztsiyem">
    <latitude>57.2463889</latitude>
    <longitude>23.1736111</longitude>
  </city>
  <city name="Berztsiyems">
    <latitude>57.2463889</latitude>
    <longitude>23.1736111</longitude>
  </city>
  <city name="Berzuciems">
    <latitude>57.0666667</latitude>
    <longitude>22.6666667</longitude>
  </city>
  <city name="Berzumuiza">
    <latitude>56.3455556</latitude>
    <longitude>24.1061111</longitude>
  </city>
  <city name="Berzu Muiza">
    <latitude>56.95</latitude>
    <longitude>25.2166667</longitude>
  </city>
  <city name="Berzupe">
    <latitude>57.4166667</latitude>
    <longitude>27.45</longitude>
  </city>
  <city name="Besberty">
    <latitude>56.6697222</latitude>
    <longitude>23.2558333</longitude>
  </city>
  <city name="Bestes">
    <latitude>57.2166667</latitude>
    <longitude>21.7333333</longitude>
  </city>
  <city name="Beti">
    <latitude>57.1166667</latitude>
    <longitude>21.5666667</longitude>
  </city>
  <city name="Beverina">
    <latitude>57.5333333</latitude>
    <longitude>26.0833333</longitude>
  </city>
  <city name="Beya">
    <latitude>57.4</latitude>
    <longitude>27.2333333</longitude>
  </city>
  <city name="Bicani 2">
    <latitude>56.05</latitude>
    <longitude>26.6666667</longitude>
  </city>
  <city name="Bicani">
    <latitude>56.05</latitude>
    <longitude>26.6666667</longitude>
  </city>
  <city name="(( Bicul ))">
    <latitude>56.5333333</latitude>
    <longitude>23.6333333</longitude>
  </city>
  <city name="Bielomoikas">
    <latitude>56.4333333</latitude>
    <longitude>27.7166667</longitude>
  </city>
  <city name="Bigaunciems">
    <latitude>56.985</latitude>
    <longitude>23.5391667</longitude>
  </city>
  <city name="Bigauntsiems">
    <latitude>56.985</latitude>
    <longitude>23.5391667</longitude>
  </city>
  <city name="Bigaun'tsiyems">
    <latitude>56.985</latitude>
    <longitude>23.5391667</longitude>
  </city>
  <city name="Bikava">
    <latitude>56.3833333</latitude>
    <longitude>26.9</longitude>
  </city>
  <city name="Bikernieki">
    <latitude>56.5833333</latitude>
    <longitude>25.4666667</longitude>
  </city>
  <city name="(( Bikernieki ))">
    <latitude>56.9666667</latitude>
    <longitude>24.25</longitude>
  </city>
  <city name="Bikerniki">
    <latitude>55.9833333</latitude>
    <longitude>26.8</longitude>
  </city>
  <city name="Bikerniyeki">
    <latitude>55.9833333</latitude>
    <longitude>26.8</longitude>
  </city>
  <city name="Bikinelu Muiza">
    <latitude>55.8166667</latitude>
    <longitude>26.4666667</longitude>
  </city>
  <city name="Bikova">
    <latitude>56.3833333</latitude>
    <longitude>26.9</longitude>
  </city>
  <city name="Bikseja">
    <latitude>57.4666667</latitude>
    <longitude>25.7166667</longitude>
  </city>
  <city name="Biksejas Muiza">
    <latitude>57.4666667</latitude>
    <longitude>25.7166667</longitude>
  </city>
  <city name="Biksere">
    <latitude>56.9166667</latitude>
    <longitude>26.3166667</longitude>
  </city>
  <city name="Bikses">
    <latitude>56.55</latitude>
    <longitude>21.1</longitude>
  </city>
  <city name="Bikseya">
    <latitude>57.4666667</latitude>
    <longitude>25.7166667</longitude>
  </city>
  <city name="Biksti">
    <latitude>56.7</latitude>
    <longitude>22.9666667</longitude>
  </city>
  <city name="Bikstu Muiza">
    <latitude>56.7</latitude>
    <longitude>22.9666667</longitude>
  </city>
  <city name="Biksty">
    <latitude>56.7</latitude>
    <longitude>22.9666667</longitude>
  </city>
  <city name="Bilavi">
    <latitude>57.4166667</latitude>
    <longitude>22.7</longitude>
  </city>
  <city name="Bilderlingshof">
    <latitude>56.9825</latitude>
    <longitude>23.8572222</longitude>
  </city>
  <city name="Biletnieki">
    <latitude>56.3</latitude>
    <longitude>26.8</longitude>
  </city>
  <city name="Biljetnieki">
    <latitude>56.3</latitude>
    <longitude>26.8</longitude>
  </city>
  <city name="Bille">
    <latitude>57.2333333</latitude>
    <longitude>25.2166667</longitude>
  </city>
  <city name="Billi">
    <latitude>56.5686111</latitude>
    <longitude>23.9063889</longitude>
  </city>
  <city name="Billumuiza">
    <latitude>56.5686111</latitude>
    <longitude>23.9063889</longitude>
  </city>
  <city name="Billyumuyzha">
    <latitude>56.5686111</latitude>
    <longitude>23.9063889</longitude>
  </city>
  <city name="Bilska">
    <latitude>57.4833333</latitude>
    <longitude>25.9666667</longitude>
  </city>
  <city name="Binava">
    <latitude>56.6166667</latitude>
    <longitude>27.6166667</longitude>
  </city>
  <city name="Binderi">
    <latitude>56.7166667</latitude>
    <longitude>21.3166667</longitude>
  </city>
  <city name="Birini">
    <latitude>57.2494444</latitude>
    <longitude>24.6697222</longitude>
  </city>
  <city name="Birinu Muiza">
    <latitude>57.2494444</latitude>
    <longitude>24.6697222</longitude>
  </city>
  <city name="Birkeneli">
    <latitude>55.8166667</latitude>
    <longitude>26.4666667</longitude>
  </city>
  <city name="Birkineli">
    <latitude>55.8166667</latitude>
    <longitude>26.4666667</longitude>
  </city>
  <city name="Birzai">
    <latitude>56.4</latitude>
    <longitude>25.7833333</longitude>
  </city>
  <city name="Birzes">
    <latitude>56.4827778</latitude>
    <longitude>24.3466667</longitude>
  </city>
  <city name="Birzgale">
    <latitude>56.2872222</latitude>
    <longitude>24.2230556</longitude>
  </city>
  <city name="Birzgali">
    <latitude>56.2872222</latitude>
    <longitude>24.2230556</longitude>
  </city>
  <city name="Birzhi">
    <latitude>56.4</latitude>
    <longitude>25.7833333</longitude>
  </city>
  <city name="Birzhsovka">
    <latitude>56.7666667</latitude>
    <longitude>27.85</longitude>
  </city>
  <city name="Birzi">
    <latitude>56.4</latitude>
    <longitude>25.7833333</longitude>
  </city>
  <city name="Birzite">
    <latitude>56.64</latitude>
    <longitude>23.6180556</longitude>
  </city>
  <city name="Birznieki">
    <latitude>56.6</latitude>
    <longitude>21.3</longitude>
  </city>
  <city name="Birznyeki">
    <latitude>56.9666667</latitude>
    <longitude>26.7</longitude>
  </city>
  <city name="Birzuli">
    <latitude>57.1666667</latitude>
    <longitude>26.2166667</longitude>
  </city>
  <city name="Birzu Muiza">
    <latitude>56.4</latitude>
    <longitude>25.7833333</longitude>
  </city>
  <city name="Bisenieki">
    <latitude>57.3833333</latitude>
    <longitude>22.1666667</longitude>
  </city>
  <city name="Biseniyeki">
    <latitude>57.3833333</latitude>
    <longitude>22.1666667</longitude>
  </city>
  <city name="Bisnieki">
    <latitude>57.3833333</latitude>
    <longitude>22.1666667</longitude>
  </city>
  <city name="Bitani">
    <latitude>56.6166667</latitude>
    <longitude>25.3666667</longitude>
  </city>
  <city name="Biten">
    <latitude>56.5558333</latitude>
    <longitude>23.8516667</longitude>
  </city>
  <city name="Biteni">
    <latitude>56.5558333</latitude>
    <longitude>23.8516667</longitude>
  </city>
  <city name="Biterniyeki">
    <latitude>56.9666667</latitude>
    <longitude>24.25</longitude>
  </city>
  <city name="Bites">
    <latitude>56.7833333</latitude>
    <longitude>25.75</longitude>
  </city>
  <city name="(( Bitnieki ))">
    <latitude>57.1572222</latitude>
    <longitude>24.5397222</longitude>
  </city>
  <city name="Bityerneku">
    <latitude>56.9666667</latitude>
    <longitude>24.25</longitude>
  </city>
  <city name="Bizi">
    <latitude>56.5333333</latitude>
    <longitude>27.5</longitude>
  </city>
  <city name="Blaideni">
    <latitude>56.0833333</latitude>
    <longitude>27.4333333</longitude>
  </city>
  <city name="Blakaini">
    <latitude>57.05</latitude>
    <longitude>26.1</longitude>
  </city>
  <city name="Blanka">
    <latitude>57.9166667</latitude>
    <longitude>25.05</longitude>
  </city>
  <city name="Blankas">
    <latitude>57.9166667</latitude>
    <longitude>25.05</longitude>
  </city>
  <city name="Blankenfelde">
    <latitude>56.3455556</latitude>
    <longitude>23.5486111</longitude>
  </city>
  <city name="Blankfelde">
    <latitude>56.3455556</latitude>
    <longitude>23.5486111</longitude>
  </city>
  <city name="(( Blankfeldes Muiza ))">
    <latitude>56.35</latitude>
    <longitude>23.5666667</longitude>
  </city>
  <city name="Blanku Krogs">
    <latitude>57.9166667</latitude>
    <longitude>25.05</longitude>
  </city>
  <city name="Blazma">
    <latitude>56.7788889</latitude>
    <longitude>23.0919444</longitude>
  </city>
  <city name="Blazmas">
    <latitude>56.7788889</latitude>
    <longitude>23.0919444</longitude>
  </city>
  <city name="Bledeli">
    <latitude>56.05</latitude>
    <longitude>27.35</longitude>
  </city>
  <city name="Blende">
    <latitude>57.1666667</latitude>
    <longitude>21.5666667</longitude>
  </city>
  <city name="Blidene">
    <latitude>56.65</latitude>
    <longitude>22.7833333</longitude>
  </city>
  <city name="Blidiene">
    <latitude>56.65</latitude>
    <longitude>22.8166667</longitude>
  </city>
  <city name="Blisini">
    <latitude>56.7333333</latitude>
    <longitude>27.4833333</longitude>
  </city>
  <city name="Blizneva">
    <latitude>56.2833333</latitude>
    <longitude>27.7</longitude>
  </city>
  <city name="Blodniyeki">
    <latitude>56.9238889</latitude>
    <longitude>23.8555556</longitude>
  </city>
  <city name="Blome">
    <latitude>57.2</latitude>
    <longitude>26.6833333</longitude>
  </city>
  <city name="Blomi">
    <latitude>57.2</latitude>
    <longitude>26.6833333</longitude>
  </city>
  <city name="Blommuiza">
    <latitude>57.4333333</latitude>
    <longitude>25.7833333</longitude>
  </city>
  <city name="Blonti">
    <latitude>56.6166667</latitude>
    <longitude>27.7833333</longitude>
  </city>
  <city name="Blukas">
    <latitude>56.6130556</latitude>
    <longitude>23.7908333</longitude>
  </city>
  <city name="(( Blukaskrogs ))">
    <latitude>56.7</latitude>
    <longitude>23.7833333</longitude>
  </city>
  <city name="Bluzmi">
    <latitude>56.25</latitude>
    <longitude>26.7166667</longitude>
  </city>
  <city name="Bluzni">
    <latitude>56.25</latitude>
    <longitude>26.7166667</longitude>
  </city>
  <city name="Bluzny">
    <latitude>56.25</latitude>
    <longitude>26.7166667</longitude>
  </city>
  <city name="Bobri">
    <latitude>55.7333333</latitude>
    <longitude>26.8166667</longitude>
  </city>
  <city name="Bobry">
    <latitude>55.7333333</latitude>
    <longitude>26.8166667</longitude>
  </city>
  <city name="Boja">
    <latitude>56.6833333</latitude>
    <longitude>21.65</longitude>
  </city>
  <city name="Bojari">
    <latitude>56.1333333</latitude>
    <longitude>27.6</longitude>
  </city>
  <city name="Bojas">
    <latitude>56.6833333</latitude>
    <longitude>21.65</longitude>
  </city>
  <city name="Bokani">
    <latitude>56.1333333</latitude>
    <longitude>26.0166667</longitude>
  </city>
  <city name="Boki">
    <latitude>56.8333333</latitude>
    <longitude>26.0</longitude>
  </city>
  <city name="Bolderaa">
    <latitude>57.0333333</latitude>
    <longitude>24.05</longitude>
  </city>
  <city name="Bolderaja">
    <latitude>57.0333333</latitude>
    <longitude>24.05</longitude>
  </city>
  <city name="Bolderaya">
    <latitude>57.0333333</latitude>
    <longitude>24.05</longitude>
  </city>
  <city name="Bol'dereya">
    <latitude>57.0333333</latitude>
    <longitude>24.05</longitude>
  </city>
  <city name="Bolderoa">
    <latitude>57.0333333</latitude>
    <longitude>24.05</longitude>
  </city>
  <city name="Bolgalvi">
    <latitude>56.5833333</latitude>
    <longitude>25.9833333</longitude>
  </city>
  <city name="Bolowsk">
    <latitude>57.1333333</latitude>
    <longitude>27.25</longitude>
  </city>
  <city name="Bol'shaya Kokiny">
    <latitude>55.9833333</latitude>
    <longitude>26.7166667</longitude>
  </city>
  <city name="Bol'shaya Myza Straupe">
    <latitude>57.35</latitude>
    <longitude>24.95</longitude>
  </city>
  <city name="Bol'shiye Kursishi">
    <latitude>56.2333333</latitude>
    <longitude>26.45</longitude>
  </city>
  <city name="Bol'shoye Medishevo">
    <latitude>56.6166667</latitude>
    <longitude>27.8166667</longitude>
  </city>
  <city name="Bol'shoye Nikovo">
    <latitude>56.4333333</latitude>
    <longitude>28.0166667</longitude>
  </city>
  <city name="Bolvi">
    <latitude>57.1333333</latitude>
    <longitude>27.25</longitude>
  </city>
  <city name="Boncheva">
    <latitude>56.0666667</latitude>
    <longitude>27.7</longitude>
  </city>
  <city name="Bondari">
    <latitude>56.3</latitude>
    <longitude>28.0666667</longitude>
  </city>
  <city name="Bonitacova">
    <latitude>56.8166667</latitude>
    <longitude>27.0833333</longitude>
  </city>
  <city name="Boraukas">
    <latitude>55.9</latitude>
    <longitude>27.2833333</longitude>
  </city>
  <city name="Borbali">
    <latitude>56.6666667</latitude>
    <longitude>26.5333333</longitude>
  </city>
  <city name="Borbuli">
    <latitude>56.6166667</latitude>
    <longitude>26.4333333</longitude>
  </city>
  <city name="Borchova">
    <latitude>56.4333333</latitude>
    <longitude>28.1833333</longitude>
  </city>
  <city name="Borchovas Pusmuiza">
    <latitude>56.7166667</latitude>
    <longitude>26.6</longitude>
  </city>
  <city name="Borisova">
    <latitude>56.55</latitude>
    <longitude>27.3833333</longitude>
  </city>
  <city name="Borkuici">
    <latitude>56.15</latitude>
    <longitude>28.05</longitude>
  </city>
  <city name="Bormani">
    <latitude>56.6833333</latitude>
    <longitude>25.4833333</longitude>
  </city>
  <city name="Bornsminde">
    <latitude>56.4125</latitude>
    <longitude>24.1005556</longitude>
  </city>
  <city name="Borotniki">
    <latitude>56.4333333</latitude>
    <longitude>26.8833333</longitude>
  </city>
  <city name="Borovaja">
    <latitude>56.25</latitude>
    <longitude>28.0333333</longitude>
  </city>
  <city name="Borovaya">
    <latitude>56.25</latitude>
    <longitude>28.0333333</longitude>
  </city>
  <city name="Borovije">
    <latitude>56.05</latitude>
    <longitude>27.0</longitude>
  </city>
  <city name="Borovka">
    <latitude>55.75</latitude>
    <longitude>26.7833333</longitude>
  </city>
  <city name="Borovkas">
    <latitude>56.1166667</latitude>
    <longitude>26.8833333</longitude>
  </city>
  <city name="Bortnieki">
    <latitude>56.4333333</latitude>
    <longitude>26.8833333</longitude>
  </city>
  <city name="Bortniki">
    <latitude>56.3333333</latitude>
    <longitude>28.0333333</longitude>
  </city>
  <city name="Bosko">
    <latitude>56.4075</latitude>
    <longitude>24.1905556</longitude>
  </city>
  <city name="Boyary">
    <latitude>56.1333333</latitude>
    <longitude>27.6</longitude>
  </city>
  <city name="Boyas">
    <latitude>56.6833333</latitude>
    <longitude>21.65</longitude>
  </city>
  <city name="Bozauka">
    <latitude>56.8</latitude>
    <longitude>27.7</longitude>
  </city>
  <city name="Bozava">
    <latitude>56.8</latitude>
    <longitude>27.7</longitude>
  </city>
  <city name="Bracas">
    <latitude>56.6</latitude>
    <longitude>22.1166667</longitude>
  </city>
  <city name="Bradaizh">
    <latitude>56.3166667</latitude>
    <longitude>27.7666667</longitude>
  </city>
  <city name="Brakas">
    <latitude>56.55</latitude>
    <longitude>26.4666667</longitude>
  </city>
  <city name="Brakauski">
    <latitude>56.1833333</latitude>
    <longitude>26.5833333</longitude>
  </city>
  <city name="Braki">
    <latitude>56.9</latitude>
    <longitude>25.4166667</longitude>
  </city>
  <city name="Bramberde">
    <latitude>56.5797222</latitude>
    <longitude>23.5880556</longitude>
  </city>
  <city name="Bramberge">
    <latitude>56.5797222</latitude>
    <longitude>23.5880556</longitude>
  </city>
  <city name="Bramberges Muiza">
    <latitude>56.5797222</latitude>
    <longitude>23.5880556</longitude>
  </city>
  <city name="Brambergi">
    <latitude>56.5797222</latitude>
    <longitude>23.5880556</longitude>
  </city>
  <city name="Brandavas">
    <latitude>56.7455556</latitude>
    <longitude>23.0669444</longitude>
  </city>
  <city name="Brandavi">
    <latitude>56.7455556</latitude>
    <longitude>23.0669444</longitude>
  </city>
  <city name="Brandini">
    <latitude>57.75</latitude>
    <longitude>26.05</longitude>
  </city>
  <city name="Brankas">
    <latitude>56.6819444</latitude>
    <longitude>23.8397222</longitude>
  </city>
  <city name="Brankciems">
    <latitude>56.9291667</latitude>
    <longitude>23.6030556</longitude>
  </city>
  <city name="Branktsiyems">
    <latitude>56.9291667</latitude>
    <longitude>23.6030556</longitude>
  </city>
  <city name="Branta Muiza">
    <latitude>57.3666667</latitude>
    <longitude>25.7333333</longitude>
  </city>
  <city name="Brante">
    <latitude>56.6172222</latitude>
    <longitude>24.0827778</longitude>
  </city>
  <city name="Branteni">
    <latitude>56.8666667</latitude>
    <longitude>25.6333333</longitude>
  </city>
  <city name="Branti">
    <latitude>56.6172222</latitude>
    <longitude>24.0827778</longitude>
  </city>
  <city name="Brasla">
    <latitude>57.2966667</latitude>
    <longitude>24.9233333</longitude>
  </city>
  <city name="Braslava">
    <latitude>57.75</latitude>
    <longitude>25.0333333</longitude>
  </city>
  <city name="Braslavas Muiza">
    <latitude>57.75</latitude>
    <longitude>25.0333333</longitude>
  </city>
  <city name="Bratava">
    <latitude>56.4</latitude>
    <longitude>27.3666667</longitude>
  </city>
  <city name="Bratova">
    <latitude>56.4</latitude>
    <longitude>27.3666667</longitude>
  </city>
  <city name="Brazas">
    <latitude>56.9719444</latitude>
    <longitude>23.8686111</longitude>
  </city>
  <city name="Brediki">
    <latitude>56.55</latitude>
    <longitude>26.05</longitude>
  </city>
  <city name="Bregsukrogs">
    <latitude>57.1</latitude>
    <longitude>25.7166667</longitude>
  </city>
  <city name="Bregzi">
    <latitude>57.1</latitude>
    <longitude>25.7166667</longitude>
  </city>
  <city name="(( Breki ))">
    <latitude>56.7166667</latitude>
    <longitude>23.4833333</longitude>
  </city>
  <city name="Breksiena">
    <latitude>56.9833333</latitude>
    <longitude>27.65</longitude>
  </city>
  <city name="Breksina">
    <latitude>56.9833333</latitude>
    <longitude>27.65</longitude>
  </city>
  <city name="Brekti">
    <latitude>57.1</latitude>
    <longitude>25.9</longitude>
  </city>
  <city name="Brenceni">
    <latitude>56.7166667</latitude>
    <longitude>25.5</longitude>
  </city>
  <city name="Brenci">
    <latitude>57.3666667</latitude>
    <longitude>27.1666667</longitude>
  </city>
  <city name="Brencu Pusmuizas Centrs">
    <latitude>57.3666667</latitude>
    <longitude>27.1666667</longitude>
  </city>
  <city name="Brendznieki">
    <latitude>57.2</latitude>
    <longitude>21.9</longitude>
  </city>
  <city name="Brenguli">
    <latitude>57.55</latitude>
    <longitude>25.5166667</longitude>
  </city>
  <city name="Brengulu Muiza">
    <latitude>57.55</latitude>
    <longitude>25.5166667</longitude>
  </city>
  <city name="Brenti">
    <latitude>57.8</latitude>
    <longitude>25.8</longitude>
  </city>
  <city name="Brentsi">
    <latitude>57.3666667</latitude>
    <longitude>27.1666667</longitude>
  </city>
  <city name="Brentsy">
    <latitude>57.3666667</latitude>
    <longitude>27.1666667</longitude>
  </city>
  <city name="Brezgakrogs">
    <latitude>57.1</latitude>
    <longitude>25.7166667</longitude>
  </city>
  <city name="Brezhi">
    <latitude>56.4827778</latitude>
    <longitude>23.6991667</longitude>
  </city>
  <city name="Brici">
    <latitude>57.1166667</latitude>
    <longitude>25.8666667</longitude>
  </city>
  <city name="Bridaga">
    <latitude>57.6519444</latitude>
    <longitude>24.4697222</longitude>
  </city>
  <city name="Bridiski">
    <latitude>56.2833333</latitude>
    <longitude>27.5666667</longitude>
  </city>
  <city name="Briedes">
    <latitude>57.8</latitude>
    <longitude>25.6</longitude>
  </city>
  <city name="Briedisi">
    <latitude>57.1833333</latitude>
    <longitude>27.15</longitude>
  </city>
  <city name="Briezava">
    <latitude>57.1333333</latitude>
    <longitude>27.3833333</longitude>
  </city>
  <city name="Briezeva">
    <latitude>57.1333333</latitude>
    <longitude>27.3833333</longitude>
  </city>
  <city name="Briezhava">
    <latitude>57.1333333</latitude>
    <longitude>27.3833333</longitude>
  </city>
  <city name="Briezhi">
    <latitude>57.4666667</latitude>
    <longitude>26.4666667</longitude>
  </city>
  <city name="Briezi">
    <latitude>57.4666667</latitude>
    <longitude>26.4666667</longitude>
  </city>
  <city name="(( Briezi ))">
    <latitude>56.4827778</latitude>
    <longitude>23.6991667</longitude>
  </city>
  <city name="Briezuciems">
    <latitude>56.95</latitude>
    <longitude>27.5833333</longitude>
  </city>
  <city name="Brigas Muiza">
    <latitude>55.75</latitude>
    <longitude>26.5333333</longitude>
  </city>
  <city name="Brigene">
    <latitude>55.75</latitude>
    <longitude>26.5333333</longitude>
  </city>
  <city name="Brigi">
    <latitude>56.4166667</latitude>
    <longitude>28.0666667</longitude>
  </city>
  <city name="Brikazi">
    <latitude>57.4</latitude>
    <longitude>25.8333333</longitude>
  </city>
  <city name="Brikuzis">
    <latitude>57.4</latitude>
    <longitude>25.8333333</longitude>
  </city>
  <city name="Brilli">
    <latitude>56.4166667</latitude>
    <longitude>22.75</longitude>
  </city>
  <city name="Bringi">
    <latitude>57.0</latitude>
    <longitude>25.8833333</longitude>
  </city>
  <city name="Brinini">
    <latitude>56.5166667</latitude>
    <longitude>22.2333333</longitude>
  </city>
  <city name="Briski">
    <latitude>56.45</latitude>
    <longitude>26.9</longitude>
  </city>
  <city name="Brisla">
    <latitude>56.4166667</latitude>
    <longitude>26.3666667</longitude>
  </city>
  <city name="Brivnieki">
    <latitude>57.5347222</latitude>
    <longitude>24.3725</longitude>
  </city>
  <city name="Brivniyeki">
    <latitude>57.5347222</latitude>
    <longitude>24.3725</longitude>
  </city>
  <city name="Briyezhava">
    <latitude>57.1333333</latitude>
    <longitude>27.3833333</longitude>
  </city>
  <city name="Briyezhi">
    <latitude>56.4827778</latitude>
    <longitude>23.6991667</longitude>
  </city>
  <city name="Brizule">
    <latitude>57.0905556</latitude>
    <longitude>23.0880556</longitude>
  </city>
  <city name="Brizule Muizas Centrs">
    <latitude>57.0905556</latitude>
    <longitude>23.0880556</longitude>
  </city>
  <city name="Brizules Muiza">
    <latitude>57.0905556</latitude>
    <longitude>23.0880556</longitude>
  </city>
  <city name="Broceni">
    <latitude>56.7</latitude>
    <longitude>22.5333333</longitude>
  </city>
  <city name="Brocenu Muiza">
    <latitude>56.7</latitude>
    <longitude>22.5333333</longitude>
  </city>
  <city name="Brodaiza">
    <latitude>56.3166667</latitude>
    <longitude>27.7666667</longitude>
  </city>
  <city name="Brodaizi">
    <latitude>56.3166667</latitude>
    <longitude>27.7666667</longitude>
  </city>
  <city name="Brodi">
    <latitude>56.4666667</latitude>
    <longitude>25.8666667</longitude>
  </city>
  <city name="Brody">
    <latitude>56.4666667</latitude>
    <longitude>25.8666667</longitude>
  </city>
  <city name="Broki">
    <latitude>56.5166667</latitude>
    <longitude>26.65</longitude>
  </city>
  <city name="Brotseny">
    <latitude>56.7</latitude>
    <longitude>22.5333333</longitude>
  </city>
  <city name="Bruci">
    <latitude>57.0</latitude>
    <longitude>22.0333333</longitude>
  </city>
  <city name="Brukani">
    <latitude>56.6666667</latitude>
    <longitude>27.1166667</longitude>
  </city>
  <city name="Bruklain">
    <latitude>56.3</latitude>
    <longitude>24.2666667</longitude>
  </city>
  <city name="(( Bruklaji ))">
    <latitude>56.3</latitude>
    <longitude>24.2666667</longitude>
  </city>
  <city name="Brukshis">
    <latitude>57.3833333</latitude>
    <longitude>25.8833333</longitude>
  </city>
  <city name="Bruksi">
    <latitude>57.3833333</latitude>
    <longitude>25.8833333</longitude>
  </city>
  <city name="Bruksis">
    <latitude>57.3833333</latitude>
    <longitude>25.8833333</longitude>
  </city>
  <city name="Bruleni">
    <latitude>56.8166667</latitude>
    <longitude>25.15</longitude>
  </city>
  <city name="Brunava">
    <latitude>56.3575</latitude>
    <longitude>24.3891667</longitude>
  </city>
  <city name="Brunaviski">
    <latitude>56.2833333</latitude>
