<?xml version="1.0" encoding="UTF-8"?>
<country code="md" name="Moldavie">
  <city name="Abaclia">
    <latitude>46.361944</latitude>
    <longitude>28.941944</longitude>
  </city>
  <city name="Abakliya">
    <latitude>46.361944</latitude>
    <longitude>28.941944</longitude>
  </city>
  <city name="Abaklydzhaba">
    <latitude>46.361944</latitude>
    <longitude>28.941944</longitude>
  </city>
  <city name="Achendorf">
    <latitude>46.111944</latitude>
    <longitude>28.328889</longitude>
  </city>
  <city name="Acui">
    <latitude>46.186667</latitude>
    <longitude>28.424722</longitude>
  </city>
  <city name="Acui de Jos">
    <latitude>46.178056</latitude>
    <longitude>28.433611</longitude>
  </city>
  <city name="Acui de Mijloc">
    <latitude>46.186667</latitude>
    <longitude>28.424722</longitude>
  </city>
  <city name="Acui de Sus">
    <latitude>46.196389</latitude>
    <longitude>28.4175</longitude>
  </city>
  <city name="Adjiler">
    <latitude>46.492778</latitude>
    <longitude>29.620833</longitude>
  </city>
  <city name="Afanasievca">
    <latitude>47.323056</latitude>
    <longitude>29.253611</longitude>
  </city>
  <city name="Afanas'yevka">
    <latitude>47.323056</latitude>
    <longitude>29.253611</longitude>
  </city>
  <city name="Afumati">
    <latitude>46.984444</latitude>
    <longitude>28.210556</longitude>
  </city>
  <city name="Afumats'">
    <latitude>46.984444</latitude>
    <longitude>28.210556</longitude>
  </city>
  <city name="Agronomovca">
    <latitude>47.348611</latitude>
    <longitude>27.896389</longitude>
  </city>
  <city name="Agronomovka">
    <latitude>47.348611</latitude>
    <longitude>27.896389</longitude>
  </city>
  <city name="Agronomul">
    <latitude>47.348611</latitude>
    <longitude>27.896389</longitude>
  </city>
  <city name="Akendorf">
    <latitude>46.111944</latitude>
    <longitude>28.328889</longitude>
  </city>
  <city name="Akuy">
    <latitude>46.186667</latitude>
    <longitude>28.424722</longitude>
  </city>
  <city name="Akuy Nizhniy">
    <latitude>46.178056</latitude>
    <longitude>28.433611</longitude>
  </city>
  <city name="Akuy Sredniy">
    <latitude>46.186667</latitude>
    <longitude>28.424722</longitude>
  </city>
  <city name="Alauat">
    <latitude>45.866111</latitude>
    <longitude>28.585833</longitude>
  </city>
  <city name="Alaut">
    <latitude>45.866111</latitude>
    <longitude>28.585833</longitude>
  </city>
  <city name="Alava">
    <latitude>46.509167</latitude>
    <longitude>29.567778</longitude>
  </city>
  <city name="Albina">
    <latitude>46.704444</latitude>
    <longitude>28.641944</longitude>
  </city>
  <city name="Albinets">
    <latitude>47.556389</latitude>
    <longitude>27.6375</longitude>
  </city>
  <city name="Albinetul Nou">
    <latitude>47.580556</latitude>
    <longitude>27.621111</longitude>
  </city>
  <city name="Albinetul Vechi">
    <latitude>47.556389</latitude>
    <longitude>27.6375</longitude>
  </city>
  <city name="Albinita">
    <latitude>46.890556</latitude>
    <longitude>29.173889</longitude>
  </city>
  <city name="Albinitsa">
    <latitude>46.890556</latitude>
    <longitude>29.173889</longitude>
  </city>
  <city name="Albota">
    <latitude>45.973333</latitude>
    <longitude>28.474167</longitude>
  </city>
  <city name="Albota de Jos">
    <latitude>45.945833</latitude>
    <longitude>28.484444</longitude>
  </city>
  <city name="Albota de Sus">
    <latitude>45.973333</latitude>
    <longitude>28.474167</longitude>
  </city>
  <city name="Alcedar">
    <latitude>47.868056</latitude>
    <longitude>28.874722</longitude>
  </city>
  <city name="Alchedar">
    <latitude>47.868056</latitude>
    <longitude>28.874722</longitude>
  </city>
  <city name="Alchedary">
    <latitude>47.868056</latitude>
    <longitude>28.874722</longitude>
  </city>
  <city name="Aleksandren'">
    <latitude>47.955278</latitude>
    <longitude>28.128889</longitude>
  </city>
  <city name="Aleksandreni Noua">
    <latitude>46.721944</latitude>
    <longitude>29.023056</longitude>
  </city>
  <city name="Aleksandreni-Tyrg">
    <latitude>47.805556</latitude>
    <longitude>28.075833</longitude>
  </city>
  <city name="Aleksandren' Nouy">
    <latitude>48.147222</latitude>
    <longitude>27.258333</longitude>
  </city>
  <city name="Aleksandreny">
    <latitude>48.147222</latitude>
    <longitude>27.258333</longitude>
  </city>
  <city name="Aleksandreshti">
    <latitude>46.050278</latitude>
    <longitude>28.4125</longitude>
  </city>
  <city name="Aleksandreshty">
    <latitude>46.050278</latitude>
    <longitude>28.4125</longitude>
  </city>
  <city name="Aleksandriya">
    <latitude>47.687222</latitude>
    <longitude>28.293611</longitude>
  </city>
  <city name="Aleksandrofel'd">
    <latitude>45.806667</latitude>
    <longitude>28.427778</longitude>
  </city>
  <city name="Aleksandrovka">
    <latitude>48.029722</latitude>
    <longitude>28.554167</longitude>
  </city>
  <city name="Aleksandrovsk">
    <latitude>47.805556</latitude>
    <longitude>28.075833</longitude>
  </city>
  <city name="Aleksandru Chel Bun">
    <latitude>45.806667</latitude>
    <longitude>28.427778</longitude>
  </city>
  <city name="Aleksandru chel Bun">
    <latitude>46.511944</latitude>
    <longitude>28.660556</longitude>
  </city>
  <city name="Aleksandru-chel-Bun">
    <latitude>48.096944</latitude>
    <longitude>28.340556</longitude>
  </city>
  <city name="Aleksandru Ioan Kuza">
    <latitude>45.599167</latitude>
    <longitude>28.449444</longitude>
  </city>
  <city name="Aleksen'">
    <latitude>47.943889</latitude>
    <longitude>28.285833</longitude>
  </city>
  <city name="Alekseni">
    <latitude>47.943889</latitude>
    <longitude>28.285833</longitude>
  </city>
  <city name="Alekseyevka">
    <latitude>46.026389</latitude>
    <longitude>28.5675</longitude>
  </city>
  <city name="Aleksiyen'">
    <latitude>48.093611</latitude>
    <longitude>27.260833</longitude>
  </city>
  <city name="Alexanderfeld">
    <latitude>45.806667</latitude>
    <longitude>28.427778</longitude>
  </city>
  <city name="Alexandra">
    <latitude>46.23</latitude>
    <longitude>28.266389</longitude>
  </city>
  <city name="Alexandreni">
    <latitude>48.147222</latitude>
    <longitude>27.258333</longitude>
  </city>
  <city name="Alexandrenii Noi">
    <latitude>46.721944</latitude>
    <longitude>29.023056</longitude>
  </city>
  <city name="Alexandreni Târg">
    <latitude>47.805556</latitude>
    <longitude>28.075833</longitude>
  </city>
  <city name="Alexandresti">
    <latitude>46.050278</latitude>
    <longitude>28.4125</longitude>
  </city>
  <city name="Alexandrovca">
    <latitude>48.029722</latitude>
    <longitude>28.554167</longitude>
  </city>
  <city name="Alexandrovca Noua">
    <latitude>47.3</latitude>
    <longitude>29.3025</longitude>
  </city>
  <city name="Alexandru cel Bun">
    <latitude>45.806667</latitude>
    <longitude>28.427778</longitude>
  </city>
  <city name="Alexandru Ioan Cuza">
    <latitude>45.599167</latitude>
    <longitude>28.449444</longitude>
  </city>
  <city name="Alexcieni">
    <latitude>46.026389</latitude>
    <longitude>28.5675</longitude>
  </city>
  <city name="Alexeeni">
    <latitude>46.026389</latitude>
    <longitude>28.5675</longitude>
  </city>
  <city name="Alexeevca">
    <latitude>46.026389</latitude>
    <longitude>28.5675</longitude>
  </city>
  <city name="Alexeieni">
    <latitude>47.943889</latitude>
    <longitude>28.285833</longitude>
  </city>
  <city name="Alexeuca">
    <latitude>47.687222</latitude>
    <longitude>28.293611</longitude>
  </city>
  <city name="Aluat">
    <latitude>45.866111</latitude>
    <longitude>28.585833</longitude>
  </city>
  <city name="Aluatu">
    <latitude>45.866111</latitude>
    <longitude>28.585833</longitude>
  </city>
  <city name="Aluatul">
    <latitude>45.866111</latitude>
    <longitude>28.585833</longitude>
  </city>
  <city name="Alunis">
    <latitude>47.848611</latitude>
    <longitude>27.649444</longitude>
  </city>
  <city name="Alunish">
    <latitude>47.848611</latitude>
    <longitude>27.649444</longitude>
  </city>
  <city name="Andreevca">
    <latitude>47.763056</latitude>
    <longitude>29.171111</longitude>
  </city>
  <city name="Andreyashevka">
    <latitude>46.822778</latitude>
    <longitude>29.970556</longitude>
  </city>
  <city name="Andreyevka">
    <latitude>47.763056</latitude>
    <longitude>29.171111</longitude>
  </city>
  <city name="Andriasevca Noua">
    <latitude>46.833611</latitude>
    <longitude>29.955833</longitude>
  </city>
  <city name="Andriasevca Veche">
    <latitude>46.822778</latitude>
    <longitude>29.970556</longitude>
  </city>
  <city name="Andrusha-de-Zhos">
    <latitude>45.985833</latitude>
    <longitude>28.221111</longitude>
  </city>
  <city name="Andrusha Verkhnyaya">
    <latitude>46.0075</latitude>
    <longitude>28.246111</longitude>
  </city>
  <city name="Andrushu">
    <latitude>46.0075</latitude>
    <longitude>28.246111</longitude>
  </city>
  <city name="Andrusu de Jos">
    <latitude>45.985833</latitude>
    <longitude>28.221111</longitude>
  </city>
  <city name="Andrusu de Sus">
    <latitude>46.0075</latitude>
    <longitude>28.246111</longitude>
  </city>
  <city name="Andrusul de Jos">
    <latitude>45.985833</latitude>
    <longitude>28.221111</longitude>
  </city>
  <city name="Andrusul de Sus">
    <latitude>46.0075</latitude>
    <longitude>28.246111</longitude>
  </city>
  <city name="Anenii Noi">
    <latitude>46.878889</latitude>
    <longitude>29.224722</longitude>
  </city>
  <city name="Anenii Noui">
    <latitude>46.878889</latitude>
    <longitude>29.224722</longitude>
  </city>
  <city name="Aneni Nouy">
    <latitude>46.878889</latitude>
    <longitude>29.224722</longitude>
  </city>
  <city name="Aneny">
    <latitude>46.889167</latitude>
    <longitude>28.466389</longitude>
  </city>
  <city name="Anfisovka">
    <latitude>47.944167</latitude>
    <longitude>27.8675</longitude>
  </city>
  <city name="Anin">
    <latitude>46.889167</latitude>
    <longitude>28.466389</longitude>
  </city>
  <city name="Anini">
    <latitude>46.889167</latitude>
    <longitude>28.466389</longitude>
  </city>
  <city name="Antineni">
    <latitude>47.6775</latitude>
    <longitude>28.238333</longitude>
  </city>
  <city name="Antonen'">
    <latitude>48.076389</latitude>
    <longitude>27.690833</longitude>
  </city>
  <city name="Antonesht'">
    <latitude>46.496111</latitude>
    <longitude>29.848611</longitude>
  </city>
  <city name="Antoneshty">
    <latitude>46.337778</latitude>
    <longitude>28.217222</longitude>
  </city>
  <city name="Antonesti">
    <latitude>46.337778</latitude>
    <longitude>28.217222</longitude>
  </city>
  <city name="Antoneuca">
    <latitude>48.076389</latitude>
    <longitude>27.690833</longitude>
  </city>
  <city name="Antonovca">
    <latitude>47.786944</latitude>
    <longitude>28.214167</longitude>
  </city>
  <city name="Antonovka">
    <latitude>46.337778</latitude>
    <longitude>28.217222</longitude>
  </city>
  <city name="Arianeshty">
    <latitude>48.375278</latitude>
    <longitude>27.843056</longitude>
  </city>
  <city name="Arionesht'">
    <latitude>48.375278</latitude>
    <longitude>27.843056</longitude>
  </city>
  <city name="Arioneshty">
    <latitude>48.375278</latitude>
    <longitude>27.843056</longitude>
  </city>
  <city name="Arionesti">
    <latitude>48.375278</latitude>
    <longitude>27.843056</longitude>
  </city>
  <city name="Arkhiyereyskiy">
    <latitude>46.975278</latitude>
    <longitude>28.819444</longitude>
  </city>
  <city name="Armanca">
    <latitude>47.986944</latitude>
    <longitude>27.526944</longitude>
  </city>
  <city name="Armanka">
    <latitude>47.986944</latitude>
    <longitude>27.526944</longitude>
  </city>
  <city name="Artemonovka">
    <latitude>46.596389</latitude>
    <longitude>28.590833</longitude>
  </city>
  <city name="Artimonesti">
    <latitude>46.596389</latitude>
    <longitude>28.590833</longitude>
  </city>
  <city name="Artimonovca">
    <latitude>46.596389</latitude>
    <longitude>28.590833</longitude>
  </city>
  <city name="Artimonovka">
    <latitude>46.596389</latitude>
    <longitude>28.590833</longitude>
  </city>
  <city name="Asnaseni">
    <latitude>46.994722</latitude>
    <longitude>29.231944</longitude>
  </city>
  <city name="Asnashany">
    <latitude>47.916667</latitude>
    <longitude>27.990278</longitude>
  </city>
  <city name="Asnashen'">
    <latitude>46.994722</latitude>
    <longitude>29.231944</longitude>
  </city>
  <city name="Asnasheny">
    <latitude>46.994722</latitude>
    <longitude>29.231944</longitude>
  </city>
  <city name="Ataki">
    <latitude>48.43</latitude>
    <longitude>27.793889</longitude>
  </city>
  <city name="Atavaska">
    <latitude>47.005</latitude>
    <longitude>28.890556</longitude>
  </city>
  <city name="Atavaska-Bîc">
    <latitude>47.005</latitude>
    <longitude>28.890556</longitude>
  </city>
  <city name="Avdarma">
    <latitude>46.254167</latitude>
    <longitude>28.839444</longitude>
  </city>
  <city name="Avramen'">
    <latitude>47.786111</latitude>
    <longitude>27.2625</longitude>
  </city>
  <city name="Avrameni">
    <latitude>47.786111</latitude>
    <longitude>27.2625</longitude>
  </city>
  <city name="Avrameny">
    <latitude>47.786111</latitude>
    <longitude>27.2625</longitude>
  </city>
  <city name="Bacani">
    <latitude>47.518333</latitude>
    <longitude>27.891389</longitude>
  </city>
  <city name="Baccealia">
    <latitude>46.691111</latitude>
    <longitude>29.280556</longitude>
  </city>
  <city name="Bachkaliya">
    <latitude>46.691111</latitude>
    <longitude>29.280556</longitude>
  </city>
  <city name="Bachoy">
    <latitude>46.912222</latitude>
    <longitude>28.883889</longitude>
  </city>
  <city name="Bachoyu">
    <latitude>46.912222</latitude>
    <longitude>28.883889</longitude>
  </city>
  <city name="Bachushka">
    <latitude>47.638889</latitude>
    <longitude>28.986944</longitude>
  </city>
  <city name="Bâcioc">
    <latitude>46.925</latitude>
    <longitude>29.480278</longitude>
  </city>
  <city name="Bacioi">
    <latitude>46.912222</latitude>
    <longitude>28.883889</longitude>
  </city>
  <city name="Bacioii Noi">
    <latitude>46.955</latitude>
    <longitude>28.927222</longitude>
  </city>
  <city name="Bacioiu">
    <latitude>46.912222</latitude>
    <longitude>28.883889</longitude>
  </city>
  <city name="Bacseni">
    <latitude>47.084167</latitude>
    <longitude>28.016667</longitude>
  </city>
  <city name="Badiceni">
    <latitude>48.203333</latitude>
    <longitude>28.054444</longitude>
  </city>
  <city name="Badichani">
    <latitude>48.203333</latitude>
    <longitude>28.054444</longitude>
  </city>
  <city name="Badichany">
    <latitude>48.203333</latitude>
    <longitude>28.054444</longitude>
  </city>
  <city name="Badichen'">
    <latitude>48.203333</latitude>
    <longitude>28.054444</longitude>
  </city>
  <city name="Badicu">
    <latitude>46.094444</latitude>
    <longitude>28.270556</longitude>
  </city>
  <city name="Badicul">
    <latitude>46.094444</latitude>
    <longitude>28.270556</longitude>
  </city>
  <city name="Badicul Moldovenesc">
    <latitude>46.094444</latitude>
    <longitude>28.270556</longitude>
  </city>
  <city name="Badicul Rusesc">
    <latitude>46.113611</latitude>
    <longitude>28.282222</longitude>
  </city>
  <city name="Badicu-Nou">
    <latitude>46.094722</latitude>
    <longitude>28.244722</longitude>
  </city>
  <city name="Badiko-Moldavan">
    <latitude>46.094444</latitude>
    <longitude>28.270556</longitude>
  </city>
  <city name="Badiko Moldavanskoye">
    <latitude>46.094444</latitude>
    <longitude>28.270556</longitude>
  </city>
  <city name="Badiko-Russkoye">
    <latitude>46.113611</latitude>
    <longitude>28.282222</longitude>
  </city>
  <city name="Badiku">
    <latitude>46.094444</latitude>
    <longitude>28.270556</longitude>
  </city>
  <city name="Badiku Moldavskoye">
    <latitude>46.094444</latitude>
    <longitude>28.270556</longitude>
  </city>
  <city name="Badradzhi-Vek'">
    <latitude>48.037778</latitude>
    <longitude>27.106389</longitude>
  </city>
  <city name="Badragii Noi">
    <latitude>48.064167</latitude>
    <longitude>27.074722</longitude>
  </city>
  <city name="Badragii Vechi">
    <latitude>48.037778</latitude>
    <longitude>27.106389</longitude>
  </city>
  <city name="Badragii-Vechi">
    <latitude>48.037778</latitude>
    <longitude>27.106389</longitude>
  </city>
  <city name="Badyku-Moldavskoye">
    <latitude>46.094444</latitude>
    <longitude>28.270556</longitude>
  </city>
  <city name="Badyku-Novoye">
    <latitude>46.094722</latitude>
    <longitude>28.244722</longitude>
  </city>
  <city name="Badyku-Russkaya">
    <latitude>46.113611</latitude>
    <longitude>28.282222</longitude>
  </city>
  <city name="Badyku-Russkoye">
    <latitude>46.113611</latitude>
    <longitude>28.282222</longitude>
  </city>
  <city name="Bagragii Vechi">
    <latitude>48.037778</latitude>
    <longitude>27.106389</longitude>
  </city>
  <city name="Bagrinesht'">
    <latitude>47.856389</latitude>
    <longitude>28.242222</longitude>
  </city>
  <city name="Bagrineshti">
    <latitude>47.856389</latitude>
    <longitude>28.242222</longitude>
  </city>
  <city name="Bagrineshty">
    <latitude>47.856389</latitude>
    <longitude>28.242222</longitude>
  </city>
  <city name="Bagu">
    <latitude>47.4225</latitude>
    <longitude>28.466667</longitude>
  </city>
  <city name="Bahmut">
    <latitude>47.3225</latitude>
    <longitude>28.115833</longitude>
  </city>
  <city name="Bahmutea">
    <latitude>46.551111</latitude>
    <longitude>28.931944</longitude>
  </city>
  <city name="Bahrinesti">
    <latitude>47.856389</latitude>
    <longitude>28.242222</longitude>
  </city>
  <city name="Bahu">
    <latitude>47.4225</latitude>
    <longitude>28.466667</longitude>
  </city>
  <city name="Baimaclia">
    <latitude>46.187222</latitude>
    <longitude>28.386944</longitude>
  </city>
  <city name="Bairamcea">
    <latitude>45.9275</latitude>
    <longitude>28.358611</longitude>
  </city>
  <city name="Baius">
    <latitude>46.458889</latitude>
    <longitude>28.4825</longitude>
  </city>
  <city name="Bakancha-Skit">
    <latitude>47.511111</latitude>
    <longitude>28.135833</longitude>
  </city>
  <city name="Bakchaliya">
    <latitude>46.691111</latitude>
    <longitude>29.280556</longitude>
  </city>
  <city name="Bakhmut">
    <latitude>47.3225</latitude>
    <longitude>28.115833</longitude>
  </city>
  <city name="Bakhmutka">
    <latitude>46.551111</latitude>
    <longitude>28.931944</longitude>
  </city>
  <city name="Bakhu">
    <latitude>47.4225</latitude>
    <longitude>28.466667</longitude>
  </city>
  <city name="Baksan'">
    <latitude>48.123889</latitude>
    <longitude>28.094722</longitude>
  </city>
  <city name="Baksany">
    <latitude>48.123889</latitude>
    <longitude>28.094722</longitude>
  </city>
  <city name="Bakshen'">
    <latitude>47.084167</latitude>
    <longitude>28.016667</longitude>
  </city>
  <city name="Baksheni">
    <latitude>47.084167</latitude>
    <longitude>28.016667</longitude>
  </city>
  <city name="Baksheny">
    <latitude>47.084167</latitude>
    <longitude>28.016667</longitude>
  </city>
  <city name="Balaban">
    <latitude>45.931944</latitude>
    <longitude>28.581111</longitude>
  </city>
  <city name="Balabanesht'">
    <latitude>47.068333</latitude>
    <longitude>29.131944</longitude>
  </city>
  <city name="Balabaneshty">
    <latitude>47.068333</latitude>
    <longitude>29.131944</longitude>
  </city>
  <city name="Balabanesti">
    <latitude>47.068333</latitude>
    <longitude>29.131944</longitude>
  </city>
  <city name="Balabanu">
    <latitude>45.931944</latitude>
    <longitude>28.581111</longitude>
  </city>
  <city name="Balabany">
    <latitude>45.931944</latitude>
    <longitude>28.581111</longitude>
  </city>
  <city name="Balahanesht'">
    <latitude>47.068333</latitude>
    <longitude>29.131944</longitude>
  </city>
  <city name="Balan">
    <latitude>47.885</latitude>
    <longitude>27.5075</longitude>
  </city>
  <city name="Balanesht'">
    <latitude>47.206111</latitude>
    <longitude>28.065833</longitude>
  </city>
  <city name="Balaneshty">
    <latitude>47.135278</latitude>
    <longitude>28.059722</longitude>
  </city>
  <city name="Balanesti">
    <latitude>47.206111</latitude>
    <longitude>28.065833</longitude>
  </city>
  <city name="Balani">
    <latitude>47.885</latitude>
    <longitude>27.5075</longitude>
  </city>
  <city name="Balanui">
    <latitude>47.885</latitude>
    <longitude>27.5075</longitude>
  </city>
  <city name="Balanul Nou">
    <latitude>47.960556</latitude>
    <longitude>27.5025</longitude>
  </city>
  <city name="Balanu Nou">
    <latitude>47.960556</latitude>
    <longitude>27.5025</longitude>
  </city>
  <city name="Balanu Vechi">
    <latitude>47.885</latitude>
    <longitude>27.5075</longitude>
  </city>
  <city name="Balany">
    <latitude>47.885</latitude>
    <longitude>27.5075</longitude>
  </city>
  <city name="Balasesti">
    <latitude>47.265556</latitude>
    <longitude>29.0425</longitude>
  </city>
  <city name="Balasheshty">
    <latitude>47.265556</latitude>
    <longitude>29.0425</longitude>
  </city>
  <city name="Balashet'">
    <latitude>47.265556</latitude>
    <longitude>29.0425</longitude>
  </city>
  <city name="Balasineshti">
    <latitude>48.243889</latitude>
    <longitude>26.960556</longitude>
  </city>
  <city name="Balasineshty">
    <latitude>48.243889</latitude>
    <longitude>26.960556</longitude>
  </city>
  <city name="Balasinesti">
    <latitude>48.243889</latitude>
    <longitude>26.960556</longitude>
  </city>
  <city name="Balatina">
    <latitude>47.693333</latitude>
    <longitude>27.347222</longitude>
  </city>
  <city name="Balauresht'">
    <latitude>46.939167</latitude>
    <longitude>28.140278</longitude>
  </city>
  <city name="Balaureshty">
    <latitude>46.939167</latitude>
    <longitude>28.140278</longitude>
  </city>
  <city name="Balauresti">
    <latitude>46.939167</latitude>
    <longitude>28.140278</longitude>
  </city>
  <city name="Balcauti">
    <latitude>48.283333</latitude>
    <longitude>27.202222</longitude>
  </city>
  <city name="Balceana">
    <latitude>46.844444</latitude>
    <longitude>28.404722</longitude>
  </city>
  <city name="Balchana">
    <latitude>46.844444</latitude>
    <longitude>28.404722</longitude>
  </city>
  <city name="Balchan">
    <latitude>46.844444</latitude>
    <longitude>28.404722</longitude>
  </city>
  <city name="Balinti">
    <latitude>48.320556</latitude>
    <longitude>28.023611</longitude>
  </city>
  <city name="Balintsy">
    <latitude>48.320556</latitude>
    <longitude>28.023611</longitude>
  </city>
  <city name="Balkauts De Zhos">
    <latitude>48.283333</latitude>
    <longitude>27.202222</longitude>
  </city>
  <city name="Balkautsy">
    <latitude>48.283333</latitude>
    <longitude>27.202222</longitude>
  </city>
  <city name="Balmaz">
    <latitude>46.798056</latitude>
    <longitude>29.285</longitude>
  </city>
  <city name="Balotina">
    <latitude>47.693333</latitude>
    <longitude>27.347222</longitude>
  </city>
  <city name="Baltata">
    <latitude>47.051389</latitude>
    <longitude>29.047778</longitude>
  </city>
  <city name="Baltata de Sus">
    <latitude>47.066389</latitude>
    <longitude>29.035556</longitude>
  </city>
  <city name="Baltati">
    <latitude>46.842222</latitude>
    <longitude>28.955833</longitude>
  </city>
  <city name="Balti">
    <latitude>47.761667</latitude>
    <longitude>27.928889</longitude>
  </city>
  <city name="Baltsata">
    <latitude>47.051389</latitude>
    <longitude>29.047778</longitude>
  </city>
  <city name="Baltsats">
    <latitude>46.842222</latitude>
    <longitude>28.955833</longitude>
  </city>
  <city name="Baltsun">
    <latitude>47.027778</latitude>
    <longitude>28.29</longitude>
  </city>
  <city name="Baltsy">
    <latitude>47.761667</latitude>
    <longitude>27.928889</longitude>
  </city>
  <city name="Baneshti">
    <latitude>47.572222</latitude>
    <longitude>28.378333</longitude>
  </city>
  <city name="Baneshti-Nou">
    <latitude>47.586667</latitude>
    <longitude>28.403333</longitude>
  </city>
  <city name="Baneshti-Nouy">
    <latitude>47.586667</latitude>
    <longitude>28.403333</longitude>
  </city>
  <city name="Baneshty">
    <latitude>47.572222</latitude>
    <longitude>28.378333</longitude>
  </city>
  <city name="Banesti">
    <latitude>47.572222</latitude>
    <longitude>28.378333</longitude>
  </city>
  <city name="Banestii Noi">
    <latitude>47.586667</latitude>
    <longitude>28.403333</longitude>
  </city>
  <city name="Barabay">
    <latitude>48.085833</latitude>
    <longitude>27.6175</longitude>
  </city>
  <city name="Baraboi">
    <latitude>48.085833</latitude>
    <longitude>27.6175</longitude>
  </city>
  <city name="Baraboy">
    <latitude>48.085833</latitude>
    <longitude>27.6175</longitude>
  </city>
  <city name="Barancha">
    <latitude>48.036389</latitude>
    <longitude>27.913333</longitude>
  </city>
  <city name="Barancha-Moskovey">
    <latitude>45.9275</latitude>
    <longitude>28.358611</longitude>
  </city>
  <city name="Barboieni">
    <latitude>47.019722</latitude>
    <longitude>28.0575</longitude>
  </city>
  <city name="Barboyany">
    <latitude>47.019722</latitude>
    <longitude>28.0575</longitude>
  </city>
  <city name="Barboyen'">
    <latitude>47.019722</latitude>
    <longitude>28.0575</longitude>
  </city>
  <city name="Barboyeny">
    <latitude>47.019722</latitude>
    <longitude>28.0575</longitude>
  </city>
  <city name="Barcareni">
    <latitude>46.782778</latitude>
    <longitude>29.177222</longitude>
  </city>
  <city name="Bardar">
    <latitude>46.901944</latitude>
    <longitude>28.668333</longitude>
  </city>
  <city name="Bardaru">
    <latitude>46.901944</latitude>
    <longitude>28.668333</longitude>
  </city>
  <city name="Barkaren'">
    <latitude>46.782778</latitude>
    <longitude>29.177222</longitude>
  </city>
  <city name="Barkarovka">
    <latitude>46.782778</latitude>
    <longitude>29.177222</longitude>
  </city>
  <city name="Barladen'">
    <latitude>48.264444</latitude>
    <longitude>27.416667</longitude>
  </city>
  <city name="Barladeni">
    <latitude>48.264444</latitude>
    <longitude>27.416667</longitude>
  </city>
  <city name="Barlyadyany">
    <latitude>48.264444</latitude>
    <longitude>27.416667</longitude>
  </city>
  <city name="Bârnova">
    <latitude>48.423889</latitude>
    <longitude>27.526667</longitude>
  </city>
  <city name="Baroncea">
    <latitude>48.036389</latitude>
    <longitude>27.913333</longitude>
  </city>
  <city name="Baroncea Noua">
    <latitude>48.000833</latitude>
    <longitude>27.858333</longitude>
  </city>
  <city name="Baroncha">
    <latitude>48.036389</latitude>
    <longitude>27.913333</longitude>
  </city>
  <city name="Basarabca">
    <latitude>47.576389</latitude>
    <longitude>29.161111</longitude>
  </city>
  <city name="Basarabeasca">
    <latitude>46.331111</latitude>
    <longitude>28.972778</longitude>
  </city>
  <city name="Bascalia">
    <latitude>46.308333</latitude>
    <longitude>28.784444</longitude>
  </city>
  <city name="Basheny">
    <latitude>47.465556</latitude>
    <longitude>28.269167</longitude>
  </city>
  <city name="Bashkaliya">
    <latitude>46.308333</latitude>
    <longitude>28.784444</longitude>
  </city>
  <city name="Bashkany">
    <latitude>47.124444</latitude>
    <longitude>29.007222</longitude>
  </city>
  <city name="Batâc">
    <latitude>46.795556</latitude>
    <longitude>29.191389</longitude>
  </city>
  <city name="Batâr">
    <latitude>46.5775</latitude>
    <longitude>29.004167</longitude>
  </city>
  <city name="Batîc">
    <latitude>46.795556</latitude>
    <longitude>29.191389</longitude>
  </city>
  <city name="Batîr">
    <latitude>46.5775</latitude>
    <longitude>29.004167</longitude>
  </city>
  <city name="Batyk">
    <latitude>46.795556</latitude>
    <longitude>29.191389</longitude>
  </city>
  <city name="Batyr">
    <latitude>46.5775</latitude>
    <longitude>29.004167</longitude>
  </city>
  <city name="Baurchi">
    <latitude>46.093889</latitude>
    <longitude>28.675833</longitude>
  </city>
  <city name="Baurchi Moldavan">
    <latitude>46.033056</latitude>
    <longitude>28.232778</longitude>
  </city>
  <city name="Baurchi-Moldovan">
    <latitude>46.033056</latitude>
    <longitude>28.232778</longitude>
  </city>
  <city name="Baurchi-Moldoven'">
    <latitude>46.033056</latitude>
    <longitude>28.232778</longitude>
  </city>
  <city name="Baurci">
    <latitude>46.093889</latitude>
    <longitude>28.675833</longitude>
  </city>
  <city name="Baurci-Moldoveni">
    <latitude>46.093889</latitude>
    <longitude>28.675833</longitude>
  </city>
  <city name="Baxani">
    <latitude>48.123889</latitude>
    <longitude>28.094722</longitude>
  </city>
  <city name="Baymakliya">
    <latitude>46.187222</latitude>
    <longitude>28.386944</longitude>
  </city>
  <city name="Bayusha">
    <latitude>46.458889</latitude>
    <longitude>28.4825</longitude>
  </city>
  <city name="Bayush">
    <latitude>46.458889</latitude>
    <longitude>28.4825</longitude>
  </city>
  <city name="Bechioyu">
    <latitude>46.912222</latitude>
    <longitude>28.883889</longitude>
  </city>
  <city name="Belani">
    <latitude>47.885</latitude>
    <longitude>27.5075</longitude>
  </city>
  <city name="Beleshty">
    <latitude>47.214167</latitude>
    <longitude>28.664167</longitude>
  </city>
  <city name="Beleuti">
    <latitude>47.664444</latitude>
    <longitude>27.906111</longitude>
  </city>
  <city name="Beleutsy">
    <latitude>47.664444</latitude>
    <longitude>27.906111</longitude>
  </city>
  <city name="Belichany">
    <latitude>47.656389</latitude>
    <longitude>28.047222</longitude>
  </city>
  <city name="Beliesti">
    <latitude>47.214167</latitude>
    <longitude>28.664167</longitude>
  </city>
  <city name="Beliyesht'">
    <latitude>47.214167</latitude>
    <longitude>28.664167</longitude>
  </city>
  <city name="Beloche">
    <latitude>47.889167</latitude>
    <longitude>28.978056</longitude>
  </city>
  <city name="Belochi">
    <latitude>47.889167</latitude>
    <longitude>28.978056</longitude>
  </city>
  <city name="Beloci">
    <latitude>47.889167</latitude>
    <longitude>28.978056</longitude>
  </city>
  <city name="Beltsi">
    <latitude>47.761667</latitude>
    <longitude>27.928889</longitude>
  </city>
  <city name="Bel'tsy">
    <latitude>47.761667</latitude>
    <longitude>27.928889</longitude>
  </city>
  <city name="Belyavintsy">
    <latitude>48.292222</latitude>
    <longitude>26.938889</longitude>
  </city>
  <city name="Bendary">
    <latitude>46.830556</latitude>
    <longitude>29.471111</longitude>
  </city>
  <city name="Bender">
    <latitude>46.830556</latitude>
    <longitude>29.471111</longitude>
  </city>
  <city name="Bendery">
    <latitude>46.830556</latitude>
    <longitude>29.471111</longitude>
  </city>
  <city name="Beresht'">
    <latitude>47.233333</latitude>
    <longitude>27.783333</longitude>
  </city>
  <city name="Bereshty">
    <latitude>47.233333</latitude>
    <longitude>27.783333</longitude>
  </city>
  <city name="Beresti">
    <latitude>47.233333</latitude>
    <longitude>27.783333</longitude>
  </city>
  <city name="Berëzki">
    <latitude>46.873333</latitude>
    <longitude>29.2625</longitude>
  </city>
  <city name="Berezlodzh'">
    <latitude>47.436389</latitude>
    <longitude>28.933889</longitude>
  </city>
  <city name="Berezlodzhi">
    <latitude>47.436389</latitude>
    <longitude>28.933889</longitude>
  </city>
  <city name="Berezlogi">
    <latitude>47.436389</latitude>
    <longitude>28.933889</longitude>
  </city>
  <city name="Berezlozh">
    <latitude>47.436389</latitude>
    <longitude>28.933889</longitude>
  </city>
  <city name="Berezlozhi">
    <latitude>47.436389</latitude>
    <longitude>28.933889</longitude>
  </city>
  <city name="Berezovca">
    <latitude>48.381389</latitude>
    <longitude>27.776944</longitude>
  </city>
  <city name="Berëzovka">
    <latitude>48.381389</latitude>
    <longitude>27.776944</longitude>
  </city>
  <city name="Bergdorf">
    <latitude>47.336667</latitude>
    <longitude>29.562222</longitude>
  </city>
  <city name="Beriozchi">
    <latitude>46.873333</latitude>
    <longitude>29.2625</longitude>
  </city>
  <city name="Berlinti">
    <latitude>48.311944</latitude>
    <longitude>26.935833</longitude>
  </city>
  <city name="Berlintsy">
    <latitude>48.311944</latitude>
    <longitude>26.935833</longitude>
  </city>
  <city name="Besalma">
    <latitude>46.172778</latitude>
    <longitude>28.648333</longitude>
  </city>
  <city name="Besghioz">
    <latitude>46.121667</latitude>
    <longitude>28.872222</longitude>
  </city>
  <city name="Beshalma">
    <latitude>46.172778</latitude>
    <longitude>28.648333</longitude>
  </city>
  <city name="Beshen'">
    <latitude>47.465556</latitude>
    <longitude>28.269167</longitude>
  </city>
  <city name="Besh-Gios">
    <latitude>46.121667</latitude>
    <longitude>28.872222</longitude>
  </city>
  <city name="Beshgioz">
    <latitude>46.121667</latitude>
    <longitude>28.872222</longitude>
  </city>
  <city name="Beshtemak">
    <latitude>46.5275</latitude>
    <longitude>28.5275</longitude>
  </city>
  <city name="Beshtymak">
    <latitude>46.5275</latitude>
    <longitude>28.5275</longitude>
  </city>
  <city name="Beshtymik">
    <latitude>46.5275</latitude>
    <longitude>28.5275</longitude>
  </city>
  <city name="Bessarabka">
    <latitude>47.576389</latitude>
    <longitude>29.161111</longitude>
  </city>
  <city name="Bessarabskaya">
    <latitude>46.331111</latitude>
    <longitude>28.972778</longitude>
  </city>
  <city name="Bessarabskiy">
    <latitude>46.331111</latitude>
    <longitude>28.972778</longitude>
  </city>
  <city name="Bestemac">
    <latitude>46.5275</latitude>
    <longitude>28.5275</longitude>
  </city>
  <city name="Bezeda">
    <latitude>48.160833</latitude>
    <longitude>27.001111</longitude>
  </city>
  <city name="Bezen">
    <latitude>47.284444</latitude>
    <longitude>28.67</longitude>
  </city>
  <city name="Bezeni">
    <latitude>47.982222</latitude>
    <longitude>28.120556</longitude>
  </city>
  <city name="Bezeny">
    <latitude>47.982222</latitude>
    <longitude>28.120556</longitude>
  </city>
  <city name="Bezin">
    <latitude>47.284444</latitude>
    <longitude>28.67</longitude>
  </city>
  <city name="Bibletichi">
    <latitude>47.466389</latitude>
    <longitude>28.054444</longitude>
  </city>
  <city name="Bîc">
    <latitude>46.956667</latitude>
    <longitude>28.942222</longitude>
  </city>
  <city name="Bîcioc">
    <latitude>46.925</latitude>
    <longitude>29.480278</longitude>
  </city>
  <city name="Bieloc">
    <latitude>47.889167</latitude>
    <longitude>28.978056</longitude>
  </city>
  <city name="Bielocz">
    <latitude>47.889167</latitude>
    <longitude>28.978056</longitude>
  </city>
  <city name="Biesti">
    <latitude>47.515556</latitude>
    <longitude>28.861389</longitude>
  </city>
  <city name="Biliceni">
    <latitude>47.656389</latitude>
    <longitude>28.047222</longitude>
  </city>
  <city name="Bilicenii Noi">
    <latitude>47.696944</latitude>
    <longitude>28.036667</longitude>
  </city>
  <city name="Bilicenii Vechi">
    <latitude>47.656389</latitude>
    <longitude>28.047222</longitude>
  </city>
  <city name="Bilichen'">
    <latitude>47.656389</latitude>
    <longitude>28.047222</longitude>
  </city>
  <city name="Bilicheni">
    <latitude>47.656389</latitude>
    <longitude>28.047222</longitude>
  </city>
  <city name="Bilicheniy-Noy">
    <latitude>47.696944</latitude>
    <longitude>28.036667</longitude>
  </city>
  <city name="Birladeni">
    <latitude>48.264444</latitude>
    <longitude>27.416667</longitude>
  </city>
  <city name="Bîrnova">
    <latitude>48.423889</latitude>
    <longitude>27.526667</longitude>
  </city>
  <city name="Biruinta">
    <latitude>47.816111</latitude>
    <longitude>28.068611</longitude>
  </city>
  <city name="Biruintsa">
    <latitude>46.05</latitude>
    <longitude>28.525</longitude>
  </city>
  <city name="Biscotari">
    <latitude>46.675556</latitude>
    <longitude>28.883611</longitude>
  </city>
  <city name="Bisericani">
    <latitude>47.641389</latitude>
    <longitude>27.328889</longitude>
  </city>
  <city name="Bisericuta">
    <latitude>45.908889</latitude>
    <longitude>28.527778</longitude>
  </city>
  <city name="Bisericuta-de Jos">
    <latitude>45.896111</latitude>
    <longitude>28.5275</longitude>
  </city>
  <city name="Bisericuta-de Sus">
    <latitude>45.908889</latitude>
    <longitude>28.527778</longitude>
  </city>
  <city name="Biserikan'">
    <latitude>47.641389</latitude>
    <longitude>27.328889</longitude>
  </city>
  <city name="Biserikany">
    <latitude>47.641389</latitude>
    <longitude>27.328889</longitude>
  </city>
  <city name="Biserikucha-Nizhnyaya">
    <latitude>45.896111</latitude>
    <longitude>28.5275</longitude>
  </city>
  <city name="Biserikutsa Nizhnyaya">
    <latitude>45.896111</latitude>
    <longitude>28.5275</longitude>
  </city>
  <city name="Biserikutsa Verkhnyaya">
    <latitude>45.908889</latitude>
    <longitude>28.527778</longitude>
  </city>
  <city name="Bishkotar'">
    <latitude>46.675556</latitude>
    <longitude>28.883611</longitude>
  </city>
  <city name="Bishkotary">
    <latitude>46.675556</latitude>
    <longitude>28.883611</longitude>
  </city>
  <city name="Bisserikany">
    <latitude>47.641389</latitude>
    <longitude>27.328889</longitude>
  </city>
  <city name="Biyesht'">
    <latitude>47.515556</latitude>
    <longitude>28.861389</longitude>
  </city>
  <city name="Biyeshty">
    <latitude>47.515556</latitude>
    <longitude>28.861389</longitude>
  </city>
  <city name="Bleshtenautsy">
    <latitude>48.1225</latitude>
    <longitude>27.219444</longitude>
  </city>
  <city name="Bleshten'">
    <latitude>48.1225</latitude>
    <longitude>27.219444</longitude>
  </city>
  <city name="Bleshteni">
    <latitude>48.1225</latitude>
    <longitude>27.219444</longitude>
  </city>
  <city name="Bleshteny">
    <latitude>48.1225</latitude>
    <longitude>27.219444</longitude>
  </city>
  <city name="Blesteni">
    <latitude>48.1225</latitude>
    <longitude>27.219444</longitude>
  </city>
  <city name="Bliceni">
    <latitude>47.656389</latitude>
    <longitude>28.047222</longitude>
  </city>
  <city name="Blijnii Hutor">
    <latitude>46.884167</latitude>
    <longitude>29.643333</longitude>
  </city>
  <city name="Blindeshty">
    <latitude>47.313056</latitude>
    <longitude>27.669167</longitude>
  </city>
  <city name="Blindesti">
    <latitude>47.313056</latitude>
    <longitude>27.669167</longitude>
  </city>
  <city name="Blizhniy Khutor">
    <latitude>46.884167</latitude>
    <longitude>29.643333</longitude>
  </city>
  <city name="Blumental">
    <latitude>46.648056</latitude>
    <longitude>28.699444</longitude>
  </city>
  <city name="Blyumental'">
    <latitude>46.648056</latitude>
    <longitude>28.699444</longitude>
  </city>
  <city name="Bobeica">
    <latitude>46.985</latitude>
    <longitude>28.462222</longitude>
  </city>
  <city name="Bobeyka">
    <latitude>46.985</latitude>
    <longitude>28.462222</longitude>
  </city>
  <city name="Bobletich'">
    <latitude>47.466389</latitude>
    <longitude>28.054444</longitude>
  </city>
  <city name="Bobletichi">
    <latitude>47.466389</latitude>
    <longitude>28.054444</longitude>
  </city>
  <city name="Bobletici">
    <latitude>47.466389</latitude>
    <longitude>28.054444</longitude>
  </city>
  <city name="Bobulesht'">
    <latitude>47.879444</latitude>
    <longitude>28.3525</longitude>
  </city>
  <city name="Bobuleshty">
    <latitude>47.879444</latitude>
    <longitude>28.3525</longitude>
  </city>
  <city name="Bobulesti">
    <latitude>47.879444</latitude>
    <longitude>28.3525</longitude>
  </city>
  <city name="Bocancea-Schit">
    <latitude>47.511111</latitude>
    <longitude>28.135833</longitude>
  </city>
  <city name="Bocani">
    <latitude>47.518333</latitude>
    <longitude>27.891389</longitude>
  </city>
  <city name="Bochkautsy">
    <latitude>48.292222</latitude>
    <longitude>27.174722</longitude>
  </city>
  <city name="Bocicauti">
    <latitude>48.292222</latitude>
    <longitude>27.174722</longitude>
  </city>
  <city name="Bocsa">
    <latitude>47.471111</latitude>
    <longitude>27.649722</longitude>
  </city>
  <city name="Bodany">
    <latitude>48.081944</latitude>
    <longitude>28.780833</longitude>
  </city>
  <city name="Bodeni">
    <latitude>48.081944</latitude>
    <longitude>28.780833</longitude>
  </city>
  <city name="Bodichany">
    <latitude>48.203333</latitude>
    <longitude>28.054444</longitude>
  </city>
  <city name="Bogdaneasa Veche">
    <latitude>46.475556</latitude>
    <longitude>28.825556</longitude>
  </city>
  <city name="Bogdaneasca-Noua">
    <latitude>46.493333</latitude>
    <longitude>28.844444</longitude>
  </city>
  <city name="Bogdaneasca-Veche">
    <latitude>46.475556</latitude>
    <longitude>28.825556</longitude>
  </city>
  <city name="Bogdaneni">
    <latitude>46.512222</latitude>
    <longitude>28.934167</longitude>
  </city>
  <city name="Bogdanesht'">
    <latitude>48.140278</latitude>
    <longitude>27.001944</longitude>
  </city>
  <city name="Bogdaneshty">
    <latitude>48.140278</latitude>
    <longitude>27.001944</longitude>
  </city>
  <city name="Bogdanesti">
    <latitude>48.140278</latitude>
    <longitude>27.001944</longitude>
  </city>
  <city name="Bogdanovca">
    <latitude>46.512222</latitude>
    <longitude>28.934167</longitude>
  </city>
  <city name="Bogdanovca Noua">
    <latitude>46.493333</latitude>
    <longitude>28.844444</longitude>
  </city>
  <city name="Bogdanovca Veche">
    <latitude>46.475556</latitude>
    <longitude>28.825556</longitude>
  </city>
  <city name="Bogdanovka">
    <latitude>46.512222</latitude>
    <longitude>28.934167</longitude>
  </city>
  <city name="Bogdanyaska Noua">
    <latitude>46.493333</latitude>
    <longitude>28.844444</longitude>
  </city>
  <city name="Bogdanyaska-Veke">
    <latitude>46.475556</latitude>
    <longitude>28.825556</longitude>
  </city>
  <city name="Bogen'">
    <latitude>47.397222</latitude>
    <longitude>28.026111</longitude>
  </city>
  <city name="Bogeni">
    <latitude>47.397222</latitude>
    <longitude>28.026111</longitude>
  </city>
  <city name="Bogeni-Nou">
    <latitude>47.425278</latitude>
    <longitude>28.014444</longitude>
  </city>
  <city name="Bogeny-Nouy">
    <latitude>47.425278</latitude>
    <longitude>28.014444</longitude>
  </city>
  <city name="Boghenii Noi">
    <latitude>47.425278</latitude>
    <longitude>28.014444</longitude>
  </city>
  <city name="Boghenii Vechi">
    <latitude>47.397222</latitude>
    <longitude>28.026111</longitude>
  </city>
  <city name="Boghiceni">
    <latitude>46.948889</latitude>
    <longitude>28.325278</longitude>
  </city>
  <city name="Bogichany">
    <latitude>46.948889</latitude>
    <longitude>28.325278</longitude>
  </city>
  <city name="Bogichen'">
    <latitude>46.948889</latitude>
    <longitude>28.325278</longitude>
  </city>
  <city name="Bogicheny">
    <latitude>46.948889</latitude>
    <longitude>28.325278</longitude>
  </city>
  <city name="Bogzesht'">
    <latitude>47.424722</latitude>
    <longitude>28.428333</longitude>
  </city>
  <city name="Bogzeshty">
    <latitude>47.424722</latitude>
    <longitude>28.428333</longitude>
  </city>
  <city name="Bogzesti">
    <latitude>47.424722</latitude>
    <longitude>28.428333</longitude>
  </city>
  <city name="Bokan'">
    <latitude>47.518333</latitude>
    <longitude>27.891389</longitude>
  </city>
  <city name="Bokancha-Skit">
    <latitude>47.511111</latitude>
    <longitude>28.135833</longitude>
  </city>
  <city name="Bokani">
    <latitude>47.518333</latitude>
    <longitude>27.891389</longitude>
  </city>
  <city name="Bokany">
    <latitude>47.518333</latitude>
    <longitude>27.891389</longitude>
  </city>
  <city name="Boksha">
    <latitude>47.471111</latitude>
    <longitude>27.649722</longitude>
  </city>
  <city name="Bolagureshty">
    <latitude>46.939167</latitude>
    <longitude>28.140278</longitude>
  </city>
  <city name="Bolboaka">
    <latitude>48.371667</latitude>
    <longitude>27.198333</longitude>
  </city>
  <city name="Bolbochi">
    <latitude>48.039722</latitude>
    <longitude>28.083889</longitude>
  </city>
  <city name="Bolbochi-Vek">
    <latitude>48.039722</latitude>
    <longitude>28.083889</longitude>
  </city>
  <city name="Bolbochiy">
    <latitude>48.039722</latitude>
    <longitude>28.083889</longitude>
  </city>
  <city name="Bolbocii Vechi">
    <latitude>48.039722</latitude>
    <longitude>28.083889</longitude>
  </city>
  <city name="Bolboka">
    <latitude>48.371667</latitude>
    <longitude>27.198333</longitude>
  </city>
  <city name="Bol'boki">
    <latitude>46.883056</latitude>
    <longitude>29.309722</longitude>
  </city>
  <city name="Bolchana">
    <latitude>46.844444</latitude>
    <longitude>28.404722</longitude>
  </city>
  <city name="Bolchany">
    <latitude>46.844444</latitude>
    <longitude>28.404722</longitude>
  </city>
  <city name="Boldureshti">
    <latitude>47.135278</latitude>
    <longitude>28.059722</longitude>
  </city>
  <city name="Boldureshty">
    <latitude>47.135278</latitude>
    <longitude>28.059722</longitude>
  </city>
  <city name="Bolduresti">
    <latitude>47.135278</latitude>
    <longitude>28.059722</longitude>
  </city>
  <city name="Bolgarskaya Koloniya">
    <latitude>46.016389</latitude>
    <longitude>28.566111</longitude>
  </city>
  <city name="Bologan'">
    <latitude>47.431944</latitude>
    <longitude>28.873056</longitude>
  </city>
  <city name="Bologani">
    <latitude>47.431944</latitude>
    <longitude>28.873056</longitude>
  </city>
  <city name="Bologany">
    <latitude>47.431944</latitude>
    <longitude>28.873056</longitude>
  </city>
  <city name="Bolohan">
    <latitude>47.431944</latitude>
    <longitude>28.873056</longitude>
  </city>
  <city name="Bolotina">
    <latitude>47.693333</latitude>
    <longitude>27.347222</longitude>
  </city>
  <city name="Bolotino">
    <latitude>47.693333</latitude>
    <longitude>27.347222</longitude>
  </city>
  <city name="Bol'shaya Kashtangaliya">
    <latitude>46.11</latitude>
    <longitude>28.387222</longitude>
  </city>
  <city name="Bol'shaya Kazhdangliya">
    <latitude>46.11</latitude>
    <longitude>28.387222</longitude>
  </city>
  <city name="Bol'shaya Kiseliya">
    <latitude>46.1</latitude>
    <longitude>28.490278</longitude>
  </city>
  <city name="Bol'shaya Kisiliya">
    <latitude>46.1</latitude>
    <longitude>28.490278</longitude>
  </city>
  <city name="Bol'shiye Asnashany">
    <latitude>47.916667</latitude>
    <longitude>27.990278</longitude>
  </city>
  <city name="Bol'shiye Asnasheny">
    <latitude>47.916667</latitude>
    <longitude>27.990278</longitude>
  </city>
  <city name="Bol'shiye Kotyuzhany">
    <latitude>47.843611</latitude>
    <longitude>28.554444</longitude>
  </city>
  <city name="Bol'shoy Fontan">
    <latitude>47.261111</latitude>
    <longitude>29.187222</longitude>
  </city>
  <city name="Bol'shoy Girtop">
    <latitude>47.226389</latitude>
    <longitude>28.942778</longitude>
  </city>
  <city name="Bol'shoy Molokish">
    <latitude>47.856389</latitude>
    <longitude>29.055833</longitude>
  </city>
  <city name="Boltsun">
    <latitude>47.027778</latitude>
    <longitude>28.29</longitude>
  </city>
  <city name="Boltun">
    <latitude>47.027778</latitude>
    <longitude>28.29</longitude>
  </city>
  <city name="Bondareuca">
    <latitude>47.572778</latitude>
    <longitude>28.165833</longitude>
  </city>
  <city name="Bondarevka">
    <latitude>47.572778</latitude>
    <longitude>28.165833</longitude>
  </city>
  <city name="Borceag">
    <latitude>46.05</latitude>
    <longitude>28.525</longitude>
  </city>
  <city name="Borchag">
    <latitude>46.05</latitude>
    <longitude>28.525</longitude>
  </city>
  <city name="Borchak">
    <latitude>46.05</latitude>
    <longitude>28.525</longitude>
  </city>
  <city name="Borisyany Novyye">
    <latitude>47.987222</latitude>
    <longitude>27.4725</longitude>
  </city>
  <city name="Borladyany">
    <latitude>48.264444</latitude>
    <longitude>27.416667</longitude>
  </city>
  <city name="Borogani">
    <latitude>46.369167</latitude>
    <longitude>28.518333</longitude>
  </city>
  <city name="Borogany">
    <latitude>46.369167</latitude>
    <longitude>28.518333</longitude>
  </city>
  <city name="Boroseni">
    <latitude>47.987222</latitude>
    <longitude>27.4725</longitude>
  </city>
  <city name="Borosenii Noi">
    <latitude>47.987222</latitude>
    <longitude>27.4725</longitude>
  </city>
  <city name="Boroseny">
    <latitude>47.987222</latitude>
    <longitude>27.4725</longitude>
  </city>
  <city name="Borosheni">
    <latitude>47.987222</latitude>
    <longitude>27.4725</longitude>
  </city>
  <city name="Borosheni-Nouy">
    <latitude>47.987222</latitude>
    <longitude>27.4725</longitude>
  </city>
  <city name="Bosca">
    <latitude>47.306111</latitude>
    <longitude>29.364444</longitude>
  </city>
  <city name="Boscana">
    <latitude>47.124444</latitude>
    <longitude>29.007222</longitude>
  </city>
  <city name="Bosernita">
    <latitude>47.784444</latitude>
    <longitude>28.980556</longitude>
  </city>
  <city name="Boshernitsa">
    <latitude>47.784444</latitude>
    <longitude>28.980556</longitude>
  </city>
  <city name="Boshkana">
    <latitude>47.124444</latitude>
    <longitude>29.007222</longitude>
  </city>
  <city name="Boska">
    <latitude>47.306111</latitude>
    <longitude>29.364444</longitude>
  </city>
  <city name="Botanika">
    <latitude>46.990833</latitude>
    <longitude>28.833333</longitude>
  </city>
  <city name="Botnaresht' Veke">
    <latitude>46.934722</latitude>
    <longitude>29.162222</longitude>
  </city>
  <city name="Botnareshty">
    <latitude>46.934722</latitude>
    <longitude>29.162222</longitude>
  </city>
  <city name="Botnaresti">
    <latitude>46.934722</latitude>
    <longitude>29.162222</longitude>
  </city>
  <city name="Botnarestii Noi">
    <latitude>46.920278</latitude>
    <longitude>29.166944</longitude>
  </city>
  <city name="Botnarestii Vechi">
    <latitude>46.934722</latitude>
    <longitude>29.162222</longitude>
  </city>
  <city name="Botocheny">
    <latitude>46.2525</latitude>
    <longitude>28.338889</longitude>
  </city>
  <city name="Botushany">
    <latitude>47.533611</latitude>
    <longitude>29.025833</longitude>
  </city>
  <city name="Bovletich'">
    <latitude>47.466389</latitude>
    <longitude>28.054444</longitude>
  </city>
  <city name="Boyanka">
    <latitude>48.017222</latitude>
    <longitude>27.93</longitude>
  </city>
  <city name="Boyukany">
    <latitude>47.018611</latitude>
    <longitude>28.792222</longitude>
  </city>
  <city name="Bozieni">
    <latitude>46.749444</latitude>
    <longitude>28.647222</longitude>
  </city>
  <city name="Boziyen'">
    <latitude>46.749444</latitude>
    <longitude>28.647222</longitude>
  </city>
  <city name="Boziyeni">
    <latitude>46.749444</latitude>
    <longitude>28.647222</longitude>
  </city>
  <city name="Boziyeny">
    <latitude>46.749444</latitude>
    <longitude>28.647222</longitude>
  </city>
  <city name="Braicau">
    <latitude>48.303889</latitude>
    <longitude>27.731667</longitude>
  </city>
  <city name="Braila">
    <latitude>46.915556</latitude>
    <longitude>28.8425</longitude>
  </city>
  <city name="Braneshty">
    <latitude>47.305278</latitude>
    <longitude>28.926667</longitude>
  </city>
  <city name="Branesti">
    <latitude>45.761111</latitude>
    <longitude>28.166667</longitude>
  </city>
  <city name="Branishta">
    <latitude>47.796667</latitude>
    <longitude>27.255833</longitude>
  </city>
  <city name="Branishtya">
    <latitude>47.305278</latitude>
    <longitude>28.926667</longitude>
  </city>
  <city name="Branistea">
    <latitude>47.796667</latitude>
    <longitude>27.255833</longitude>
  </city>
  <city name="Braniste">
    <latitude>47.796667</latitude>
    <longitude>27.255833</longitude>
  </city>
  <city name="Brânza">
    <latitude>45.677778</latitude>
    <longitude>28.174167</longitude>
  </city>
  <city name="Brânzeni">
    <latitude>48.084167</latitude>
    <longitude>27.175556</longitude>
  </city>
  <city name="Brânzenii Noi">
    <latitude>47.657222</latitude>
    <longitude>28.486389</longitude>
  </city>
  <city name="Brânzenii Vechi">
    <latitude>47.658333</latitude>
    <longitude>28.4725</longitude>
  </city>
  <city name="Bratianovca">
    <latitude>46.740556</latitude>
    <longitude>28.464722</longitude>
  </city>
  <city name="Bratiyanovka">
    <latitude>46.740556</latitude>
    <longitude>28.464722</longitude>
  </city>
  <city name="Bratulen'">
    <latitude>47.139167</latitude>
    <longitude>27.975556</longitude>
  </city>
  <city name="Bratuleni">
    <latitude>47.139167</latitude>
    <longitude>27.975556</longitude>
  </city>
  <city name="Bratuleny">
    <latitude>47.139167</latitude>
    <longitude>27.975556</longitude>
  </city>
  <city name="Bratulyany">
    <latitude>47.139167</latitude>
    <longitude>27.975556</longitude>
  </city>
  <city name="Bratuseni">
    <latitude>48.077222</latitude>
    <longitude>27.395833</longitude>
  </city>
  <city name="Bratusenii Noi">
    <latitude>48.061111</latitude>
    <longitude>27.483889</longitude>
  </city>
  <city name="Bratushany">
    <latitude>48.077222</latitude>
    <longitude>27.395833</longitude>
  </city>
  <city name="Bratushen'">
    <latitude>48.077222</latitude>
    <longitude>27.395833</longitude>
  </city>
  <city name="Brat'yanovka">
    <latitude>46.740556</latitude>
    <longitude>28.464722</longitude>
  </city>
  <city name="Bravicea">
    <latitude>47.361111</latitude>
    <longitude>28.436111</longitude>
  </city>
  <city name="Braviceni">
    <latitude>47.433611</latitude>
    <longitude>28.657778</longitude>
  </city>
  <city name="Bravicha">
    <latitude>47.361111</latitude>
    <longitude>28.436111</longitude>
  </city>
  <city name="Bravichany">
    <latitude>47.433611</latitude>
    <longitude>28.657778</longitude>
  </city>
  <city name="Bravichen'">
    <latitude>47.433611</latitude>
    <longitude>28.657778</longitude>
  </city>
  <city name="Bravicheni">
    <latitude>47.433611</latitude>
    <longitude>28.657778</longitude>
  </city>
  <city name="Bravicheny">
    <latitude>47.433611</latitude>
    <longitude>28.657778</longitude>
  </city>
  <city name="Bravichi">
    <latitude>47.361111</latitude>
    <longitude>28.436111</longitude>
  </city>
  <city name="Bravitsa">
    <latitude>47.361111</latitude>
    <longitude>28.436111</longitude>
  </city>
  <city name="Braykeu">
    <latitude>48.303889</latitude>
    <longitude>27.731667</longitude>
  </city>
  <city name="Braykovo">
    <latitude>48.303889</latitude>
    <longitude>27.731667</longitude>
  </city>
  <city name="Breanova">
    <latitude>47.415833</latitude>
    <longitude>28.649722</longitude>
  </city>
  <city name="Brejeni">
    <latitude>47.581667</latitude>
    <longitude>28.140278</longitude>
  </city>
  <city name="Bretusheniy-Vek'">
    <latitude>48.077222</latitude>
    <longitude>27.395833</longitude>
  </city>
  <city name="Brezen'">
    <latitude>47.982222</latitude>
    <longitude>28.120556</longitude>
  </city>
  <city name="Brezhen'">
    <latitude>47.581667</latitude>
    <longitude>28.140278</longitude>
  </city>
  <city name="Brezheny">
    <latitude>47.581667</latitude>
    <longitude>28.140278</longitude>
  </city>
  <city name="Brezoaia">
    <latitude>46.520833</latitude>
    <longitude>29.453889</longitude>
  </city>
  <city name="Brezoaja">
    <latitude>46.520833</latitude>
    <longitude>29.453889</longitude>
  </city>
  <city name="Brezoaya">
    <latitude>46.520833</latitude>
    <longitude>29.453889</longitude>
  </city>
  <city name="Brezok">
    <latitude>46.873333</latitude>
    <longitude>29.2625</longitude>
  </city>
  <city name="Brezoya">
    <latitude>46.520833</latitude>
    <longitude>29.453889</longitude>
  </city>
  <city name="Briceni">
    <latitude>48.362778</latitude>
    <longitude>27.085</longitude>
  </city>
  <city name="Briceni-Târg">
    <latitude>48.362778</latitude>
    <longitude>27.085</longitude>
  </city>
  <city name="Briceva">
    <latitude>48.114722</latitude>
    <longitude>27.648611</longitude>
  </city>
  <city name="Brichany">
    <latitude>48.362778</latitude>
    <longitude>27.085</longitude>
  </city>
  <city name="Brichen'">
    <latitude>48.357222</latitude>
    <longitude>27.703611</longitude>
  </city>
  <city name="Bricheni Sat">
    <latitude>48.362778</latitude>
    <longitude>27.085</longitude>
  </city>
  <city name="Brichen' Sat">
    <latitude>48.362778</latitude>
    <longitude>27.085</longitude>
  </city>
  <city name="Bricheva">
    <latitude>48.114722</latitude>
    <longitude>27.648611</longitude>
  </city>
  <city name="Brînza">
    <latitude>45.677778</latitude>
    <longitude>28.174167</longitude>
  </city>
  <city name="Brînzeni">
    <latitude>48.084167</latitude>
    <longitude>27.175556</longitude>
  </city>
  <city name="Brînzenii Noi">
    <latitude>47.657222</latitude>
    <longitude>28.486389</longitude>
  </city>
  <city name="Brînzenii Vechi">
    <latitude>47.658333</latitude>
    <longitude>28.4725</longitude>
  </city>
  <city name="Broasca">
    <latitude>46.934722</latitude>
    <longitude>28.992778</longitude>
  </city>
  <city name="Broaska">
    <latitude>46.934722</latitude>
    <longitude>28.992778</longitude>
  </city>
  <city name="Broscari">
    <latitude>46.676667</latitude>
    <longitude>28.746667</longitude>
  </city>
  <city name="Broshtyany">
    <latitude>47.879722</latitude>
    <longitude>29.261389</longitude>
  </city>
  <city name="Broska">
    <latitude>46.934722</latitude>
    <longitude>28.992778</longitude>
  </city>
  <city name="Broskoseshty">
    <latitude>46.559444</latitude>
    <longitude>28.247222</longitude>
  </city>
  <city name="Brosteni">
    <latitude>47.879722</latitude>
    <longitude>29.261389</longitude>
  </city>
  <city name="Brushteny">
    <latitude>47.879722</latitude>
    <longitude>29.261389</longitude>
  </city>
  <city name="Bruslachi">
    <latitude>47.281111</latitude>
    <longitude>29.38</longitude>
  </city>
  <city name="Bruslaki">
    <latitude>47.281111</latitude>
    <longitude>29.38</longitude>
  </city>
  <city name="Bryanova">
    <latitude>47.415833</latitude>
    <longitude>28.649722</longitude>
  </city>
  <city name="Bryanovo">
    <latitude>47.415833</latitude>
    <longitude>28.649722</longitude>
  </city>
  <city name="Brynza">
    <latitude>45.677778</latitude>
    <longitude>28.174167</longitude>
  </city>
  <city name="Brynzen'">
    <latitude>48.084167</latitude>
    <longitude>27.175556</longitude>
  </city>
  <city name="Brynzeni">
    <latitude>47.658333</latitude>
    <longitude>28.4725</longitude>
  </city>
  <city name="Brynzeni-Nou">
    <latitude>47.657222</latitude>
    <longitude>28.486389</longitude>
  </city>
  <city name="Brynzeni Nouy">
    <latitude>47.814167</latitude>
    <longitude>27.363889</longitude>
  </city>
  <city name="Brynzeni-Vek'">
    <latitude>47.658333</latitude>
    <longitude>28.4725</longitude>
  </city>
  <city name="Brynzeny">
    <latitude>48.084167</latitude>
    <longitude>27.175556</longitude>
  </city>
  <city name="Brynzyany">
    <latitude>48.084167</latitude>
    <longitude>27.175556</longitude>
  </city>
  <city name="Bubueci">
    <latitude>46.985</latitude>
    <longitude>28.942222</longitude>
  </city>
  <city name="Bubuieci">
    <latitude>46.985</latitude>
    <longitude>28.942222</longitude>
  </city>
  <city name="Bubuyech'">
    <latitude>46.985</latitude>
    <longitude>28.942222</longitude>
  </city>
  <city name="Bubuyechi">
    <latitude>46.985</latitude>
    <longitude>28.942222</longitude>
  </city>
  <city name="Buchiumeni">
    <latitude>47.370556</latitude>
    <longitude>27.713611</longitude>
  </city>
  <city name="Buchumen'">
    <latitude>47.370556</latitude>
    <longitude>27.713611</longitude>
  </city>
  <city name="Buchumeny">
    <latitude>47.370556</latitude>
    <longitude>27.713611</longitude>
  </city>
  <city name="Buchumyany">
    <latitude>47.370556</latitude>
    <longitude>27.713611</longitude>
  </city>
  <city name="Buchushka">
    <latitude>47.638889</latitude>
    <longitude>28.986944</longitude>
  </city>
  <city name="Buciumeni">
    <latitude>47.370556</latitude>
    <longitude>27.713611</longitude>
  </city>
  <city name="Buciusca">
    <latitude>47.638889</latitude>
    <longitude>28.986944</longitude>
  </city>
  <city name="Bucovat">
    <latitude>47.188611</latitude>
    <longitude>28.456944</longitude>
  </city>
  <city name="Bucuria">
    <latitude>45.965556</latitude>
    <longitude>28.348889</longitude>
  </city>
  <city name="Buda">
    <latitude>47.208889</latitude>
    <longitude>28.218889</longitude>
  </city>
  <city name="Budai">
    <latitude>46.8125</latitude>
    <longitude>28.973889</longitude>
  </city>
  <city name="Bude">
    <latitude>46.8125</latitude>
    <longitude>28.973889</longitude>
  </city>
  <city name="Budei">
    <latitude>46.8125</latitude>
    <longitude>28.973889</longitude>
  </city>
  <city name="Budesht'">
    <latitude>47.065278</latitude>
    <longitude>29.006667</longitude>
  </city>
  <city name="Budeshti">
    <latitude>47.065278</latitude>
    <longitude>29.006667</longitude>
  </city>
  <city name="Budeshty">
    <latitude>47.065278</latitude>
    <longitude>29.006667</longitude>
  </city>
  <city name="Budesti">
    <latitude>47.065278</latitude>
    <longitude>29.006667</longitude>
  </city>
  <city name="Budey">
    <latitude>46.8125</latitude>
    <longitude>28.973889</longitude>
  </city>
  <city name="Budzhak">
    <latitude>46.365833</latitude>
    <longitude>28.663333</longitude>
  </city>
  <city name="Buga">
    <latitude>47.022222</latitude>
    <longitude>28.995</longitude>
  </city>
  <city name="Bugeac">
    <latitude>46.365833</latitude>
    <longitude>28.663333</longitude>
  </city>
  <city name="Buhna">
    <latitude>46.650556</latitude>
    <longitude>28.816389</longitude>
  </city>
  <city name="Buicani">
    <latitude>47.018611</latitude>
    <longitude>28.792222</longitude>
  </city>
  <city name="Buiucani">
    <latitude>47.018611</latitude>
    <longitude>28.792222</longitude>
  </city>
  <city name="Bujor">
    <latitude>46.9225</latitude>
    <longitude>28.268333</longitude>
  </city>
  <city name="Bujoru">
    <latitude>46.9225</latitude>
    <longitude>28.268333</longitude>
  </city>
  <city name="Bukhna">
    <latitude>46.650556</latitude>
    <longitude>28.816389</longitude>
  </city>
  <city name="Bukhta">
    <latitude>47.763056</latitude>
    <longitude>29.171111</longitude>
  </city>
  <city name="Bukuriya">
    <latitude>45.965556</latitude>
    <longitude>28.348889</longitude>
  </city>
  <city name="Bulaesti">
    <latitude>47.476944</latitude>
    <longitude>28.978611</longitude>
  </city>
  <city name="Bulaiesti">
    <latitude>47.476944</latitude>
    <longitude>28.978611</longitude>
  </city>
  <city name="Bularda">
    <latitude>47.356111</latitude>
    <longitude>28.222222</longitude>
  </city>
  <city name="Bulayeshty">
    <latitude>47.476944</latitude>
    <longitude>28.978611</longitude>
  </city>
  <city name="Bulboaca">
    <latitude>46.883056</latitude>
    <longitude>29.309722</longitude>
  </city>
  <city name="Bul'boaka">
    <latitude>46.883056</latitude>
    <longitude>29.309722</longitude>
  </city>
  <city name="Bulboaka">
    <latitude>48.371667</latitude>
    <longitude>27.198333</longitude>
  </city>
  <city name="Bulbochi">
    <latitude>48.039722</latitude>
    <longitude>28.083889</longitude>
  </city>
  <city name="Bulboci">
    <latitude>48.039722</latitude>
    <longitude>28.083889</longitude>
  </city>
  <city name="Bulbocii Noi">
    <latitude>48.060278</latitude>
    <longitude>28.118611</longitude>
  </city>
  <city name="Bul'boka">
    <latitude>46.883056</latitude>
    <longitude>29.309722</longitude>
  </city>
  <city name="Bul'boki">
    <latitude>46.883056</latitude>
    <longitude>29.309722</longitude>
  </city>
  <city name="Buleyeshti">
    <latitude>47.476944</latitude>
    <longitude>28.978611</longitude>
  </city>
  <city name="Bulgak">
    <latitude>47.923333</latitude>
    <longitude>27.675</longitude>
  </city>
  <city name="Bulgari">
    <latitude>46.491111</latitude>
    <longitude>28.405833</longitude>
  </city>
  <city name="Bulgarika">
    <latitude>46.491111</latitude>
    <longitude>28.405833</longitude>
  </city>
  <city name="Bulhac">
    <latitude>47.923333</latitude>
    <longitude>27.675</longitude>
  </city>
  <city name="Bulzesht'">
    <latitude>47.476944</latitude>
    <longitude>28.978611</longitude>
  </city>
  <city name="Bumbata">
    <latitude>47.340833</latitude>
    <longitude>27.974444</longitude>
  </city>
  <city name="Bumbota">
    <latitude>47.340833</latitude>
    <longitude>27.974444</longitude>
  </city>
  <city name="Buneti">
    <latitude>47.080556</latitude>
    <longitude>28.91</longitude>
  </city>
  <city name="Bunets">
    <latitude>47.080556</latitude>
    <longitude>28.91</longitude>
  </city>
  <city name="Burgela-Soch'">
    <latitude>47.538611</latitude>
    <longitude>27.865278</longitude>
  </city>
  <city name="Burgelya">
    <latitude>47.538611</latitude>
    <longitude>27.865278</longitude>
  </city>
  <city name="Burghelea">
    <latitude>47.538611</latitude>
    <longitude>27.865278</longitude>
  </city>
  <city name="Burlacelu">
    <latitude>45.758056</latitude>
    <longitude>28.506944</longitude>
  </city>
  <city name="Burlaceni">
    <latitude>45.758056</latitude>
    <longitude>28.506944</longitude>
  </city>
  <city name="Burlachany">
    <latitude>45.758056</latitude>
    <longitude>28.506944</longitude>
  </city>
  <city name="Burlacheny">
    <latitude>45.758056</latitude>
    <longitude>28.506944</longitude>
  </city>
  <city name="Burlacu">
    <latitude>46.044722</latitude>
    <longitude>28.412778</longitude>
  </city>
  <city name="Burlacul">
    <latitude>46.044722</latitude>
    <longitude>28.412778</longitude>
  </city>
  <city name="Burlaki">
    <latitude>46.044722</latitude>
    <longitude>28.412778</longitude>
  </city>
  <city name="Burlaneshti">
    <latitude>48.126111</latitude>
    <longitude>27.130278</longitude>
  </city>
  <city name="Burlaneshty">
    <latitude>48.126111</latitude>
    <longitude>27.130278</longitude>
  </city>
  <city name="Burlanesti">
    <latitude>48.126111</latitude>
    <longitude>27.130278</longitude>
  </city>
  <city name="Burshteny">
    <latitude>47.879722</latitude>
    <longitude>29.261389</longitude>
  </city>
  <city name="Bursuc">
    <latitude>47.973333</latitude>
    <longitude>28.735556</longitude>
  </city>
  <city name="Bursuceni">
    <latitude>47.489722</latitude>
    <longitude>28.013889</longitude>
  </city>
  <city name="Bursuchen'">
    <latitude>47.489722</latitude>
    <longitude>28.013889</longitude>
  </city>
  <city name="Bursucheny">
    <latitude>47.489722</latitude>
    <longitude>28.013889</longitude>
  </city>
  <city name="Bursuk">
    <latitude>47.973333</latitude>
    <longitude>28.735556</longitude>
  </city>
  <city name="Burtovca">
    <latitude>45.85</latitude>
    <longitude>28.233333</longitude>
  </city>
  <city name="Burtovka">
    <latitude>45.85</latitude>
    <longitude>28.233333</longitude>
  </city>
  <city name="Busauca">
    <latitude>47.593611</latitude>
    <longitude>28.788611</longitude>
  </city>
  <city name="Buschi">
    <latitude>47.7175</latitude>
    <longitude>29.077778</longitude>
  </city>
  <city name="Bushila">
    <latitude>47.3875</latitude>
    <longitude>27.811667</longitude>
  </city>
  <city name="Bushili">
    <latitude>47.3875</latitude>
    <longitude>27.811667</longitude>
  </city>
  <city name="Bushovka">
    <latitude>47.593611</latitude>
    <longitude>28.788611</longitude>
  </city>
  <city name="Bushtile">
    <latitude>47.3875</latitude>
    <longitude>27.811667</longitude>
  </city>
  <city name="Busila">
    <latitude>47.3875</latitude>
    <longitude>27.811667</longitude>
  </city>
  <city name="Bus'ki">
    <latitude>47.7175</latitude>
    <longitude>29.077778</longitude>
  </city>
  <city name="Busovca">
    <latitude>47.593611</latitude>
    <longitude>28.788611</longitude>
  </city>
  <city name="Buteni">
    <latitude>46.824167</latitude>
    <longitude>28.675</longitude>
  </city>
  <city name="Butesht'">
    <latitude>47.795278</latitude>
    <longitude>27.333333</longitude>
  </city>
  <city name="Buteshti">
    <latitude>47.795278</latitude>
    <longitude>27.333333</longitude>
  </city>
  <city name="Buteshty">
    <latitude>47.795278</latitude>
    <longitude>27.333333</longitude>
  </city>
  <city name="Butesti">
    <latitude>47.795278</latitude>
    <longitude>27.333333</longitude>
  </city>
  <city name="Butor">
    <latitude>47.041389</latitude>
    <longitude>29.404444</longitude>
  </city>
  <city name="Butory">
    <latitude>47.041389</latitude>
    <longitude>29.404444</longitude>
  </city>
  <city name="Butseni">
    <latitude>46.824167</latitude>
    <longitude>28.675</longitude>
  </city>
  <city name="Butseny">
    <latitude>46.824167</latitude>
    <longitude>28.675</longitude>
  </city>
  <city name="Butuceni">
    <latitude>47.533611</latitude>
    <longitude>29.025833</longitude>
  </city>
  <city name="Butuchany">
    <latitude>47.533611</latitude>
    <longitude>29.025833</longitude>
  </city>
  <city name="Butuchen'">
    <latitude>47.301389</latitude>
    <longitude>28.9725</longitude>
  </city>
  <city name="Butucheny">
    <latitude>46.2525</latitude>
    <longitude>28.338889</longitude>
  </city>
  <city name="Buzdugani De Zhos">
    <latitude>47.143611</latitude>
    <longitude>27.819444</longitude>
  </city>
  <city name="Buzduganii de Jos">
    <latitude>47.143611</latitude>
    <longitude>27.819444</longitude>
  </city>
  <city name="Buzduganii de Sus">
    <latitude>47.160833</latitude>
    <longitude>27.8625</longitude>
  </city>
  <city name="Buzdugeni">
    <latitude>48.107778</latitude>
    <longitude>27.155833</longitude>
  </city>
  <city name="Buzduzhany">
    <latitude>48.107778</latitude>
    <longitude>27.155833</longitude>
  </city>
  <city name="Buzduzhen'">
    <latitude>48.107778</latitude>
    <longitude>27.155833</longitude>
  </city>
  <city name="Buzhor">
    <latitude>46.9225</latitude>
    <longitude>28.268333</longitude>
  </city>
  <city name="Buzhoru">
    <latitude>46.9225</latitude>
    <longitude>28.268333</longitude>
  </city>
  <city name="Buzhory">
    <latitude>46.9225</latitude>
    <longitude>28.268333</longitude>
  </city>
  <city name="Bychek">
    <latitude>46.925</latitude>
    <longitude>29.480278</longitude>
  </city>
  <city name="Bychok">
    <latitude>46.925</latitude>
    <longitude>29.480278</longitude>
  </city>
  <city name="Byelcy">
    <latitude>47.761667</latitude>
    <longitude>27.928889</longitude>
  </city>
  <city name="Bykovets">
    <latitude>47.188611</latitude>
    <longitude>28.456944</longitude>
  </city>
  <city name="Byrladyany">
    <latitude>48.264444</latitude>
    <longitude>27.416667</longitude>
  </city>
  <city name="Byrnova">
    <latitude>48.423889</latitude>
    <longitude>27.526667</longitude>
  </city>
  <city name="Byrnovo">
    <latitude>48.423889</latitude>
    <longitude>27.526667</longitude>
  </city>
  <city name="Cabaiesti">
    <latitude>47.216389</latitude>
    <longitude>28.146667</longitude>
  </city>
  <city name="Caetu">
    <latitude>46.160556</latitude>
    <longitude>28.513611</longitude>
  </city>
  <city name="Cahul">
    <latitude>45.9075</latitude>
    <longitude>28.194444</longitude>
  </city>
  <city name="Caiet">
    <latitude>46.135278</latitude>
    <longitude>28.481667</longitude>
  </city>
  <city name="Câietu">
    <latitude>46.135278</latitude>
    <longitude>28.481667</longitude>
  </city>
  <city name="Cainari">
    <latitude>46.678889</latitude>
    <longitude>29.046111</longitude>
  </city>
  <city name="Cainarii Vechi">
    <latitude>48.008056</latitude>
    <longitude>28.125</longitude>
  </city>
  <city name="Cairaclia">
    <latitude>45.778333</latitude>
    <longitude>28.624444</longitude>
  </city>
  <city name="Cajba">
    <latitude>47.728056</latitude>
    <longitude>27.439722</longitude>
  </city>
  <city name="Calarasauca">
    <latitude>48.418889</latitude>
    <longitude>27.815556</longitude>
  </city>
  <city name="Calaraseuca">
    <latitude>48.418889</latitude>
    <longitude>27.815556</longitude>
  </city>
  <city name="Calarasi">
    <latitude>47.254444</latitude>
    <longitude>28.308056</longitude>
  </city>
  <city name="Calarasi-Targ">
    <latitude>47.254444</latitude>
    <longitude>28.308056</longitude>
  </city>
  <city name="Calarasovca">
    <latitude>48.418889</latitude>
    <longitude>27.815556</longitude>
  </city>
  <city name="Calfa">
    <latitude>46.904167</latitude>
    <longitude>29.375278</longitude>
  </city>
  <city name="Calfa Noua">
    <latitude>46.9125</latitude>
    <longitude>29.361389</longitude>
  </city>
  <city name="Calibabovca">
    <latitude>46.646667</latitude>
    <longitude>28.431111</longitude>
  </city>
  <city name="Calimanesti">
    <latitude>46.944444</latitude>
    <longitude>28.195</longitude>
  </city>
  <city name="Calinesti">
    <latitude>47.564167</latitude>
    <longitude>27.486389</longitude>
  </city>
  <city name="Calinovca">
    <latitude>47.311667</latitude>
    <longitude>29.25</longitude>
  </city>
  <city name="Calmatui">
    <latitude>46.783333</latitude>
    <longitude>28.215278</longitude>
  </city>
  <city name="Calugar">
    <latitude>47.540278</latitude>
    <longitude>27.686389</longitude>
  </city>
  <city name="Camenca">
    <latitude>48.031944</latitude>
    <longitude>28.697778</longitude>
  </city>
  <city name="Camencea">
    <latitude>47.280833</latitude>
    <longitude>28.6875</longitude>
  </city>
  <city name="Camencuta">
    <latitude>47.838611</latitude>
    <longitude>27.445833</longitude>
  </city>
  <city name="Câmpeni">
    <latitude>45.806667</latitude>
    <longitude>28.427778</longitude>
  </city>
  <city name="Câmpul Drept">
    <latitude>46.564444</latitude>
    <longitude>28.515</longitude>
  </city>
  <city name="Cania">
    <latitude>46.281389</latitude>
    <longitude>28.228611</longitude>
  </city>
  <city name="Cantemir">
    <latitude>46.278056</latitude>
    <longitude>28.200833</longitude>
  </city>
  <city name="Capaclia">
    <latitude>46.328611</latitude>
    <longitude>28.399722</longitude>
  </city>
  <city name="Capaclia-Razesi">
    <latitude>46.328611</latitude>
    <longitude>28.399722</longitude>
  </city>
  <city name="Caplani">
    <latitude>46.387222</latitude>
    <longitude>29.871389</longitude>
  </city>
  <city name="Capresti">
    <latitude>47.754167</latitude>
    <longitude>28.463333</longitude>
  </city>
  <city name="Capresti-Sat">
    <latitude>47.754167</latitude>
    <longitude>28.463333</longitude>
  </city>
  <city name="Capresti-Targ">
    <latitude>47.754167</latitude>
    <longitude>28.463333</longitude>
  </city>
  <city name="Capriana">
    <latitude>47.1175</latitude>
    <longitude>28.504444</longitude>
  </city>
  <city name="Carabateni">
    <latitude>46.413889</latitude>
    <longitude>28.912778</longitude>
  </city>
  <city name="Carabeteni">
    <latitude>46.413889</latitude>
    <longitude>28.912778</longitude>
  </city>
  <city name="Carabetovca">
    <latitude>46.413889</latitude>
    <longitude>28.912778</longitude>
  </city>
  <city name="Cara-Biber">
    <latitude>46.466667</latitude>
    <longitude>29.016667</longitude>
  </city>
  <city name="Carabiber">
    <latitude>46.472222</latitude>
    <longitude>28.995556</longitude>
  </city>
  <city name="Caracui">
    <latitude>46.698611</latitude>
    <longitude>28.541944</longitude>
  </city>
  <city name="Caracusenii Noi">
    <latitude>48.325278</latitude>
    <longitude>27.024167</longitude>
  </city>
  <city name="Caracusenii Vechi">
    <latitude>48.27</latitude>
    <longitude>27.075833</longitude>
  </city>
  <city name="Caragas">
    <latitude>46.777778</latitude>
    <longitude>29.679722</longitude>
  </city>
  <city name="Cara Hasan">
    <latitude>46.4675</latitude>
    <longitude>29.812222</longitude>
  </city>
  <city name="Carahasani">
    <latitude>46.4675</latitude>
    <longitude>29.812222</longitude>
  </city>
  <city name="Caraiman">
    <latitude>48.106667</latitude>
    <longitude>27.561389</longitude>
  </city>
  <city name="Carbalia">
    <latitude>45.873333</latitude>
    <longitude>28.445833</longitude>
  </city>
  <city name="Carbalia Noua">
    <latitude>45.856944</latitude>
    <longitude>28.454167</longitude>
  </city>
  <city name="Carbuna">
    <latitude>46.431111</latitude>
    <longitude>29.272778</longitude>
  </city>
  <city name="Cardas">
    <latitude>46.081389</latitude>
    <longitude>28.483056</longitude>
  </city>
  <city name="Cârlani">
    <latitude>47.106111</latitude>
    <longitude>28.416389</longitude>
  </city>
  <city name="Carmanova">
    <latitude>47.258889</latitude>
    <longitude>29.503611</longitude>
  </city>
  <city name="Carnateni">
    <latitude>46.654444</latitude>
    <longitude>29.491944</longitude>
  </city>
  <city name="Carnatenii Noi">
    <latitude>46.649444</latitude>
    <longitude>29.135</longitude>
  </city>
  <city name="Carnesti">
    <latitude>47.174167</latitude>
    <longitude>28.003889</longitude>
  </city>
  <city name="Carpesti">
    <latitude>46.263611</latitude>
    <longitude>28.336667</longitude>
  </city>
  <city name="Carpineanca">
    <latitude>46.696111</latitude>
    <longitude>28.4725</longitude>
  </city>
  <city name="Carpineni">
    <latitude>46.759722</latitude>
    <longitude>28.353056</longitude>
  </city>
  <city name="Cartuse">
    <latitude>47.015833</latitude>
    <longitude>28.741111</longitude>
  </city>
  <city name="Carul Frumos">
    <latitude>48.176389</latitude>
    <longitude>27.524722</longitude>
  </city>
  <city name="Cascalia">
    <latitude>46.685556</latitude>
    <longitude>29.156944</longitude>
  </city>
  <city name="Casla">
    <latitude>46.141944</latitude>
    <longitude>28.333333</longitude>
  </city>
  <city name="Caslita-Prut">
    <latitude>45.537778</latitude>
    <longitude>28.17</longitude>
  </city>
  <city name="Casunca">
    <latitude>47.785</latitude>
    <longitude>28.394167</longitude>
  </city>
  <city name="Cataleni">
    <latitude>46.917778</latitude>
    <longitude>28.189444</longitude>
  </city>
  <city name="Cateleni">
    <latitude>46.917778</latitude>
    <longitude>28.189444</longitude>
  </city>
  <city name="Caterinovca">
    <latitude>47.933889</latitude>
    <longitude>28.866944</longitude>
  </city>
  <city name="Catranîc">
    <latitude>47.623611</latitude>
    <longitude>27.777222</longitude>
  </city>
  <city name="Catun Vulcanesti">
    <latitude>45.6825</latitude>
    <longitude>28.479167</longitude>
  </city>
  <city name="Causanii-Noui">
    <latitude>46.644167</latitude>
    <longitude>29.413889</longitude>
  </city>
  <city name="Causanii-Vechi">
    <latitude>46.647222</latitude>
    <longitude>29.440278</longitude>
  </city>
  <city name="Causani-Novi">
    <latitude>46.644167</latitude>
    <longitude>29.413889</longitude>
  </city>
  <city name="Causeni">
    <latitude>46.644167</latitude>
    <longitude>29.413889</longitude>
  </city>
  <city name="Cazaclia">
    <latitude>46.010278</latitude>
    <longitude>28.662778</longitude>
  </city>
  <city name="Cazanesti">
    <latitude>47.615278</latitude>
    <longitude>28.472778</longitude>
  </city>
  <city name="Cazangic">
    <latitude>46.509444</latitude>
    <longitude>28.436667</longitude>
  </city>
  <city name="Ceadâr">
    <latitude>46.671667</latitude>
    <longitude>28.407222</longitude>
  </city>
  <city name="Ceadâr-Lunga">
    <latitude>46.055</latitude>
    <longitude>28.830278</longitude>
  </city>
  <city name="Ceadîr">
    <latitude>46.671667</latitude>
    <longitude>28.407222</longitude>
  </city>
  <city name="Ceadîr-Lunga">
    <latitude>46.055</latitude>
    <longitude>28.830278</longitude>
  </city>
  <city name="Cealîc">
    <latitude>45.995556</latitude>
    <longitude>28.554167</longitude>
  </city>
  <city name="Ceapaevca">
    <latitude>48.204722</latitude>
    <longitude>27.870278</longitude>
  </city>
  <city name="Cecur Mengir">
    <latitude>46.440833</latitude>
    <longitude>28.755833</longitude>
  </city>
  <city name="Cecur Menjir">
    <latitude>46.440833</latitude>
    <longitude>28.755833</longitude>
  </city>
  <city name="Cenac">
    <latitude>46.475278</latitude>
    <longitude>28.641944</longitude>
  </city>
  <city name="Centru">
    <latitude>47.0</latitude>
    <longitude>28.866667</longitude>
  </city>
  <city name="Cenusa">
    <latitude>47.8475</latitude>
    <longitude>28.386389</longitude>
  </city>
  <city name="Ceparia">
    <latitude>47.932222</latitude>
    <longitude>27.715278</longitude>
  </city>
  <city name="Cepeleuti">
    <latitude>48.3025</latitude>
    <longitude>27.307222</longitude>
  </city>
  <city name="Cerlina">
    <latitude>48.081389</latitude>
    <longitude>28.6075</longitude>
  </city>
  <city name="Cernita">
    <latitude>47.030556</latitude>
    <longitude>29.517778</longitude>
  </city>
  <city name="Cernoleuca">
    <latitude>48.313333</latitude>
    <longitude>27.554444</longitude>
  </city>
  <city name="Ceroborta">
    <latitude>47.093611</latitude>
    <longitude>28.951667</longitude>
  </city>
  <city name="Cetâreni">
    <latitude>47.224167</latitude>
    <longitude>27.903333</longitude>
  </city>
  <city name="Cetireni">
    <latitude>47.224167</latitude>
    <longitude>27.903333</longitude>
  </city>
  <city name="Chabalakchia">
    <latitude>46.174444</latitude>
    <longitude>28.287222</longitude>
  </city>
  <city name="Chadyr">
    <latitude>46.671667</latitude>
    <longitude>28.407222</longitude>
  </city>
  <city name="Chadyr-Lunga">
    <latitude>46.055</latitude>
    <longitude>28.830278</longitude>
  </city>
  <city name="Chalyk">
    <latitude>45.995556</latitude>
    <longitude>28.554167</longitude>
  </city>
  <city name="Chanak">
    <latitude>46.475278</latitude>
    <longitude>28.641944</longitude>
  </city>
  <city name="Chapayevka">
    <latitude>48.204722</latitude>
    <longitude>27.870278</longitude>
  </city>
  <city name="Chebalakchiya">
    <latitude>46.174444</latitude>
    <longitude>28.287222</longitude>
  </city>
  <city name="Chebanka">
    <latitude>47.145</latitude>
    <longitude>28.502222</longitude>
  </city>
  <city name="Chebanovka">
    <latitude>46.814444</latitude>
    <longitude>29.19</longitude>
  </city>
  <city name="Chebolakchiya">
    <latitude>46.174444</latitude>
    <longitude>28.287222</longitude>
  </city>
  <city name="Chebruch">
    <latitude>46.683056</latitude>
    <longitude>29.749167</longitude>
  </city>
  <city name="Chebruchi">
    <latitude>46.683056</latitude>
    <longitude>29.749167</longitude>
  </city>
  <city name="Chegoren'">
    <latitude>47.506111</latitude>
    <longitude>28.862222</longitude>
  </city>
  <city name="Chegoreny">
    <latitude>47.506111</latitude>
    <longitude>28.862222</longitude>
  </city>
  <city name="Chekolteny">
    <latitude>47.493889</latitude>
    <longitude>28.608889</longitude>
  </city>
  <city name="Chekur-Menzhir">
    <latitude>46.440833</latitude>
    <longitude>28.755833</longitude>
  </city>
  <city name="Chekur-Minzhir">
    <latitude>46.440833</latitude>
    <longitude>28.755833</longitude>
  </city>
  <city name="Cheltuitori">
    <latitude>47.066111</latitude>
    <longitude>28.921111</longitude>
  </city>
  <city name="Chenak">
    <latitude>46.475278</latitude>
    <longitude>28.641944</longitude>
  </city>
  <city name="Chenusha">
    <latitude>47.8475</latitude>
    <longitude>28.386389</longitude>
  </city>
  <city name="Chepariya">
    <latitude>47.932222</latitude>
    <longitude>27.715278</longitude>
  </city>
  <city name="Chepeleuts'">
    <latitude>48.3025</latitude>
    <longitude>27.307222</longitude>
  </city>
  <city name="Chepeleutsy">
    <latitude>48.3025</latitude>
    <longitude>27.307222</longitude>
  </city>
  <city name="Cheperiya">
    <latitude>47.932222</latitude>
    <longitude>27.715278</longitude>
  </city>
  <city name="Cherepkov">
    <latitude>47.983889</latitude>
    <longitude>28.382222</longitude>
  </city>
  <city name="Cherepkovo">
    <latitude>47.983889</latitude>
    <longitude>28.382222</longitude>
  </city>
  <city name="Cherlina">
    <latitude>48.081389</latitude>
    <longitude>28.6075</longitude>
  </city>
  <city name="Cherna">
    <latitude>47.770833</latitude>
    <longitude>28.974722</longitude>
  </city>
  <city name="Chernaya">
    <latitude>47.770833</latitude>
    <longitude>28.974722</longitude>
  </city>
  <city name="Chernenko">
    <latitude>47.815278</latitude>
    <longitude>28.796667</longitude>
  </city>
  <city name="Chërnitsa">
    <latitude>47.030556</latitude>
    <longitude>29.517778</longitude>
  </city>
  <city name="Chërnitsy">
    <latitude>47.030556</latitude>
    <longitude>29.517778</longitude>
  </city>
  <city name="Chernoleuka">
    <latitude>48.313333</latitude>
    <longitude>27.554444</longitude>
  </city>
  <city name="Chernolëvka">
    <latitude>48.313333</latitude>
    <longitude>27.554444</longitude>
  </city>
  <city name="Cheroborta">
    <latitude>47.093611</latitude>
    <longitude>28.951667</longitude>
  </city>
  <city name="Chersac">
    <latitude>47.6375</latitude>
    <longitude>28.584167</longitude>
  </city>
  <city name="Cheshmekëy">
    <latitude>45.544444</latitude>
    <longitude>28.382778</longitude>
  </city>
  <city name="Cheshmskëy">
    <latitude>45.544444</latitude>
    <longitude>28.382778</longitude>
  </city>
  <city name="Chetris">
    <latitude>47.595833</latitude>
    <longitude>27.447222</longitude>
  </city>
  <city name="Chetrisul Nou">
    <latitude>47.624444</latitude>
    <longitude>27.511111</longitude>
  </city>
  <city name="Chetroasa">
    <latitude>47.122222</latitude>
    <longitude>28.978611</longitude>
  </city>
  <city name="Chetroseni">
    <latitude>46.963056</latitude>
    <longitude>28.272778</longitude>
  </city>
  <city name="Chetrosenii Noi">
    <latitude>46.976389</latitude>
    <longitude>28.271667</longitude>
  </city>
  <city name="Chetrosenii Vechi">
    <latitude>46.963056</latitude>
    <longitude>28.272778</longitude>
  </city>
  <city name="Chetrosica Noua">
    <latitude>48.119167</latitude>
    <longitude>27.471667</longitude>
  </city>
  <city name="Chetrosica Veche">
    <latitude>48.120278</latitude>
    <longitude>27.403056</longitude>
  </city>
  <city name="Chetrosu">
    <latitude>46.916389</latitude>
    <longitude>29.043611</longitude>
  </city>
  <city name="Chetrosul">
    <latitude>48.077778</latitude>
    <longitude>27.886111</longitude>
  </city>
  <city name="Chetyreny">
    <latitude>47.224167</latitude>
    <longitude>27.903333</longitude>
  </city>
  <city name="Chetyryany">
    <latitude>47.224167</latitude>
    <longitude>27.903333</longitude>
  </city>
  <city name="Chigerleny">
    <latitude>46.755278</latitude>
    <longitude>28.822778</longitude>
  </city>
  <city name="Chigirlen'">
    <latitude>46.755278</latitude>
    <longitude>28.822778</longitude>
  </city>
  <city name="Chigirleni">
    <latitude>46.755278</latitude>
    <longitude>28.822778</longitude>
  </city>
  <city name="Chigirleny">
    <latitude>46.755278</latitude>
    <longitude>28.822778</longitude>
  </city>
  <city name="Chigoryany">
    <latitude>47.506111</latitude>
    <longitude>28.862222</longitude>
  </city>
  <city name="Chigyrlyany">
    <latitude>46.755278</latitude>
    <longitude>28.822778</longitude>
  </city>
  <city name="Chikur">
    <latitude>46.033333</latitude>
    <longitude>28.472222</longitude>
  </city>
  <city name="Chilisoaia">
    <latitude>47.113611</latitude>
    <longitude>28.024722</longitude>
  </city>
  <city name="Chimishen'">
    <latitude>47.011944</latitude>
    <longitude>29.129444</longitude>
  </city>
  <city name="Chimisheni">
    <latitude>47.011944</latitude>
    <longitude>29.129444</longitude>
  </city>
  <city name="Chimisheny">
    <latitude>47.011944</latitude>
    <longitude>29.129444</longitude>
  </city>
  <city name="Chimishliya">
    <latitude>46.52</latitude>
    <longitude>28.784167</longitude>
  </city>
  <city name="Chinisheuts'">
    <latitude>47.695556</latitude>
    <longitude>28.855</longitude>
  </city>
  <city name="Chinisheutsi">
    <latitude>47.695556</latitude>
    <longitude>28.855</longitude>
  </city>
  <city name="Chinisheutsy">
    <latitude>47.695556</latitude>
    <longitude>28.855</longitude>
  </city>
  <city name="Chinishevtsy">
    <latitude>47.695556</latitude>
    <longitude>28.855</longitude>
  </city>
  <city name="Chinsheutsy">
    <latitude>47.695556</latitude>
    <longitude>28.855</longitude>
  </city>
  <city name="Chioburchyu">
    <latitude>46.600278</latitude>
    <longitude>29.708333</longitude>
  </city>
  <city name="Chiolkylkeni">
    <latitude>47.493889</latitude>
    <longitude>28.608889</longitude>
  </city>
  <city name="Chioselia">
    <latitude>46.141111</latitude>
    <longitude>28.403889</longitude>
  </city>
  <city name="Chioselia Mare">
    <latitude>46.1</latitude>
    <longitude>28.490278</longitude>
  </city>
  <city name="Chioselia Mica">
    <latitude>46.083333</latitude>
    <longitude>28.516389</longitude>
  </city>
  <city name="Chioselia Rusa">
    <latitude>46.083333</latitude>
    <longitude>28.516389</longitude>
  </city>
  <city name="Chiperceni">
    <latitude>47.525</latitude>
    <longitude>28.838611</longitude>
  </city>
  <city name="Chipesca">
    <latitude>47.762222</latitude>
    <longitude>28.608611</longitude>
  </city>
  <city name="Chiraesti">
    <latitude>46.718056</latitude>
    <longitude>29.521667</longitude>
  </city>
  <city name="Chirca">
    <latitude>46.9225</latitude>
    <longitude>29.109167</longitude>
  </city>
  <city name="Chircaesti">
    <latitude>46.718056</latitude>
    <longitude>29.521667</longitude>
  </city>
  <city name="Chircaiesti">
    <latitude>46.666667</latitude>
    <longitude>29.033333</longitude>
  </city>
  <city name="Chircaiestii Noi">
    <latitude>46.663333</latitude>
    <longitude>28.9725</longitude>
  </city>
  <city name="Chircani">
    <latitude>46.087222</latitude>
    <longitude>28.172222</longitude>
  </city>
  <city name="Chirianca">
    <latitude>47.255833</latitude>
    <longitude>28.532778</longitude>
  </city>
  <city name="Chiriet-Lunga">
    <latitude>46.209167</latitude>
    <longitude>28.944167</longitude>
  </city>
  <city name="Chirileni">
    <latitude>47.960556</latitude>
    <longitude>28.329167</longitude>
  </city>
  <city name="Chirilovca">
    <latitude>45.816667</latitude>
    <longitude>28.576389</longitude>
  </city>
  <city name="Chiripkeu">
    <latitude>47.983889</latitude>
    <longitude>28.382222</longitude>
  </city>
  <city name="Chiriutnea">
    <latitude>46.014444</latitude>
    <longitude>28.736111</longitude>
  </city>
  <city name="Chiriykeu">
    <latitude>47.983889</latitude>
    <longitude>28.382222</longitude>
  </city>
  <city name="Chirov">
    <latitude>47.651111</latitude>
    <longitude>29.097222</longitude>
  </city>
  <city name="Chirpiti">
    <latitude>47.824167</latitude>
    <longitude>27.618333</longitude>
  </city>
  <city name="Chirsev">
    <latitude>46.333333</latitude>
    <longitude>28.566667</longitude>
  </city>
  <city name="Chirsova">
    <latitude>46.233889</latitude>
    <longitude>28.648056</longitude>
  </city>
  <city name="Chirutnea">
    <latitude>46.014444</latitude>
    <longitude>28.736111</longitude>
  </city>
  <city name="Chiscareni">
    <latitude>47.559444</latitude>
    <longitude>28.015556</longitude>
  </city>
  <city name="Chiselari">
    <latitude>46.650833</latitude>
    <longitude>28.525</longitude>
  </city>
  <city name="Chishlikioi">
    <latitude>45.544444</latitude>
    <longitude>28.382778</longitude>
  </city>
  <city name="Chishma">
    <latitude>47.416389</latitude>
    <longitude>28.753333</longitude>
  </city>
  <city name="Chishmikioy">
    <latitude>45.544444</latitude>
    <longitude>28.382778</longitude>
  </city>
  <city name="Chishmya">
    <latitude>47.416389</latitude>
    <longitude>28.753333</longitude>
  </city>
  <city name="Chishmy">
    <latitude>47.416389</latitude>
    <longitude>28.753333</longitude>
  </city>
  <city name="Chisinau">
    <latitude>47.005556</latitude>
    <longitude>28.8575</longitude>
  </city>
  <city name="Chisma">
    <latitude>47.416389</latitude>
    <longitude>28.753333</longitude>
  </city>
  <city name="Chistelnita">
    <latitude>47.568056</latitude>
    <longitude>28.660833</longitude>
  </city>
  <city name="Chitcani">
    <latitude>46.785556</latitude>
    <longitude>29.608611</longitude>
  </city>
  <city name="Chitcanii Noi">
    <latitude>47.565278</latitude>
    <longitude>28.481944</longitude>
  </city>
  <city name="Chitcanii Vechi">
    <latitude>47.592778</latitude>
    <longitude>28.501111</longitude>
  </city>
  <city name="Chitiren'">
    <latitude>47.224167</latitude>
    <longitude>27.903333</longitude>
  </city>
  <city name="Chitireni">
    <latitude>47.224167</latitude>
    <longitude>27.903333</longitude>
  </city>
  <city name="Chiurt">
    <latitude>48.059444</latitude>
    <longitude>27.341111</longitude>
  </city>
  <city name="Chizelari">
    <latitude>46.650833</latitude>
    <longitude>28.525</longitude>
  </city>
  <city name="Choara">
    <latitude>46.7325</latitude>
    <longitude>28.224722</longitude>
  </city>
  <city name="Chobalakchiya">
    <latitude>46.174444</latitude>
    <longitude>28.287222</longitude>
  </city>
  <city name="Chobana">
    <latitude>46.814444</latitude>
    <longitude>29.19</longitude>
  </city>
  <city name="Chobanka">
    <latitude>47.145</latitude>
    <longitude>28.502222</longitude>
  </city>
  <city name="Chobolakchiya">
    <latitude>46.174444</latitude>
    <longitude>28.287222</longitude>
  </city>
  <city name="Chobolokchiya">
    <latitude>46.174444</latitude>
    <longitude>28.287222</longitude>
  </city>
  <city name="Chobruchi">
    <latitude>46.683056</latitude>
    <longitude>29.749167</longitude>
  </city>
  <city name="Chobruchu">
    <latitude>46.683056</latitude>
    <longitude>29.749167</longitude>
  </city>
  <city name="Chofu">
    <latitude>47.564167</latitude>
    <longitude>28.221667</longitude>
  </city>
  <city name="Chokany Noua">
    <latitude>47.032778</latitude>
    <longitude>28.899722</longitude>
  </city>
  <city name="Chok-Maydan">
    <latitude>46.358056</latitude>
    <longitude>28.821944</longitude>
  </city>
  <city name="Chok-Meydan">
    <latitude>46.358056</latitude>
    <longitude>28.821944</longitude>
  </city>
  <city name="Chokolten'">
    <latitude>47.493889</latitude>
    <longitude>28.608889</longitude>
  </city>
  <city name="Chokolteni">
    <latitude>47.493889</latitude>
    <longitude>28.608889</longitude>
  </city>
  <city name="Chokyltyany">
    <latitude>47.493889</latitude>
    <longitude>28.608889</longitude>
  </city>
  <city name="Cholak">
    <latitude>47.318611</latitude>
    <longitude>27.82</longitude>
  </city>
