<?xml version="1.0" encoding="UTF-8"?>
<country code="mg" name="Madagascar">
  <city name="Abatoafo">
    <latitude>-18.05</latitude>
    <longitude>47.7833333</longitude>
  </city>
  <city name="Abatobe">
    <latitude>-18.1166667</latitude>
    <longitude>47.7333333</longitude>
  </city>
  <city name="Abatoharanana">
    <latitude>-18.1833333</latitude>
    <longitude>47.3833333</longitude>
  </city>
  <city name="Abbreviation Ala">
    <latitude>-19.1833333</latitude>
    <longitude>47.2833333</longitude>
  </city>
  <city name="Abedo">
    <latitude>-15.65</latitude>
    <longitude>46.95</longitude>
  </city>
  <city name="Abo">
    <latitude>-22.6166667</latitude>
    <longitude>44.65</longitude>
  </city>
  <city name="Aboaziny">
    <latitude>-23.6833333</latitude>
    <longitude>47.2333333</longitude>
  </city>
  <city name="Abohazo">
    <latitude>-22.1</latitude>
    <longitude>46.05</longitude>
  </city>
  <city name="Abohidrano">
    <latitude>-18.6833333</latitude>
    <longitude>46.5333333</longitude>
  </city>
  <city name="Abohijafy">
    <latitude>-18.9</latitude>
    <longitude>47.4333333</longitude>
  </city>
  <city name="Abohijanahary">
    <latitude>-18.8333333</latitude>
    <longitude>47.4833333</longitude>
  </city>
  <city name="Abolahy">
    <latitude>-23.6666667</latitude>
    <longitude>47.2666667</longitude>
  </city>
  <city name="Abonara">
    <latitude>-18.6333333</latitude>
    <longitude>45.15</longitude>
  </city>
  <city name="Aborano">
    <latitude>-23.55</latitude>
    <longitude>47.6</longitude>
  </city>
  <city name="Aborano Atsimo">
    <latitude>-18.5333333</latitude>
    <longitude>45.0166667</longitude>
  </city>
  <city name="Aborano Avaratra">
    <latitude>-18.4333333</latitude>
    <longitude>45.0333333</longitude>
  </city>
  <city name="Aborotsy">
    <latitude>-22.7333333</latitude>
    <longitude>44.0833333</longitude>
  </city>
  <city name="Adabatelo">
    <latitude>-16.6333333</latitude>
    <longitude>45.1666667</longitude>
  </city>
  <city name="Adabo">
    <latitude>-21.3666667</latitude>
    <longitude>46.7166667</longitude>
  </city>
  <city name="Adabodo">
    <latitude>-23.35</latitude>
    <longitude>44.2833333</longitude>
  </city>
  <city name="Adabofolo">
    <latitude>-23.0666667</latitude>
    <longitude>44.4</longitude>
  </city>
  <city name="Adabolava">
    <latitude>-17.5666667</latitude>
    <longitude>45.65</longitude>
  </city>
  <city name="Adabomahebo">
    <latitude>-19.0833333</latitude>
    <longitude>45.2666667</longitude>
  </city>
  <city name="Adabomaro">
    <latitude>-20.8833333</latitude>
    <longitude>45.7833333</longitude>
  </city>
  <city name="Adaboroa">
    <latitude>-21.4333333</latitude>
    <longitude>45.8833333</longitude>
  </city>
  <city name="Adabotelo">
    <latitude>-20.7833333</latitude>
    <longitude>45.8166667</longitude>
  </city>
  <city name="Adabotokana">
    <latitude>-13.2</latitude>
    <longitude>48.95</longitude>
  </city>
  <city name="Adabozato">
    <latitude>-19.7166667</latitude>
    <longitude>45.3666667</longitude>
  </city>
  <city name="Adamasiny-Vineta">
    <latitude>-23.05</latitude>
    <longitude>44.25</longitude>
  </city>
  <city name="Adiniky">
    <latitude>-18.95</latitude>
    <longitude>45.3</longitude>
  </city>
  <city name="Adisatrambe">
    <latitude>-14.5333333</latitude>
    <longitude>48.6166667</longitude>
  </city>
  <city name="Adriambe">
    <latitude>-19.45</latitude>
    <longitude>47.7</longitude>
  </city>
  <city name="Afarisoky">
    <latitude>-20.7166667</latitude>
    <longitude>44.6833333</longitude>
  </city>
  <city name="Afisamisoa">
    <latitude>-21.8166667</latitude>
    <longitude>46.7333333</longitude>
  </city>
  <city name="Afitanananivo">
    <latitude>-13.6333333</latitude>
    <longitude>49.8166667</longitude>
  </city>
  <city name="Ahakomiheva">
    <latitude>-21.6666667</latitude>
    <longitude>46.2166667</longitude>
  </city>
  <city name="Ahalandravy">
    <latitude>-25.0</latitude>
    <longitude>46.75</longitude>
  </city>
  <city name="Aharana">
    <latitude>-19.0</latitude>
    <longitude>48.5666667</longitude>
  </city>
  <city name="Ahatsira">
    <latitude>-16.8</latitude>
    <longitude>47.3</longitude>
  </city>
  <city name="Ahitromby">
    <latitude>-18.8</latitude>
    <longitude>46.4</longitude>
  </city>
  <city name="Ahkerika">
    <latitude>-15.6</latitude>
    <longitude>47.3</longitude>
  </city>
  <city name="Ahkida">
    <latitude>-21.7</latitude>
    <longitude>43.5</longitude>
  </city>
  <city name="Ahondrona">
    <latitude>-19.2333333</latitude>
    <longitude>48.6666667</longitude>
  </city>
  <city name="Ajavibe">
    <latitude>-12.4166667</latitude>
    <longitude>49.3166667</longitude>
  </city>
  <city name="Akaboky">
    <latitude>-22.6</latitude>
    <longitude>45.1333333</longitude>
  </city>
  <city name="Akafatsa">
    <latitude>-24.7666667</latitude>
    <longitude>44.9666667</longitude>
  </city>
  <city name="Akahomody">
    <latitude>-21.6166667</latitude>
    <longitude>46.6833333</longitude>
  </city>
  <city name="Akanankasy">
    <latitude>-25.0166667</latitude>
    <longitude>44.2833333</longitude>
  </city>
  <city name="Akatikana">
    <latitude>-21.2666667</latitude>
    <longitude>47.2</longitude>
  </city>
  <city name="Akaty">
    <latitude>-21.4333333</latitude>
    <longitude>46.6</longitude>
  </city>
  <city name="Akeba">
    <latitude>-21.6</latitude>
    <longitude>47.8</longitude>
  </city>
  <city name="Aketa">
    <latitude>-22.1333333</latitude>
    <longitude>45.2333333</longitude>
  </city>
  <city name="Akilimalagy">
    <latitude>-24.5833333</latitude>
    <longitude>45.5</longitude>
  </city>
  <city name="Akinana">
    <latitude>-15.8166667</latitude>
    <longitude>46.2333333</longitude>
  </city>
  <city name="Akindrano Ambany">
    <latitude>-22.8333333</latitude>
    <longitude>45.7666667</longitude>
  </city>
  <city name="Akinganio">
    <latitude>-13.4333333</latitude>
    <longitude>48.8833333</longitude>
  </city>
  <city name="Akobabaky">
    <latitude>-23.9333333</latitude>
    <longitude>44.9166667</longitude>
  </city>
  <city name="Akondro">
    <latitude>-21.85</latitude>
    <longitude>46.7666667</longitude>
  </city>
  <city name="Akondronisidy">
    <latitude>-17.2</latitude>
    <longitude>47.5</longitude>
  </city>
  <city name="Akondrotarana">
    <latitude>-20.5833333</latitude>
    <longitude>47.55</longitude>
  </city>
  <city name="Akondrovaza">
    <latitude>-21.9166667</latitude>
    <longitude>46.9166667</longitude>
  </city>
  <city name="Akopaka">
    <latitude>-21.45</latitude>
    <longitude>47.3666667</longitude>
  </city>
  <city name="Akoreky">
    <latitude>-24.0333333</latitude>
    <longitude>45.8</longitude>
  </city>
  <city name="Alakambato">
    <latitude>-19.1166667</latitude>
    <longitude>48.1166667</longitude>
  </city>
  <city name="Alakamisinandrianovona">
    <latitude>-19.2166667</latitude>
    <longitude>46.75</longitude>
  </city>
  <city name="Alakamisy">
    <latitude>-20.2</latitude>
    <longitude>47.3166667</longitude>
  </city>
  <city name="Alakamisy-Ambohijato">
    <latitude>-20.5666667</latitude>
    <longitude>47.35</longitude>
  </city>
  <city name="Alakamisy-Ambohimaha">
    <latitude>-21.3166667</latitude>
    <longitude>47.2166667</longitude>
  </city>
  <city name="Alakamisy-Ambohimahazo">
    <latitude>-20.4</latitude>
    <longitude>47.3833333</longitude>
  </city>
  <city name="Alakamisy Anativato">
    <latitude>-19.8833333</latitude>
    <longitude>46.9</longitude>
  </city>
  <city name="Alakamisy-Fandandrave">
    <latitude>-21.5166667</latitude>
    <longitude>47.25</longitude>
  </city>
  <city name="Alakamisy Fandrandava">
    <latitude>-21.5166667</latitude>
    <longitude>47.25</longitude>
  </city>
  <city name="Alakamisy Isorana">
    <latitude>-21.3166667</latitude>
    <longitude>46.9333333</longitude>
  </city>
  <city name="Alakamisy Itenina">
    <latitude>-21.6333333</latitude>
    <longitude>47.15</longitude>
  </city>
  <city name="Alakamisy Sahave">
    <latitude>-21.0666667</latitude>
    <longitude>47.1166667</longitude>
  </city>
  <city name="Alamati">
    <latitude>-15.8833333</latitude>
    <longitude>47.05</longitude>
  </city>
  <city name="Alarobia">
    <latitude>-19.25</latitude>
    <longitude>47.9833333</longitude>
  </city>
  <city name="Alarobia-Ambohitrambo">
    <latitude>-18.9166667</latitude>
    <longitude>47.1833333</longitude>
  </city>
  <city name="Alarobia-Ambovombe">
    <latitude>-20.7666667</latitude>
    <longitude>47.0833333</longitude>
  </city>
  <city name="Alarobia-Antanamalaza">
    <latitude>-19.4166667</latitude>
    <longitude>47.6333333</longitude>
  </city>
  <city name="Alarobia Befeta">
    <latitude>-21.2333333</latitude>
    <longitude>47.05</longitude>
  </city>
  <city name="Alarobia Bemaha">
    <latitude>-20.2</latitude>
    <longitude>46.8833333</longitude>
  </city>
  <city name="Alarobia-Vohiposa">
    <latitude>-20.9833333</latitude>
    <longitude>47.15</longitude>
  </city>
  <city name="Alasora">
    <latitude>-18.95</latitude>
    <longitude>47.5666667</longitude>
  </city>
  <city name="Alatsinainy">
    <latitude>-19.05</latitude>
    <longitude>47.2666667</longitude>
  </city>
  <city name="Alatsinainy-Ambazaha">
    <latitude>-18.9666667</latitude>
    <longitude>47.45</longitude>
  </city>
  <city name="Alatsinainy-Bakaro">
    <latitude>-19.3166667</latitude>
    <longitude>47.6666667</longitude>
  </city>
  <city name="Alatsinainy Fandandrava">
    <latitude>-21.5333333</latitude>
    <longitude>47.3</longitude>
  </city>
  <city name="Alatsinainy Fandrandava">
    <latitude>-21.5333333</latitude>
    <longitude>47.3</longitude>
  </city>
  <city name="Alatsinainy Ialamarina">
    <latitude>-21.5333333</latitude>
    <longitude>47.3</longitude>
  </city>
  <city name="Alatsinainy Ibity">
    <latitude>-20.1</latitude>
    <longitude>46.9666667</longitude>
  </city>
  <city name="Alatsinainy-Loharano">
    <latitude>-19.05</latitude>
    <longitude>47.2666667</longitude>
  </city>
  <city name="Aloalofotaka">
    <latitude>-23.9</latitude>
    <longitude>44.5666667</longitude>
  </city>
  <city name="Alorobia-Ambovombe">
    <latitude>-20.7666667</latitude>
    <longitude>47.0833333</longitude>
  </city>
  <city name="Alotsakanga">
    <latitude>-23.55</latitude>
    <longitude>44.2</longitude>
  </city>
  <city name="Alovingo">
    <latitude>-18.45</latitude>
    <longitude>48.75</longitude>
  </city>
  <city name="Amafandry">
    <latitude>-25.3333333</latitude>
    <longitude>45.7666667</longitude>
  </city>
  <city name="Amafiamavo">
    <latitude>-23.8333333</latitude>
    <longitude>44.5</longitude>
  </city>
  <city name="Amaitsotady">
    <latitude>-18.5666667</latitude>
    <longitude>47.5166667</longitude>
  </city>
  <city name="Amanadoria">
    <latitude>-18.6</latitude>
    <longitude>47.3833333</longitude>
  </city>
  <city name="Amanamby">
    <latitude>-22.2333333</latitude>
    <longitude>44.4</longitude>
  </city>
  <city name="Amanda">
    <latitude>-22.85</latitude>
    <longitude>46.2833333</longitude>
  </city>
  <city name="Amando">
    <latitude>-19.5</latitude>
    <longitude>45.4333333</longitude>
  </city>
  <city name="Amanendraka">
    <latitude>-25.5333333</latitude>
    <longitude>45.3333333</longitude>
  </city>
  <city name="Amanga">
    <latitude>-16.4166667</latitude>
    <longitude>44.5666667</longitude>
  </city>
  <city name="Amanoa">
    <latitude>-22.9333333</latitude>
    <longitude>46.9166667</longitude>
  </city>
  <city name="Amaravay">
    <latitude>-23.9833333</latitude>
    <longitude>45.5</longitude>
  </city>
  <city name="Amatahago">
    <latitude>-19.3666667</latitude>
    <longitude>45.45</longitude>
  </city>
  <city name="Amatomisankantsaha">
    <latitude>-17.1666667</latitude>
    <longitude>48.1333333</longitude>
  </city>
  <city name="Amatsia">
    <latitude>-21.8166667</latitude>
    <longitude>43.9333333</longitude>
  </city>
  <city name="Amba">
    <latitude>-23.6</latitude>
    <longitude>44.8166667</longitude>
  </city>
  <city name="Ambabaka">
    <latitude>-16.5833333</latitude>
    <longitude>45.7333333</longitude>
  </city>
  <city name="Ambabaky">
    <latitude>-16.5833333</latitude>
    <longitude>45.7333333</longitude>
  </city>
  <city name="Ambabo">
    <latitude>-21.8333333</latitude>
    <longitude>47.2166667</longitude>
  </city>
  <city name="Ambadikala">
    <latitude>-23.3</latitude>
    <longitude>47.3666667</longitude>
  </city>
  <city name="Ambafamainty">
    <latitude>-15.3333333</latitude>
    <longitude>47.8166667</longitude>
  </city>
  <city name="Ambaha">
    <latitude>-21.0166667</latitude>
    <longitude>47.25</longitude>
  </city>
  <city name="Ambahabe">
    <latitude>-16.3833333</latitude>
    <longitude>44.8833333</longitude>
  </city>
  <city name="Ambahaka">
    <latitude>-22.2166667</latitude>
    <longitude>47.35</longitude>
  </city>
  <city name="Ambahakily">
    <latitude>-21.6</latitude>
    <longitude>43.6666667</longitude>
  </city>
  <city name="Ambahamahazotra">
    <latitude>-21.7166667</latitude>
    <longitude>46.8166667</longitude>
  </city>
  <city name="Ambaharonga">
    <latitude>-23.4</latitude>
    <longitude>46.7</longitude>
  </city>
  <city name="Ambahary">
    <latitude>-16.35</latitude>
    <longitude>47.4166667</longitude>
  </city>
  <city name="Ambahatra">
    <latitude>-13.85</latitude>
    <longitude>48.4833333</longitude>
  </city>
  <city name="Ambahatrazo">
    <latitude>-21.8666667</latitude>
    <longitude>47.95</longitude>
  </city>
  <city name="Ambahatsa">
    <latitude>-13.85</latitude>
    <longitude>48.4833333</longitude>
  </city>
  <city name="Ambahatsy">
    <latitude>-22.2833333</latitude>
    <longitude>47.05</longitude>
  </city>
  <city name="Ambahavaha">
    <latitude>-16.5666667</latitude>
    <longitude>46.5666667</longitude>
  </city>
  <city name="Ambahevahe">
    <latitude>-23.8166667</latitude>
    <longitude>43.6666667</longitude>
  </city>
  <city name="Ambahia">
    <latitude>-21.6333333</latitude>
    <longitude>43.7666667</longitude>
  </city>
  <city name="Ambahibe">
    <latitude>-21.3</latitude>
    <longitude>46.45</longitude>
  </city>
  <city name="Ambahibe Est">
    <latitude>-15.7</latitude>
    <longitude>47.6833333</longitude>
  </city>
  <city name="Ambahibe Nord">
    <latitude>-15.6666667</latitude>
    <longitude>47.6833333</longitude>
  </city>
  <city name="Ambahibe Ouest">
    <latitude>-15.7</latitude>
    <longitude>47.6833333</longitude>
  </city>
  <city name="Ambahibe Sud">
    <latitude>-15.7166667</latitude>
    <longitude>47.6833333</longitude>
  </city>
  <city name="Ambahibo">
    <latitude>-21.3666667</latitude>
    <longitude>47.3</longitude>
  </city>
  <city name="Ambahiboho">
    <latitude>-22.2166667</latitude>
    <longitude>45.6</longitude>
  </city>
  <city name="Ambahibotsara">
    <latitude>-18.9166667</latitude>
    <longitude>45.1</longitude>
  </city>
  <city name="Ambahifrakoa">
    <latitude>-19.8166667</latitude>
    <longitude>44.85</longitude>
  </city>
  <city name="Ambahihy">
    <latitude>-13.95</latitude>
    <longitude>49.9333333</longitude>
  </city>
  <city name="Ambahikarabo">
    <latitude>-22.7333333</latitude>
    <longitude>47.8666667</longitude>
  </city>
  <city name="Ambahikily">
    <latitude>-21.6</latitude>
    <longitude>43.6666667</longitude>
  </city>
  <city name="Ambahila">
    <latitude>-24.0</latitude>
    <longitude>45.2666667</longitude>
  </city>
  <city name="Ambahimalitsy">
    <latitude>-22.8333333</latitude>
    <longitude>44.45</longitude>
  </city>
  <city name="Ambahimautsy">
    <latitude>-22.8333333</latitude>
    <longitude>44.45</longitude>
  </city>
  <city name="Ambahimerana">
    <latitude>-20.1</latitude>
    <longitude>47.3166667</longitude>
  </city>
  <city name="Ambahinia">
    <latitude>-19.1333333</latitude>
    <longitude>47.85</longitude>
  </city>
  <city name="Ambahipika">
    <latitude>-22.9666667</latitude>
    <longitude>47.7166667</longitude>
  </city>
  <city name="Ambahisotry">
    <latitude>-13.45</latitude>
    <longitude>49.3666667</longitude>
  </city>
  <city name="Ambahita">
    <latitude>-22.7</latitude>
    <longitude>45.3333333</longitude>
  </city>
  <city name="Ambahitoaka">
    <latitude>-16.0166667</latitude>
    <longitude>47.65</longitude>
  </city>
  <city name="Ambahitrakoa">
    <latitude>-19.8166667</latitude>
    <longitude>44.85</longitude>
  </city>
  <city name="Ambahitra Ouest">
    <latitude>-19.0166667</latitude>
    <longitude>46.2166667</longitude>
  </city>
  <city name="Ambahitrazo">
    <latitude>-22.15</latitude>
    <longitude>46.4166667</longitude>
  </city>
  <city name="Ambahitroza">
    <latitude>-21.8666667</latitude>
    <longitude>47.95</longitude>
  </city>
  <city name="Ambahivahibe">
    <latitude>-12.5833333</latitude>
    <longitude>49.2666667</longitude>
  </city>
  <city name="Ambahivahikely">
    <latitude>-12.5666667</latitude>
    <longitude>49.2666667</longitude>
  </city>
  <city name="Ambahivahy">
    <latitude>-12.55</latitude>
    <longitude>48.85</longitude>
  </city>
  <city name="Ambahivalfy">
    <latitude>-17.9333333</latitude>
    <longitude>45.0333333</longitude>
  </city>
  <city name="Ambahive">
    <latitude>-22.2</latitude>
    <longitude>47.7166667</longitude>
  </city>
  <city name="Ambahiza">
    <latitude>-22.55</latitude>
    <longitude>43.6166667</longitude>
  </city>
  <city name="Ambahoabe">
    <latitude>-16.7666667</latitude>
    <longitude>49.5</longitude>
  </city>
  <city name="Ambahoaka">
    <latitude>-17.1333333</latitude>
    <longitude>49.35</longitude>
  </city>
  <city name="Ambaho">
    <latitude>-22.5333333</latitude>
    <longitude>46.2</longitude>
  </city>
  <city name="Ambahobe">
    <latitude>-20.45</latitude>
    <longitude>45.2</longitude>
  </city>
  <city name="Ambaho-Enio">
    <latitude>-24.9833333</latitude>
    <longitude>46.9</longitude>
  </city>
  <city name="Ambahona">
    <latitude>-20.8666667</latitude>
    <longitude>47.35</longitude>
  </city>
  <city name="Ambahondrano">
    <latitude>-20.9833333</latitude>
    <longitude>47.0166667</longitude>
  </city>
  <city name="Ambahovelo">
    <latitude>-21.2166667</latitude>
    <longitude>44.1333333</longitude>
  </city>
  <city name="Ambahy">
    <latitude>-20.5</latitude>
    <longitude>46.6833333</longitude>
  </city>
  <city name="Ambaiavato">
    <latitude>-19.7833333</latitude>
    <longitude>46.7666667</longitude>
  </city>
  <city name="Ambaibe">
    <latitude>-22.2166667</latitude>
    <longitude>45.6</longitude>
  </city>
  <city name="Ambaiboa">
    <latitude>-17.75</latitude>
    <longitude>48.1666667</longitude>
  </city>
  <city name="Ambaiboabe">
    <latitude>-17.8</latitude>
    <longitude>46.4166667</longitude>
  </city>
  <city name="Ambaiboahe">
    <latitude>-16.6666667</latitude>
    <longitude>47.1833333</longitude>
  </city>
  <city name="Ambaibo">
    <latitude>-21.6166667</latitude>
    <longitude>46.8833333</longitude>
  </city>
  <city name="Ambaibo Sambao">
    <latitude>-16.6333333</latitude>
    <longitude>44.5333333</longitude>
  </city>
  <city name="Ambaiorata">
    <latitude>-17.3666667</latitude>
    <longitude>44.2166667</longitude>
  </city>
  <city name="Ambajoana">
    <latitude>-13.2333333</latitude>
    <longitude>49.3666667</longitude>
  </city>
  <city name="Ambakaka">
    <latitude>-18.75</latitude>
    <longitude>45.2666667</longitude>
  </city>
  <city name="Ambakirano">
    <latitude>-13.2</latitude>
    <longitude>49.15</longitude>
  </city>
  <city name="Ambakireny">
    <latitude>-17.6166667</latitude>
    <longitude>47.8333333</longitude>
  </city>
  <city name="Ambakitrano">
    <latitude>-13.8666667</latitude>
    <longitude>48.5666667</longitude>
  </city>
  <city name="Ambakitsy">
    <latitude>-22.6</latitude>
    <longitude>46.6666667</longitude>
  </city>
  <city name="Ambakivoho">
    <latitude>-20.35</latitude>
    <longitude>44.5166667</longitude>
  </city>
  <city name="Ambakoa">
    <latitude>-22.35</latitude>
    <longitude>45.75</longitude>
  </city>
  <city name="Ambakoa-Ambany">
    <latitude>-22.9166667</latitude>
    <longitude>45.5833333</longitude>
  </city>
  <city name="Ambakoa-Ãmbinany">
    <latitude>-22.9333333</latitude>
    <longitude>45.5666667</longitude>
  </city>
  <city name="Ambako">
    <latitude>-19.8166667</latitude>
    <longitude>47.0166667</longitude>
  </city>
  <city name="Ambakoana">
    <latitude>-13.9833333</latitude>
    <longitude>48.5833333</longitude>
  </city>
  <city name="Ambakobe">
    <latitude>-20.6833333</latitude>
    <longitude>48.0833333</longitude>
  </city>
  <city name="Ambakohasina">
    <latitude>-18.2</latitude>
    <longitude>47.8666667</longitude>
  </city>
  <city name="Ambakona">
    <latitude>-20.9833333</latitude>
    <longitude>47.8333333</longitude>
  </city>
  <city name="Ambaky">
    <latitude>-15.8666667</latitude>
    <longitude>48.4166667</longitude>
  </city>
  <city name="Ambala">
    <latitude>-12.3333333</latitude>
    <longitude>49.2</longitude>
  </city>
  <city name="Ambalaba">
    <latitude>-17.1166667</latitude>
    <longitude>48.1</longitude>
  </city>
  <city name="Ambalabako">
    <latitude>-17.7833333</latitude>
    <longitude>47.8333333</longitude>
  </city>
  <city name="Ambalabanty">
    <latitude>-15.3</latitude>
    <longitude>47.3333333</longitude>
  </city>
  <city name="Ambalabany">
    <latitude>-14.5666667</latitude>
    <longitude>48.9666667</longitude>
  </city>
  <city name="Ambalabao">
    <latitude>-12.8166667</latitude>
    <longitude>49.2666667</longitude>
  </city>
  <city name="Ambalabararata">
    <latitude>-18.75</latitude>
    <longitude>46.1166667</longitude>
  </city>
  <city name="Ambalabe">
    <latitude>-13.9333333</latitude>
    <longitude>49.9666667</longitude>
  </city>
  <city name="Ambalabe Atsimo">
    <latitude>-23.95</latitude>
    <longitude>45.45</longitude>
  </city>
  <city name="Ambalabe Avaratra">
    <latitude>-23.95</latitude>
    <longitude>45.45</longitude>
  </city>
  <city name="Ambalabe-Ifasina">
    <latitude>-16.0666667</latitude>
    <longitude>48.8166667</longitude>
  </city>
  <city name="Ambalaben' Ifasina">
    <latitude>-16.0666667</latitude>
    <longitude>48.8166667</longitude>
  </city>
  <city name="Ambalabe Nord">
    <latitude>-16.0666667</latitude>
    <longitude>48.8166667</longitude>
  </city>
  <city name="Ambalabe Sud">
    <latitude>-16.1166667</latitude>
    <longitude>48.8</longitude>
  </city>
  <city name="Ambalaboa">
    <latitude>-18.0</latitude>
    <longitude>44.5833333</longitude>
  </city>
  <city name="Ambalaboka">
    <latitude>-24.1166667</latitude>
    <longitude>47.2</longitude>
  </city>
  <city name="Ambalabonga">
    <latitude>-16.7666667</latitude>
    <longitude>47.0333333</longitude>
  </city>
  <city name="Ambalabongo">
    <latitude>-16.3166667</latitude>
    <longitude>46.5666667</longitude>
  </city>
  <city name="Ambaladera">
    <latitude>-14.7333333</latitude>
    <longitude>49.2333333</longitude>
  </city>
  <city name="Ambaladingana">
    <latitude>-22.2666667</latitude>
    <longitude>47.1666667</longitude>
  </city>
  <city name="Ambalafamainty">
    <latitude>-15.3333333</latitude>
    <longitude>47.8166667</longitude>
  </city>
  <city name="Ambalafananarana">
    <latitude>-21.8333333</latitude>
    <longitude>46.8666667</longitude>
  </city>
  <city name="Ambalafandra">
    <latitude>-23.95</latitude>
    <longitude>47.5166667</longitude>
  </city>
  <city name="Ambalafandrana">
    <latitude>-23.95</latitude>
    <longitude>47.5166667</longitude>
  </city>
  <city name="Ambalafandriana">
    <latitude>-19.2833333</latitude>
    <longitude>48.85</longitude>
  </city>
  <city name="Ambalafantsy">
    <latitude>-19.85</latitude>
    <longitude>48.7166667</longitude>
  </city>
  <city name="Ambalafany">
    <latitude>-19.1</latitude>
    <longitude>44.35</longitude>
  </city>
  <city name="Ambalafarihy">
    <latitude>-15.9333333</latitude>
    <longitude>49.0166667</longitude>
  </city>
  <city name="Ambalafary">
    <latitude>-13.8666667</latitude>
    <longitude>48.55</longitude>
  </city>
  <city name="Ambalafasina">
    <latitude>-21.25</latitude>
    <longitude>47.6666667</longitude>
  </city>
  <city name="Ambalafasy">
    <latitude>-23.6333333</latitude>
    <longitude>47.05</longitude>
  </city>
  <city name="Ambalafataka">
    <latitude>-21.05</latitude>
    <longitude>47.7833333</longitude>
  </city>
  <city name="Ambalafatsy">
    <latitude>-19.85</latitude>
    <longitude>48.7166667</longitude>
  </city>
  <city name="Ambalafeno">
    <latitude>-20.3</latitude>
    <longitude>47.2333333</longitude>
  </city>
  <city name="Ambalafenoarivo">
    <latitude>-20.9833333</latitude>
    <longitude>46.1333333</longitude>
  </city>
  <city name="Ambalafety">
    <latitude>-16.0333333</latitude>
    <longitude>47.6333333</longitude>
  </city>
  <city name="Ambalafolo">
    <latitude>-23.8</latitude>
    <longitude>47.1833333</longitude>
  </city>
  <city name="Ambalafomby">
    <latitude>-14.6666667</latitude>
    <longitude>49.1666667</longitude>
  </city>
  <city name="Ambalafontsy">
    <latitude>-14.8</latitude>
    <longitude>49.35</longitude>
  </city>
  <city name="Ambalafony">
    <latitude>-14.6666667</latitude>
    <longitude>49.1666667</longitude>
  </city>
  <city name="Ambalafotaka">
    <latitude>-14.8833333</latitude>
    <longitude>48.8833333</longitude>
  </city>
  <city name="Ambalafotsy">
    <latitude>-21.4833333</latitude>
    <longitude>47.2666667</longitude>
  </city>
  <city name="Ambalafrandra">
    <latitude>-23.95</latitude>
    <longitude>47.5166667</longitude>
  </city>
  <city name="Ambalagaro">
    <latitude>-15.6166667</latitude>
    <longitude>48.7166667</longitude>
  </city>
  <city name="Ambalagoavy">
    <latitude>-21.8666667</latitude>
    <longitude>47.3833333</longitude>
  </city>
  <city name="Ambalahady">
    <latitude>-20.25</latitude>
    <longitude>46.6</longitude>
  </city>
  <city name="Ambalahambana">
    <latitude>-20.2333333</latitude>
    <longitude>47.55</longitude>
  </city>
  <city name="Ambalahambano">
    <latitude>-21.8833333</latitude>
    <longitude>47.1166667</longitude>
  </city>
  <city name="Ambalaharahotra Ouest">
    <latitude>-23.2333333</latitude>
    <longitude>46.5333333</longitude>
  </city>
  <city name="Ambalaharaka">
    <latitude>-22.1333333</latitude>
    <longitude>47.7333333</longitude>
  </city>
  <city name="Ambalaharongana">
    <latitude>-15.1333333</latitude>
    <longitude>50.1</longitude>
  </city>
  <city name="Ambalahasina">
    <latitude>-20.55</latitude>
    <longitude>48.1166667</longitude>
  </city>
  <city name="Ambalahasy">
    <latitude>-16.3333333</latitude>
    <longitude>49.5833333</longitude>
  </city>
  <city name="Ambalahatsaka">
    <latitude>-21.4333333</latitude>
    <longitude>48.15</longitude>
  </city>
  <city name="Ambalahazo">
    <latitude>-21.7833333</latitude>
    <longitude>47.1166667</longitude>
  </city>
  <city name="Ambalaherana">
    <latitude>-20.8333333</latitude>
    <longitude>47.65</longitude>
  </city>
  <city name="Ambalahonke">
    <latitude>-14.45</latitude>
    <longitude>47.7</longitude>
  </city>
  <city name="Ambalahonko">
    <latitude>-13.5833333</latitude>
    <longitude>48.4166667</longitude>
  </city>
  <city name="Ambalahoraka">
    <latitude>-23.3666667</latitude>
    <longitude>47.55</longitude>
  </city>
  <city name="Ambalahoraky">
    <latitude>-23.6666667</latitude>
    <longitude>47.2</longitude>
  </city>
  <city name="Ambalahorana">
    <latitude>-20.0833333</latitude>
    <longitude>47.8</longitude>
  </city>
  <city name="Ambalahorona">
    <latitude>-19.1166667</latitude>
    <longitude>48.0166667</longitude>
  </city>
  <city name="Ambalahosy">
    <latitude>-21.0666667</latitude>
    <longitude>47.4833333</longitude>
  </city>
  <city name="Ambalajia">
    <latitude>-14.8333333</latitude>
    <longitude>48.2833333</longitude>
  </city>
  <city name="Ambalaka">
    <latitude>-17.8</latitude>
    <longitude>44.8666667</longitude>
  </city>
  <city name="Ambalakafe">
    <latitude>-20.5333333</latitude>
    <longitude>48.2166667</longitude>
  </city>
  <city name="Ambalakafotra">
    <latitude>-20.5166667</latitude>
    <longitude>46.7333333</longitude>
  </city>
  <city name="Ambalakajaha">
    <latitude>-17.15</latitude>
    <longitude>45.2</longitude>
  </city>
  <city name="Ambalakaty">
    <latitude>-13.2333333</latitude>
    <longitude>49.05</longitude>
  </city>
  <city name="Ambalakazaha">
    <latitude>-20.7833333</latitude>
    <longitude>47.8333333</longitude>
  </city>
  <city name="Ambalakely">
    <latitude>-21.4166667</latitude>
    <longitude>47.1666667</longitude>
  </city>
  <city name="Ambalakida">
    <latitude>-15.7166667</latitude>
    <longitude>46.5333333</longitude>
  </city>
  <city name="Ambalakinana">
    <latitude>-20.6833333</latitude>
    <longitude>46.3166667</longitude>
  </city>
  <city name="Ambalakinany">
    <latitude>-20.7166667</latitude>
    <longitude>46.1333333</longitude>
  </city>
  <city name="Ambalakindresy">
    <latitude>-21.1666667</latitude>
    <longitude>47.3333333</longitude>
  </city>
  <city name="Ambalakinina">
    <latitude>-20.5666667</latitude>
    <longitude>47.9833333</longitude>
  </city>
  <city name="Ambalakirajy">
    <latitude>-15.75</latitude>
    <longitude>48.5166667</longitude>
  </city>
  <city name="Ambalakitata (2)">
    <latitude>-15.7</latitude>
    <longitude>47.2833333</longitude>
  </city>
  <city name="Ambalakitata">
    <latitude>-15.7166667</latitude>
    <longitude>47.2333333</longitude>
  </city>
  <city name="Ambalakitata II">
    <latitude>-15.7</latitude>
    <longitude>47.2833333</longitude>
  </city>
  <city name="Ambalakitatra">
    <latitude>-15.7333333</latitude>
    <longitude>47.2666667</longitude>
  </city>
  <city name="Ambalakizitina">
    <latitude>-21.4333333</latitude>
    <longitude>47.45</longitude>
  </city>
  <city name="Ambalakofafa">
    <latitude>-15.0666667</latitude>
    <longitude>48.8333333</longitude>
  </city>
  <city name="Ambalakofafa Atsimo">
    <latitude>-15.1166667</latitude>
    <longitude>48.8333333</longitude>
  </city>
  <city name="Ambalakofafa Avaratra">
    <latitude>-15.0666667</latitude>
    <longitude>48.8333333</longitude>
  </city>
  <city name="Ambalakofafa Sud">
    <latitude>-15.1166667</latitude>
    <longitude>48.8333333</longitude>
  </city>
  <city name="Ambalakokony">
    <latitude>-16.9333333</latitude>
    <longitude>49.8666667</longitude>
  </city>
  <city name="Ambalakondro">
    <latitude>-20.3666667</latitude>
    <longitude>48.15</longitude>
  </city>
  <city name="Ambalakonjy">
    <latitude>-15.7333333</latitude>
    <longitude>47.3833333</longitude>
  </city>
  <city name="Ambalalady">
    <latitude>-21.0166667</latitude>
    <longitude>46.0666667</longitude>
  </city>
  <city name="Ambalalahibe">
    <latitude>-20.7166667</latitude>
    <longitude>47.25</longitude>
  </city>
  <city name="Ambalale">
    <latitude>-21.2166667</latitude>
    <longitude>44.3666667</longitude>
  </city>
  <city name="Ambalalehibe">
    <latitude>-20.7166667</latitude>
    <longitude>47.25</longitude>
  </city>
  <city name="Ambalalemoka">
    <latitude>-16.75</latitude>
    <longitude>46.9</longitude>
  </city>
  <city name="Ambalalova">
    <latitude>-21.7333333</latitude>
    <longitude>46.9333333</longitude>
  </city>
  <city name="Ambalalova-Milaly">
    <latitude>-21.8166667</latitude>
    <longitude>46.7833333</longitude>
  </city>
  <city name="Ambalamadiro">
    <latitude>-15.5333333</latitude>
    <longitude>48.7833333</longitude>
  </city>
  <city name="Ambalamaevanata">
    <latitude>-16.2</latitude>
    <longitude>46.3166667</longitude>
  </city>
  <city name="Ambalamafina">
    <latitude>-20.8833333</latitude>
    <longitude>46.25</longitude>
  </city>
  <city name="Ambalamaharivo">
    <latitude>-21.35</latitude>
    <longitude>47.1833333</longitude>
  </city>
  <city name="Ambalamahasoa">
    <latitude>-20.5666667</latitude>
    <longitude>47.45</longitude>
  </city>
  <city name="Ambalamahatsara">
    <latitude>-20.75</latitude>
    <longitude>46.85</longitude>
  </city>
  <city name="Ambalamahatsinjo">
    <latitude>-20.9833333</latitude>
    <longitude>46.5166667</longitude>
  </city>
  <city name="Ambalamahavelona">
    <latitude>-21.1333333</latitude>
    <longitude>46.4833333</longitude>
  </city>
  <city name="Ambalamahavolona">
    <latitude>-21.1333333</latitude>
    <longitude>46.4833333</longitude>
  </city>
  <city name="Ambalamahazatra">
    <latitude>-21.7166667</latitude>
    <longitude>46.8166667</longitude>
  </city>
  <city name="Ambalamahazotra">
    <latitude>-21.7166667</latitude>
    <longitude>46.8166667</longitude>
  </city>
  <city name="Ambalamahoga">
    <latitude>-13.7333333</latitude>
    <longitude>48.3833333</longitude>
  </city>
  <city name="Ambalamahogo">
    <latitude>-13.7333333</latitude>
    <longitude>48.3833333</longitude>
  </city>
  <city name="Ambalamainty">
    <latitude>-21.5333333</latitude>
    <longitude>48.1</longitude>
  </city>
  <city name="Ambalamaivanaty">
    <latitude>-16.0</latitude>
    <longitude>47.9833333</longitude>
  </city>
  <city name="Ambalamalaza">
    <latitude>-21.5</latitude>
    <longitude>47.1333333</longitude>
  </city>
  <city name="Ambalamalemy">
    <latitude>-21.05</latitude>
    <longitude>46.4833333</longitude>
  </city>
  <city name="Ambalamamoko">
    <latitude>-17.15</latitude>
    <longitude>46.9333333</longitude>
  </city>
  <city name="Ambalamana">
    <latitude>-23.0166667</latitude>
    <longitude>44.6333333</longitude>
  </city>
  <city name="Ambalamanakana">
    <latitude>-20.7333333</latitude>
    <longitude>47.1833333</longitude>
  </city>
  <city name="Ambalamanana">
    <latitude>-20.4166667</latitude>
    <longitude>47.1</longitude>
  </city>
  <city name="Ambalamanankavana">
    <latitude>-21.8</latitude>
    <longitude>46.65</longitude>
  </city>
  <city name="Ambalamananty">
    <latitude>-13.95</latitude>
    <longitude>48.1333333</longitude>
  </city>
  <city name="Ambalamanarivo">
    <latitude>-20.15</latitude>
    <longitude>47.5</longitude>
  </city>
  <city name="Ambalamanary">
    <latitude>-15.0166667</latitude>
    <longitude>48.5166667</longitude>
  </city>
  <city name="Ambalamanasa">
    <latitude>-21.5</latitude>
    <longitude>48.1166667</longitude>
  </city>
  <city name="Ambalamanasy">
    <latitude>-13.7333333</latitude>
    <longitude>49.95</longitude>
  </city>
  <city name="Ambalamanasy I">
    <latitude>-14.6</latitude>
    <longitude>49.6333333</longitude>
  </city>
  <city name="Ambalamanasy II">
    <latitude>-14.5166667</latitude>
    <longitude>49.5833333</longitude>
  </city>
  <city name="Ambalamandavo">
    <latitude>-17.7166667</latitude>
    <longitude>44.65</longitude>
  </city>
  <city name="Ambalamandry">
    <latitude>-13.8666667</latitude>
    <longitude>50.0333333</longitude>
  </city>
  <city name="Ambalamanenjana">
    <latitude>-21.65</latitude>
    <longitude>47.25</longitude>
  </city>
  <city name="Ambalamanga">
    <latitude>-22.9333333</latitude>
    <longitude>47.2333333</longitude>
  </city>
  <city name="Ambalamanna">
    <latitude>-20.9333333</latitude>
    <longitude>47.2333333</longitude>
  </city>
  <city name="Ambalamany">
    <latitude>-24.2333333</latitude>
    <longitude>47.2166667</longitude>
  </city>
  <city name="Ambalamarana">
    <latitude>-20.05</latitude>
    <longitude>46.95</longitude>
  </city>
  <city name="Ambalamarina Amaisana">
    <latitude>-21.5333333</latitude>
    <longitude>46.8166667</longitude>
  </city>
  <city name="Ambalamarina">
    <latitude>-14.6166667</latitude>
    <longitude>49.55</longitude>
  </city>
  <city name="Ambalamarina-Andoharano">
    <latitude>-21.45</latitude>
    <longitude>46.9166667</longitude>
  </city>
  <city name="Ambalamarina Avaratra">
    <latitude>-21.1</latitude>
    <longitude>46.9</longitude>
  </city>
  <city name="Ambalamarina Ouest">
    <latitude>-21.0666667</latitude>
    <longitude>46.4333333</longitude>
  </city>
  <city name="Ambalamaro">
    <latitude>-21.8666667</latitude>
    <longitude>46.7833333</longitude>
  </city>
  <city name="Ambalamary">
    <latitude>-22.6666667</latitude>
    <longitude>44.7333333</longitude>
  </city>
  <city name="Ambalamasina">
    <latitude>-20.55</latitude>
    <longitude>48.1166667</longitude>
  </city>
  <city name="Ambalamasy">
    <latitude>-25.2</latitude>
    <longitude>44.65</longitude>
  </city>
  <city name="Ambalamatsiobe">
    <latitude>-13.9</latitude>
    <longitude>47.9666667</longitude>
  </city>
  <city name="Ambalamatsioke">
    <latitude>-13.9</latitude>
    <longitude>47.9666667</longitude>
  </city>
  <city name="Ambalamatsioky">
    <latitude>-13.9</latitude>
    <longitude>47.9666667</longitude>
  </city>
  <city name="Ambalambato">
    <latitude>-14.7666667</latitude>
    <longitude>49.85</longitude>
  </city>
  <city name="Ambalambengy">
    <latitude>-16.6</latitude>
    <longitude>44.85</longitude>
  </city>
  <city name="Ambalambola">
    <latitude>-24.6666667</latitude>
    <longitude>47.1</longitude>
  </city>
  <city name="Ambalambongo">
    <latitude>-16.3166667</latitude>
    <longitude>46.5666667</longitude>
  </city>
  <city name="Ambalambositra">
    <latitude>-19.8833333</latitude>
    <longitude>46.7</longitude>
  </city>
  <city name="Ambalameloka">
    <latitude>-17.2333333</latitude>
    <longitude>47.05</longitude>
  </city>
  <city name="Ambalamena">
    <latitude>-21.6</latitude>
    <longitude>47.0666667</longitude>
  </city>
  <city name="Ambalamendrika">
    <latitude>-20.8833333</latitude>
    <longitude>46.9333333</longitude>
  </city>
  <city name="Ambalamialoha">
    <latitude>-17.75</latitude>
    <longitude>45.7666667</longitude>
  </city>
  <city name="Ambalamiary">
    <latitude>-21.1333333</latitude>
    <longitude>46.9166667</longitude>
  </city>
  <city name="Ambalamirary">
    <latitude>-21.0666667</latitude>
    <longitude>46.5666667</longitude>
  </city>
  <city name="Ambalamisaona">
    <latitude>-21.7166667</latitude>
    <longitude>46.95</longitude>
  </city>
  <city name="Ambalamita">
    <latitude>-20.6166667</latitude>
    <longitude>48.25</longitude>
  </city>
  <city name="Ambalamitsaka">
    <latitude>-20.8</latitude>
    <longitude>46.1</longitude>
  </city>
  <city name="Ambalamitsangana">
    <latitude>-21.4</latitude>
    <longitude>46.6666667</longitude>
  </city>
  <city name="Ambalamoa">
    <latitude>-21.5166667</latitude>
    <longitude>43.6333333</longitude>
  </city>
  <city name="Ambalamoakely">
    <latitude>-21.4833333</latitude>
    <longitude>43.65</longitude>
  </city>
  <city name="Ambalamontana">
    <latitude>-20.65</latitude>
    <longitude>46.15</longitude>
  </city>
  <city name="Ambalamotraka">
    <latitude>-14.5</latitude>
    <longitude>49.05</longitude>
  </city>
  <city name="Ambalampamba">
    <latitude>-17.1166667</latitude>
    <longitude>44.5666667</longitude>
  </city>
  <city name="Ambalanakanga">
    <latitude>-20.9333333</latitude>
    <longitude>46.9833333</longitude>
  </city>
  <city name="Ambalanano">
    <latitude>-16.95</latitude>
    <longitude>46.85</longitude>
  </city>
  <city name="Ambalanaomby">
    <latitude>-21.0333333</latitude>
    <longitude>48.05</longitude>
  </city>
  <city name="Ambalanaondry">
    <latitude>-23.9833333</latitude>
    <longitude>47.2166667</longitude>
  </city>
  <city name="Ambalanara">
    <latitude>-21.8333333</latitude>
    <longitude>47.2166667</longitude>
  </city>
  <city name="Ambalandampa">
    <latitude>-21.65</latitude>
    <longitude>47.0166667</longitude>
  </city>
  <city name="Ambalandapa">
    <latitude>-21.3666667</latitude>
    <longitude>46.9</longitude>
  </city>
  <city name="Ambalandrafia">
    <latitude>-16.6833333</latitude>
    <longitude>49.7833333</longitude>
  </city>
  <city name="Ambalandranoankarina">
    <latitude>-19.85</latitude>
    <longitude>47.3833333</longitude>
  </city>
  <city name="Ambalandrazana">
    <latitude>-21.5</latitude>
    <longitude>46.8333333</longitude>
  </city>
  <city name="Ambalanengitra">
    <latitude>-20.1166667</latitude>
    <longitude>48.5333333</longitude>
  </city>
  <city name="Ambalanianana">
    <latitude>-20.6</latitude>
    <longitude>47.0333333</longitude>
  </city>
  <city name="Ambalaniany">
    <latitude>-24.0666667</latitude>
    <longitude>46.4666667</longitude>
  </city>
  <city name="Ambalanibory">
    <latitude>-21.45</latitude>
    <longitude>45.9833333</longitude>
  </city>
  <city name="Ambalanifotsy">
    <latitude>-21.4833333</latitude>
    <longitude>47.2666667</longitude>
  </city>
  <city name="Ambalanihasy">
    <latitude>-23.5833333</latitude>
    <longitude>46.9833333</longitude>
  </city>
  <city name="Ambalanimaromena">
    <latitude>-19.6833333</latitude>
    <longitude>46.6</longitude>
  </city>
  <city name="Ambalanira">
    <latitude>-15.8166667</latitude>
    <longitude>46.9666667</longitude>
  </city>
  <city name="Ambalanirana">
    <latitude>-14.7666667</latitude>
    <longitude>49.5666667</longitude>
  </city>
  <city name="Ambalanivo">
    <latitude>-21.2</latitude>
    <longitude>46.7</longitude>
  </city>
  <city name="Ambalanjanakomby">
    <latitude>-16.7</latitude>
    <longitude>47.0833333</longitude>
  </city>
  <city name="Ambalanomby">
    <latitude>-23.1</latitude>
    <longitude>47.3</longitude>
  </city>
  <city name="Ambalanonga">
    <latitude>-17.95</latitude>
    <longitude>48.1666667</longitude>
  </city>
  <city name="Ambalanosy">
    <latitude>-21.0</latitude>
    <longitude>46.7</longitude>
  </city>
  <city name="Ambalantsiraka">
    <latitude>-14.8666667</latitude>
    <longitude>47.9166667</longitude>
  </city>
  <city name="Ambalantsotry">
    <latitude>-15.5833333</latitude>
    <longitude>47.9</longitude>
  </city>
  <city name="Ambalany">
    <latitude>-23.4</latitude>
    <longitude>47.3</longitude>
  </city>
  <city name="Ambalaoa">
    <latitude>-23.3166667</latitude>
    <longitude>46.1333333</longitude>
  </city>
  <city name="Ambalaomby">
    <latitude>-19.7333333</latitude>
    <longitude>47.9666667</longitude>
  </city>
  <city name="Ambalapaiso">
    <latitude>-21.2833333</latitude>
    <longitude>47.9333333</longitude>
  </city>
  <city name="Ambalapaka">
    <latitude>-14.4833333</latitude>
    <longitude>48.7166667</longitude>
  </city>
  <city name="Ambalapalso">
    <latitude>-20.0166667</latitude>
    <longitude>47.8833333</longitude>
  </city>
  <city name="Ambalapalso II">
    <latitude>-20.0166667</latitude>
    <longitude>47.8833333</longitude>
  </city>
  <city name="Ambalapamba">
    <latitude>-13.95</latitude>
    <longitude>48.1833333</longitude>
  </city>
  <city name="Ambalapiso">
    <latitude>-24.1166667</latitude>
    <longitude>47.2166667</longitude>
  </city>
  <city name="Ambalarane">
    <latitude>-18.7</latitude>
    <longitude>44.4166667</longitude>
  </city>
  <city name="Ambalarano">
    <latitude>-21.4833333</latitude>
    <longitude>47.4833333</longitude>
  </city>
  <city name="Ambalaranobe">
    <latitude>-17.0166667</latitude>
    <longitude>46.9</longitude>
  </city>
  <city name="Ambalaraotsy">
    <latitude>-24.9</latitude>
    <longitude>45.4166667</longitude>
  </city>
  <city name="Ambalareketa">
    <latitude>-19.75</latitude>
    <longitude>46.5833333</longitude>
  </city>
  <city name="Ambalaroa">
    <latitude>-20.6166667</latitude>
    <longitude>44.0833333</longitude>
  </city>
  <city name="Ambalaroka">
    <latitude>-22.1333333</latitude>
    <longitude>47.7333333</longitude>
  </city>
  <city name="Ambalaromba">
    <latitude>-21.2333333</latitude>
    <longitude>48.2166667</longitude>
  </city>
  <city name="Ambalarondra">
    <latitude>-18.4666667</latitude>
    <longitude>48.9833333</longitude>
  </city>
  <city name="Ambalarondro">
    <latitude>-18.4666667</latitude>
    <longitude>48.9833333</longitude>
  </city>
  <city name="Ambalarongana">
    <latitude>-19.15</latitude>
    <longitude>48.8166667</longitude>
  </city>
  <city name="Ambalaroy">
    <latitude>-21.7166667</latitude>
    <longitude>47.0666667</longitude>
  </city>
  <city name="Ambalasakoana">
    <latitude>-14.6833333</latitude>
    <longitude>48.0666667</longitude>
  </city>
  <city name="Ambalasaraka">
    <latitude>-23.9333333</latitude>
    <longitude>44.7666667</longitude>
  </city>
  <city name="Ambalasarotsy">
    <latitude>-24.3333333</latitude>
    <longitude>46.7</longitude>
  </city>
  <city name="Ambalasatra">
    <latitude>-17.6833333</latitude>
    <longitude>44.1166667</longitude>
  </city>
  <city name="Ambalasatrana">
    <latitude>-13.7333333</latitude>
    <longitude>49.7</longitude>
  </city>
  <city name="Ambalasavoa">
    <latitude>-23.2833333</latitude>
    <longitude>47.25</longitude>
  </city>
  <city name="Ambalasavoka">
    <latitude>-20.2333333</latitude>
    <longitude>47.9</longitude>
  </city>
  <city name="Ambalaseva">
    <latitude>-21.8833333</latitude>
    <longitude>47.1333333</longitude>
  </city>
  <city name="Ambalasoa">
    <latitude>-21.45</latitude>
    <longitude>46.8166667</longitude>
  </city>
  <city name="Ambalasokona">
    <latitude>-17.6</latitude>
    <longitude>49.35</longitude>
  </city>
  <city name="Ambalasorita">
    <latitude>-24.3833333</latitude>
    <longitude>47.2</longitude>
  </city>
  <city name="Ambalasotry">
    <latitude>-15.8</latitude>
    <longitude>48.9333333</longitude>
  </city>
  <city name="Ambalatamby">
    <latitude>-21.6833333</latitude>
    <longitude>47.7</longitude>
  </city>
  <city name="Ambalatana">
    <latitude>-17.5833333</latitude>
    <longitude>44.2666667</longitude>
  </city>
  <city name="Ambalatanana">
    <latitude>-22.9666667</latitude>
    <longitude>47.1166667</longitude>
  </city>
  <city name="Ambalatanovana">
    <latitude>-21.3</latitude>
    <longitude>47.0333333</longitude>
  </city>
  <city name="Ambalatany">
    <latitude>-22.5333333</latitude>
    <longitude>47.6</longitude>
  </city>
  <city name="Ambalatary">
    <latitude>-16.75</latitude>
    <longitude>47.5333333</longitude>
  </city>
  <city name="Ambalatataka">
    <latitude>-18.4833333</latitude>
    <longitude>49.0333333</longitude>
  </city>
  <city name="Ambalatavy">
    <latitude>-21.6666667</latitude>
    <longitude>47.1166667</longitude>
  </city>
  <city name="Ambalatelo">
    <latitude>-21.0166667</latitude>
    <longitude>46.2833333</longitude>
  </city>
  <city name="Ambalatemoka">
    <latitude>-16.75</latitude>
    <longitude>46.9</longitude>
  </city>
  <city name="Ambalatenina">
    <latitude>-20.3833333</latitude>
    <longitude>48.2</longitude>
  </city>
  <city name="Ambalatenina II">
    <latitude>-20.45</latitude>
    <longitude>47.9</longitude>
  </city>
  <city name="Ambalateva">
    <latitude>-22.25</latitude>
    <longitude>46.5666667</longitude>
  </city>
  <city name="Ambalatevana">
    <latitude>-17.3666667</latitude>
    <longitude>48.35</longitude>
  </city>
  <city name="Ambalateza">
    <latitude>-24.25</latitude>
    <longitude>47.2833333</longitude>
  </city>
  <city name="Ambalatraka">
    <latitude>-22.9</latitude>
    <longitude>47.2166667</longitude>
  </city>
  <city name="Ambalatrihomehy">
    <latitude>-21.9333333</latitude>
    <longitude>46.8</longitude>
  </city>
  <city name="Ambalatsako">
    <latitude>-22.9666667</latitude>
    <longitude>47.1</longitude>
  </city>
  <city name="Ambalatsangana">
    <latitude>-19.7166667</latitude>
    <longitude>46.2</longitude>
  </city>
  <city name="Ambalatsara">
    <latitude>-20.4166667</latitude>
    <longitude>47.15</longitude>
  </city>
  <city name="Ambalatsaraka">
    <latitude>-19.5333333</latitude>
    <longitude>45.55</longitude>
  </city>
  <city name="Ambalatsaramadina">
    <latitude>-21.3333333</latitude>
    <longitude>47.1166667</longitude>
  </city>
  <city name="Ambalatsiefa">
    <latitude>-23.7166667</latitude>
    <longitude>44.8166667</longitude>
  </city>
  <city name="Ambalatsieta">
    <latitude>-20.3</latitude>
    <longitude>47.2666667</longitude>
  </city>
  <city name="Ambalatsila">
    <latitude>-21.5333333</latitude>
    <longitude>46.95</longitude>
  </city>
  <city name="Ambalatsilalovana">
    <latitude>-21.0333333</latitude>
    <longitude>46.8666667</longitude>
  </city>
  <city name="Ambalatsilatovana">
    <latitude>-21.55</latitude>
    <longitude>46.9166667</longitude>
  </city>
  <city name="Ambalatsimanoko">
    <latitude>-21.1833333</latitude>
    <longitude>47.0</longitude>
  </city>
  <city name="Ambalatsimiedika">
    <latitude>-21.1166667</latitude>
    <longitude>47.05</longitude>
  </city>
  <city name="Ambalatsimirango">
    <latitude>-21.7833333</latitude>
    <longitude>47.0</longitude>
  </city>
  <city name="Ambalatsinainy">
    <latitude>-19.1833333</latitude>
    <longitude>45.0666667</longitude>
  </city>
  <city name="Ambalatsingaka">
    <latitude>-20.9666667</latitude>
    <longitude>47.7833333</longitude>
  </city>
  <city name="Ambalatsingy">
    <latitude>-14.9166667</latitude>
    <longitude>47.3833333</longitude>
  </city>
  <city name="Ambalatsipaky">
    <latitude>-23.4333333</latitude>
    <longitude>47.2666667</longitude>
  </city>
  <city name="Ambalatsiraka">
    <latitude>-14.5666667</latitude>
    <longitude>48.6166667</longitude>
  </city>
  <city name="Ambalatsirava">
    <latitude>-14.6166667</latitude>
    <longitude>49.5166667</longitude>
  </city>
  <city name="Ambalatsiriana">
    <latitude>-21.1166667</latitude>
    <longitude>46.95</longitude>
  </city>
  <city name="Ambalatsopaka">
    <latitude>-23.4333333</latitude>
    <longitude>47.2666667</longitude>
  </city>
  <city name="Ambalatsotry">
    <latitude>-15.4</latitude>
    <longitude>48.4333333</longitude>
  </city>
  <city name="Ambalava">
    <latitude>-21.8333333</latitude>
    <longitude>46.9333333</longitude>
  </city>
  <city name="Ambalavabe">
    <latitude>-20.6</latitude>
    <longitude>46.7833333</longitude>
  </city>
  <city name="Ambalavan">
    <latitude>-21.6</latitude>
    <longitude>47.0</longitude>
  </city>
  <city name="Ambalavan-Atatan">
    <latitude>-21.6</latitude>
    <longitude>47.0</longitude>
  </city>
  <city name="Ambalavao">
    <latitude>-21.6</latitude>
    <longitude>47.0</longitude>
  </city>
  <city name="Ambalavao Andrefana">
    <latitude>-21.3</latitude>
    <longitude>46.5333333</longitude>
  </city>
  <city name="Ambalavao Ankerana">
    <latitude>-21.3833333</latitude>
    <longitude>47.3333333</longitude>
  </city>
  <city name="Ambalavao Atatao">
    <latitude>-21.6</latitude>
    <longitude>47.0</longitude>
  </city>
  <city name="Ambalavao Atsinanana">
    <latitude>-21.3</latitude>
    <longitude>46.7</longitude>
  </city>
  <city name="Ambalavaokely">
    <latitude>-21.6833333</latitude>
    <longitude>46.9666667</longitude>
  </city>
  <city name="Ambalavao Nord">
    <latitude>-21.1333333</latitude>
    <longitude>46.45</longitude>
  </city>
  <city name="Ambalavao Sud">
    <latitude>-21.1333333</latitude>
    <longitude>46.45</longitude>
  </city>
  <city name="Ambalavaro">
    <latitude>-20.6333333</latitude>
    <longitude>46.25</longitude>
  </city>
  <city name="Ambalavary">
    <latitude>-20.8166667</latitude>
    <longitude>47.65</longitude>
  </city>
  <city name="Ambalavato">
    <latitude>-13.4833333</latitude>
    <longitude>49.5833333</longitude>
  </city>
  <city name="Ambalavato Haut">
    <latitude>-23.4</latitude>
    <longitude>46.15</longitude>
  </city>
  <city name="Ambalavatokely">
    <latitude>-19.15</latitude>
    <longitude>46.0</longitude>
  </city>
  <city name="Ambalavelo">
    <latitude>-15.75</latitude>
    <longitude>46.75</longitude>
  </city>
  <city name="Ambalavelombe">
    <latitude>-15.55</latitude>
    <longitude>48.15</longitude>
  </city>
  <city name="Ambalavelona">
    <latitude>-13.45</latitude>
    <longitude>48.3666667</longitude>
  </city>
  <city name="Ambalavelona Ambany">
    <latitude>-14.85</latitude>
    <longitude>48.2666667</longitude>
  </city>
  <city name="Ambalavelona Ambony">
    <latitude>-14.8666667</latitude>
    <longitude>48.45</longitude>
  </city>
  <city name="Ambalavenoka">
    <latitude>-22.8666667</latitude>
    <longitude>43.5666667</longitude>
  </city>
  <city name="Ambalavero">
    <latitude>-20.3833333</latitude>
    <longitude>48.2333333</longitude>
  </city>
  <city name="Ambalavia">
    <latitude>-20.3666667</latitude>
    <longitude>48.2166667</longitude>
  </city>
  <city name="Ambalaviro">
    <latitude>-23.9</latitude>
    <longitude>43.6666667</longitude>
  </city>
  <city name="Ambalavita">
    <latitude>-22.6666667</latitude>
    <longitude>47.5166667</longitude>
  </city>
  <city name="Ambalavoahangy">
    <latitude>-21.9</latitude>
    <longitude>47.7</longitude>
  </city>
  <city name="Ambalavoatavo">
    <latitude>-20.8666667</latitude>
    <longitude>48.3666667</longitude>
  </city>
  <city name="Ambalavohimay">
    <latitude>-21.7166667</latitude>
    <longitude>46.9666667</longitude>
  </city>
  <city name="Ambalavokatra">
    <latitude>-17.2333333</latitude>
    <longitude>49.2333333</longitude>
  </city>
  <city name="Ambalavola">
    <latitude>-20.8833333</latitude>
    <longitude>47.2166667</longitude>
  </city>
  <city name="Ambalavolo">
    <latitude>-21.8333333</latitude>
    <longitude>47.9833333</longitude>
  </city>
  <city name="Ambalavondro">
    <latitude>-16.6166667</latitude>
    <longitude>44.6</longitude>
  </city>
  <city name="Ambalavondrona">
    <latitude>-16.5166667</latitude>
    <longitude>47.15</longitude>
  </city>
  <city name="Ambalavongo">
    <latitude>-14.15</latitude>
    <longitude>49.45</longitude>
  </city>
  <city name="Ambalavontaka">
    <latitude>-21.3166667</latitude>
    <longitude>48.3166667</longitude>
  </city>
  <city name="Ambalavotaka">
    <latitude>-20.35</latitude>
    <longitude>48.5833333</longitude>
  </city>
  <city name="Ambalavy">
    <latitude>-16.0666667</latitude>
    <longitude>46.7333333</longitude>
  </city>
  <city name="Ambalengitra">
    <latitude>-17.8</latitude>
    <longitude>49.4</longitude>
  </city>
  <city name="Ambalengo">
    <latitude>-23.5166667</latitude>
    <longitude>47.6</longitude>
  </city>
  <city name="Ambalia">
    <latitude>-14.5333333</latitude>
    <longitude>48.2166667</longitude>
  </city>
  <city name="Ambaliabe">
    <latitude>-13.9833333</latitude>
    <longitude>50.0833333</longitude>
  </city>
  <city name="Ambaliandro">
    <latitude>-24.5333333</latitude>
    <longitude>45.8333333</longitude>
  </city>
  <city name="Ambaliandro Nord">
    <latitude>-25.3333333</latitude>
    <longitude>45.4333333</longitude>
  </city>
  <city name="Ambaliandro Sud">
    <latitude>-25.3333333</latitude>
    <longitude>45.45</longitude>
  </city>
  <city name="Ambalianjavatra">
    <latitude>-19.5666667</latitude>
    <longitude>45.6833333</longitude>
  </city>
  <city name="Ambaliha">
    <latitude>-13.1</latitude>
    <longitude>49.4</longitude>
  </city>
  <city name="Ambalihabe">
    <latitude>-13.6166667</latitude>
    <longitude>47.9833333</longitude>
  </city>
  <city name="Ambalihamilopaka">
    <latitude>-14.4</latitude>
    <longitude>48.2333333</longitude>
  </city>
  <city name="Ambalika">
    <latitude>-15.6</latitude>
    <longitude>46.4666667</longitude>
  </city>
  <city name="Ambalikida">
    <latitude>-20.3</latitude>
    <longitude>44.6666667</longitude>
  </city>
  <city name="Ambalio">
    <latitude>-13.9833333</latitude>
    <longitude>48.1</longitude>
  </city>
  <city name="Ambalipamba">
    <latitude>-12.8</latitude>
    <longitude>48.9666667</longitude>
  </city>
  <city name="Ambalivalo">
    <latitude>-15.7333333</latitude>
    <longitude>48.4833333</longitude>
  </city>
  <city name="Ambalolo">
    <latitude>-22.8333333</latitude>
    <longitude>47.7666667</longitude>
  </city>
  <city name="Ambalomboro">
    <latitude>-22.0333333</latitude>
    <longitude>47.4</longitude>
  </city>
  <city name="Ambalomborona">
    <latitude>-22.0333333</latitude>
    <longitude>47.4</longitude>
  </city>
  <city name="Ambalona">
    <latitude>-21.5833333</latitude>
    <longitude>47.9666667</longitude>
  </city>
  <city name="Ambalorao">
    <latitude>-22.0666667</latitude>
    <longitude>43.2666667</longitude>
  </city>
  <city name="Ambalovary">
    <latitude>-17.5666667</latitude>
    <longitude>45.5666667</longitude>
  </city>
  <city name="Ambalovolona">
    <latitude>-14.8666667</latitude>
    <longitude>48.45</longitude>
  </city>
  <city name="Ambambao Nord">
    <latitude>-18.6666667</latitude>
    <longitude>47.7666667</longitude>
  </city>
  <city name="Ambana">
    <latitude>-19.8</latitude>
    <longitude>47.0333333</longitude>
  </city>
  <city name="Ambanala">
    <latitude>-23.4166667</latitude>
    <longitude>47.5</longitude>
  </city>
  <city name="Ambananata">
    <latitude>-24.6666667</latitude>
    <longitude>46.25</longitude>
  </city>
  <city name="Ambanara">
    <latitude>-23.3833333</latitude>
    <longitude>47.6333333</longitude>
  </city>
  <city name="Ambandanira">
    <latitude>-24.55</latitude>
    <longitude>46.5833333</longitude>
  </city>
  <city name="Ambandanirana">
    <latitude>-24.5833333</latitude>
    <longitude>46.5833333</longitude>
  </city>
  <city name="Ambandrana">
    <latitude>-15.5</latitude>
    <longitude>48.2</longitude>
  </city>
  <city name="Ambandrika">
    <latitude>-20.6333333</latitude>
    <longitude>48.3666667</longitude>
  </city>
  <city name="Ambandroala">
    <latitude>-17.5</latitude>
    <longitude>48.25</longitude>
  </city>
  <city name="Ambangabe">
    <latitude>-18.8666667</latitude>
    <longitude>47.4166667</longitude>
  </city>
  <city name="Ambangindambo">
    <latitude>-16.1333333</latitude>
    <longitude>48.5333333</longitude>
  </city>
  <city name="Ambango">
    <latitude>-20.9</latitude>
    <longitude>44.75</longitude>
  </city>
  <city name="Ambania">
    <latitude>-13.3833333</latitude>
    <longitude>49.7666667</longitude>
  </city>
  <city name="Ambaniala">
    <latitude>-17.4166667</latitude>
    <longitude>48.5833333</longitude>
  </city>
  <city name="Ambaniato">
    <latitude>-24.4666667</latitude>
    <longitude>45.2333333</longitude>
  </city>
  <city name="Ambaniavatra">
    <latitude>-18.9833333</latitude>
    <longitude>46.9333333</longitude>
  </city>
  <city name="Ambaniavoha">
    <latitude>-25.2</latitude>
    <longitude>46.0666667</longitude>
  </city>
  <city name="Ambanibohobe">
    <latitude>-17.2666667</latitude>
    <longitude>48.0166667</longitude>
  </city>
  <city name="Ambanidhina">
    <latitude>-13.9166667</latitude>
    <longitude>49.9666667</longitude>
  </city>
  <city name="Ambanidia">
    <latitude>-18.9</latitude>
    <longitude>47.5333333</longitude>
  </city>
  <city name="Ambanie">
    <latitude>-19.1333333</latitude>
    <longitude>47.85</longitude>
  </city>
  <city name="Ambanifalika">
    <latitude>-25.3666667</latitude>
    <longitude>45.7833333</longitude>
  </city>
  <city name="Ambanifilao">
    <latitude>-12.8</latitude>
    <longitude>49.7833333</longitude>
  </city>
  <city name="Ambanihazo">
    <latitude>-24.65</latitude>
    <longitude>47.2166667</longitude>
  </city>
  <city name="Ambanihiko">
    <latitude>-13.5833333</latitude>
    <longitude>48.8333333</longitude>
  </city>
  <city name="Ambanikibo">
    <latitude>-13.5833333</latitude>
    <longitude>48.8333333</longitude>
  </city>
  <city name="Ambanikily">
    <latitude>-25.3</latitude>
    <longitude>45.9333333</longitude>
  </city>
  <city name="Ambanilalakely">
    <latitude>-12.1666667</latitude>
    <longitude>49.3333333</longitude>
  </city>
  <city name="Ambanilalana">
    <latitude>-12.1666667</latitude>
    <longitude>49.2833333</longitude>
  </city>
  <city name="Ambanimanasy">
    <latitude>-13.7333333</latitude>
    <longitude>49.95</longitude>
  </city>
  <city name="Ambanimangy">
    <latitude>-15.25</latitude>
    <longitude>50.4333333</longitude>
  </city>
  <city name="Ambanimantsaky">
    <latitude>-25.3333333</latitude>
    <longitude>45.8833333</longitude>
  </city>
  <city name="Ambanimaso">
    <latitude>-22.35</latitude>
    <longitude>47.55</longitude>
  </city>
  <city name="Ambanimentsaky">
    <latitude>-25.3333333</latitude>
    <longitude>45.8833333</longitude>
  </city>
  <city name="Ambaninato">
    <latitude>-24.6666667</latitude>
    <longitude>46.25</longitude>
  </city>
  <city name="Ambaninonoka">
    <latitude>-25.5166667</latitude>
    <longitude>45.2</longitude>
  </city>
  <city name="Ambaniranona">
    <latitude>-12.1666667</latitude>
    <longitude>49.3333333</longitude>
  </city>
  <city name="Ambaniranotsilena">
    <latitude>-18.5666667</latitude>
    <longitude>46.5333333</longitude>
  </city>
  <city name="Ambanisangy">
    <latitude>-25.2333333</latitude>
    <longitude>45.9333333</longitude>
  </city>
  <city name="Ambanisanjo">
    <latitude>-12.5333333</latitude>
    <longitude>48.8666667</longitude>
  </city>
  <city name="Ambanisarika">
    <latitude>-25.2</latitude>
    <longitude>45.9833333</longitude>
  </city>
  <city name="Ambanisariky">
    <latitude>-25.2</latitude>
    <longitude>45.9833333</longitude>
  </city>
  <city name="Ambanisiranana">
    <latitude>-21.4666667</latitude>
    <longitude>47.85</longitude>
  </city>
  <city name="Ambanitsena">
    <latitude>-18.8666667</latitude>
    <longitude>47.6833333</longitude>
  </city>
  <city name="Ambanivato">
    <latitude>-21.4833333</latitude>
    <longitude>47.2166667</longitude>
  </city>
  <city name="Ambanivohitra">
    <latitude>-19.0333333</latitude>
    <longitude>46.9666667</longitude>
  </city>
  <city name="Ambanizana">
    <latitude>-15.6166667</latitude>
    <longitude>49.9666667</longitude>
  </city>
  <city name="Ambanja">
    <latitude>-13.6833333</latitude>
    <longitude>48.45</longitude>
  </city>
  <city name="Ambanjabe">
    <latitude>-15.6333333</latitude>
    <longitude>47.7166667</longitude>
  </city>
  <city name="Ambanjahilatra">
    <latitude>-14.0833333</latitude>
    <longitude>49.5833333</longitude>
  </city>
  <city name="Ambanjalava">
    <latitude>-16.7</latitude>
    <longitude>47.0333333</longitude>
  </city>
  <city name="Ambanjsondriry">
    <latitude>-13.8333333</latitude>
    <longitude>50.1166667</longitude>
  </city>
  <city name="Ambano">
    <latitude>-19.8</latitude>
    <longitude>47.0333333</longitude>
  </city>
  <city name="Ambanoro">
    <latitude>-13.4</latitude>
    <longitude>48.3</longitude>
  </city>
  <city name="Ambany Manakambahiny">
    <latitude>-18.6333333</latitude>
    <longitude>45.75</longitude>
  </city>
  <city name="Ambaonio">
    <latitude>-20.4333333</latitude>
    <longitude>44.1833333</longitude>
  </city>
  <city name="Ambaovy">
    <latitude>-21.4166667</latitude>
    <longitude>43.55</longitude>
  </city>
  <city name="Ambapaka">
    <latitude>-23.45</latitude>
    <longitude>47.6</longitude>
  </city>
  <city name="Ambara">
    <latitude>-21.3666667</latitude>
    <longitude>47.3</longitude>
  </city>
  <city name="Ambarabaha">
    <latitude>-14.9833333</latitude>
    <longitude>50.1</longitude>
  </city>
  <city name="Ambarabahy">
    <latitude>-16.3833333</latitude>
    <longitude>44.8833333</longitude>
  </city>
  <city name="Ambarabanja">
    <latitude>-12.9333333</latitude>
    <longitude>49.7333333</longitude>
  </city>
  <city name="Ambarabelo">
    <latitude>-21.6333333</latitude>
    <longitude>47.5833333</longitude>
  </city>
  <city name="Ambaraka">
    <latitude>-24.15</latitude>
    <longitude>45.35</longitude>
  </city>
  <city name="Ambarakaraka">
    <latitude>-13.5</latitude>
    <longitude>48.8666667</longitude>
  </city>
  <city name="Ambaramidada">
    <latitude>-12.9166667</latitude>
    <longitude>48.5833333</longitude>
  </city>
  <city name="Ambaranata">
    <latitude>-17.3166667</latitude>
    <longitude>46.7833333</longitude>
  </city>
  <city name="Ambarano">
    <latitude>-23.9166667</latitude>
    <longitude>47.2166667</longitude>
  </city>
  <city name="Ambararala">
    <latitude>-21.3833333</latitude>
    <longitude>44.3833333</longitude>
  </city>
  <city name="Ambararata Ambany">
    <latitude>-24.6333333</latitude>
    <longitude>45.7666667</longitude>
  </city>
  <city name="Ambararata">
    <latitude>-12.3</latitude>
    <longitude>49.1</longitude>
  </city>
  <city name="Ambararata Ambony">
    <latitude>-24.6</latitude>
    <longitude>45.7833333</longitude>
  </city>
  <city name="Ambararata Andrefana">
    <latitude>-24.2333333</latitude>
    <longitude>45.2</longitude>
  </city>
  <city name="Ambararata Atsimo">
    <latitude>-18.4666667</latitude>
    <longitude>45.4666667</longitude>
  </city>
  <city name="Ambararata Avaratra">
    <latitude>-18.3833333</latitude>
    <longitude>45.5</longitude>
  </city>
  <city name="Ambararatabe">
    <latitude>-12.7166667</latitude>
    <longitude>49.0166667</longitude>
  </city>
  <city name="Ambararatabe Avaratra">
    <latitude>-14.3833333</latitude>
    <longitude>48.8166667</longitude>
  </city>
  <city name="Ambararatabe Nord">
    <latitude>-14.3833333</latitude>
    <longitude>48.8166667</longitude>
  </city>
  <city name="Ambararatabevatana">
    <latitude>-21.9166667</latitude>
    <longitude>44.4666667</longitude>
  </city>
  <city name="Ambararatafaly">
    <latitude>-16.15</latitude>
    <longitude>46.5166667</longitude>
  </city>
  <city name="Ambararatafotsy">
    <latitude>-16.0666667</latitude>
    <longitude>46.75</longitude>
  </city>
  <city name="Ambararatahely">
    <latitude>-15.5833333</latitude>
    <longitude>48.2166667</longitude>
  </city>
  <city name="Ambararatakely">
    <latitude>-16.9333333</latitude>
    <longitude>47.5666667</longitude>
  </city>
  <city name="Ambararatakoly">
    <latitude>-18.3666667</latitude>
    <longitude>46.4166667</longitude>
  </city>
  <city name="Ambararatalava">
    <latitude>-15.2</latitude>
    <longitude>48.1333333</longitude>
  </city>
  <city name="Ambararatamafaika">
    <latitude>-15.8166667</latitude>
    <longitude>48.25</longitude>
  </city>
  <city name="Ambararatamavo">
    <latitude>-14.65</latitude>
    <longitude>48.9666667</longitude>
  </city>
  <city name="Ambararatamisakana">
    <latitude>-12.9833333</latitude>
    <longitude>49.6166667</longitude>
  </city>
  <city name="Ambararatanaomby">
    <latitude>-21.1166667</latitude>
    <longitude>45.0833333</longitude>
  </city>
  <city name="Ambararata Nord">
    <latitude>-22.3166667</latitude>
    <longitude>46.2333333</longitude>
  </city>
  <city name="Ambararata Ouest">
    <latitude>-24.2333333</latitude>
    <longitude>45.2</longitude>
  </city>
  <city name="Ambararata-Sofia">
    <latitude>-14.8</latitude>
    <longitude>48.8166667</longitude>
  </city>
  <city name="Ambararatasoratra">
    <latitude>-20.6666667</latitude>
    <longitude>46.0</longitude>
  </city>
  <city name="Ambararata Sud">
    <latitude>-18.4666667</latitude>
    <longitude>45.4666667</longitude>
  </city>
  <city name="Ambararata-Toby">
    <latitude>-24.2833333</latitude>
    <longitude>45.4666667</longitude>
  </city>
  <city name="Ambararatavokoka">
    <latitude>-19.8833333</latitude>
    <longitude>45.9666667</longitude>
  </city>
  <city name="Ambararate">
    <latitude>-18.1666667</latitude>
    <longitude>46.8666667</longitude>
  </city>
  <city name="Ambararatilava">
    <latitude>-15.2</latitude>
    <longitude>48.1333333</longitude>
  </city>
  <city name="Ambararato">
    <latitude>-20.1666667</latitude>
    <longitude>44.7333333</longitude>
  </city>
  <city name="Ambararatra">
    <latitude>-18.3666667</latitude>
    <longitude>44.4166667</longitude>
  </city>
  <city name="Ambararaty">
    <latitude>-15.4333333</latitude>
    <longitude>48.7</longitude>
  </city>
  <city name="Ambararavy">
    <latitude>-21.6833333</latitude>
    <longitude>45.7</longitude>
  </city>
  <city name="Ambarata">
    <latitude>-20.65</latitude>
    <longitude>44.0833333</longitude>
  </city>
  <city name="Ambaratamafaiky">
    <latitude>-15.8166667</latitude>
    <longitude>48.25</longitude>
  </city>
  <city name="Ambaratasoa">
    <latitude>-20.8166667</latitude>
    <longitude>46.1</longitude>
  </city>
  <city name="Ambaratra">
    <latitude>-16.2166667</latitude>
    <longitude>44.65</longitude>
  </city>
  <city name="Ambaravarambato">
    <latitude>-18.9166667</latitude>
    <longitude>47.5166667</longitude>
  </city>
  <city name="Ambaravaranala">
    <latitude>-18.1166667</latitude>
    <longitude>46.0333333</longitude>
  </city>
  <city name="Ambaravaranalabe">
    <latitude>-18.3666667</latitude>
    <longitude>45.7166667</longitude>
  </city>
  <city name="Ambaravarandrafia">
    <latitude>-17.2833333</latitude>
    <longitude>45.05</longitude>
  </city>
  <city name="Ambaravarantany">
    <latitude>-19.2333333</latitude>
    <longitude>44.6666667</longitude>
  </city>
  <city name="Ambaravatry">
    <latitude>-21.2833333</latitude>
    <longitude>48.0666667</longitude>
  </city>
  <city name="Ambariaho">
    <latitude>-22.1833333</latitude>
    <longitude>43.6833333</longitude>
  </city>
  <city name="Ambarialoha">
    <latitude>-15.3</latitude>
    <longitude>47.1833333</longitude>
  </city>
  <city name="Ambaribe">
    <latitude>-18.3833333</latitude>
    <longitude>47.4</longitude>
  </city>
  <city name="Ambarifafy">
    <latitude>-18.6666667</latitude>
    <longitude>47.6666667</longitude>
  </city>
  <city name="Ambarifoana">
    <latitude>-18.2333333</latitude>
    <longitude>49.0333333</longitude>
  </city>
  <city name="Ambarifotsy">
    <latitude>-17.5833333</latitude>
    <longitude>48.9833333</longitude>
  </city>
  <city name="Ambarihasara">
    <latitude>-15.9666667</latitude>
    <longitude>47.5833333</longitude>
  </city>
  <city name="Ambarijanahary">
    <latitude>-20.5666667</latitude>
    <longitude>45.7</longitude>
  </city>
  <city name="Ambarijatsy">
    <latitude>-21.5833333</latitude>
    <longitude>47.65</longitude>
  </city>
  <city name="Ambarijeby">
    <latitude>-12.7166667</latitude>
    <longitude>48.9833333</longitude>
  </city>
  <city name="Ambarijeby Atsimo">
    <latitude>-14.9333333</latitude>
    <longitude>47.6833333</longitude>
  </city>
  <city name="Ambarika">
    <latitude>-15.6666667</latitude>
    <longitude>48.45</longitude>
  </city>
  <city name="Ambarikely">
    <latitude>-19.1333333</latitude>
    <longitude>46.1</longitude>
  </city>
  <city name="Ambarikorano">
    <latitude>-15.8833333</latitude>
    <longitude>48.9666667</longitude>
  </city>
  <city name="Ambarilao">
    <latitude>-12.9833333</latitude>
    <longitude>49.7166667</longitude>
  </city>
  <city name="Ambarimafaitra">
    <latitude>-22.5166667</latitude>
    <longitude>47.3333333</longitude>
  </city>
  <city name="Ambarimahia">
    <latitude>-17.2833333</latitude>
    <longitude>47.8166667</longitude>
  </city>
  <city name="Ambarimamy">
    <latitude>-19.45</latitude>
    <longitude>48.9166667</longitude>
  </city>
  <city name="Ambarimanga">
    <latitude>-16.4166667</latitude>
    <longitude>45.1</longitude>
  </city>
  <city name="Ambarimaninga">
    <latitude>-16.4166667</latitude>
    <longitude>45.1</longitude>
  </city>
  <city name="Ambarimanira">
    <latitude>-23.0333333</latitude>
    <longitude>44.1166667</longitude>
  </city>
  <city name="Ambarimanitra">
    <latitude>-23.0333333</latitude>
    <longitude>44.1166667</longitude>
  </city>
  <city name="Ambarimanitsy">
    <latitude>-25.3333333</latitude>
    <longitude>45.75</longitude>
  </city>
  <city name="Ambarimanjeva">
    <latitude>-15.4666667</latitude>
    <longitude>47.4833333</longitude>
  </city>
  <city name="Ambarimanjevo">
    <latitude>-15.4666667</latitude>
    <longitude>47.4833333</longitude>
  </city>
  <city name="Ambarimanta">
    <latitude>-17.4</latitude>
    <longitude>47.0666667</longitude>
  </city>
  <city name="Ambarimantsina">
    <latitude>-20.0166667</latitude>
    <longitude>48.7</longitude>
  </city>
  <city name="Ambarimay">
    <latitude>-16.7333333</latitude>
    <longitude>49.5</longitude>
  </city>
  <city name="Ambarimbalala">
    <latitude>-16.1333333</latitude>
    <longitude>46.4</longitude>
  </city>
  <city name="Ambarimilamba">
    <latitude>-18.4166667</latitude>
    <longitude>49.1666667</longitude>
  </city>
  <city name="Ambarinakanga">
    <latitude>-17.3333333</latitude>
    <longitude>47.8333333</longitude>
  </city>
  <city name="Ambarinakoho">
    <latitude>-22.6666667</latitude>
    <longitude>45.3666667</longitude>
  </city>
  <city name="Ambarinampy">
    <latitude>-24.9666667</latitude>
    <longitude>47.0833333</longitude>
  </city>
  <city name="Ambarinanahary">
    <latitude>-16.1166667</latitude>
    <longitude>45.5</longitude>
  </city>
  <city name="Ambarinda">
    <latitude>-16.25</latitude>
    <longitude>46.7166667</longitude>
  </city>
  <city name="Ambarindahy">
    <latitude>-16.25</latitude>
    <longitude>46.7166667</longitude>
  </city>
  <city name="Ambarindranabary">
    <latitude>-17.6333333</latitude>
    <longitude>44.95</longitude>
  </city>
  <city name="Ambarindranahary">
    <latitude>-16.45</latitude>
    <longitude>47.2666667</longitude>
  </city>
  <city name="Ambarininahary">
    <latitude>-16.1166667</latitude>
    <longitude>45.5</longitude>
  </city>
  <city name="Ambarinjanahary">
    <latitude>-15.1833333</latitude>
    <longitude>47.7</longitude>
  </city>
  <city name="Ambario">
    <latitude>-24.0333333</latitude>
    <longitude>46.55</longitude>
  </city>
  <city name="Ambariokorano">
    <latitude>-15.8833333</latitude>
    <longitude>48.9666667</longitude>
  </city>
  <city name="Ambariomena">
    <latitude>-13.7166667</latitude>
    <longitude>47.9</longitude>
  </city>
  <city name="Ambariomiambana">
    <latitude>-14.25</latitude>
    <longitude>50.0833333</longitude>
  </city>
  <city name="Ambarionadabo">
    <latitude>-15.5666667</latitude>
    <longitude>47.8833333</longitude>
  </city>
  <city name="Ambarionasara">
    <latitude>-15.6166667</latitude>
    <longitude>47.85</longitude>
  </city>
  <city name="Ambariondolo">
    <latitude>-13.7166667</latitude>
    <longitude>48.1833333</longitude>
  </city>
  <city name="Ambariopanenitra">
    <latitude>-15.4166667</latitude>
    <longitude>47.8666667</longitude>
  </city>
  <city name="Ambariotelo">
    <latitude>-14.2833333</latitude>
    <longitude>50.0333333</longitude>
  </city>
  <city name="Ambaripaika">
    <latitude>-15.9166667</latitude>
    <longitude>48.9666667</longitude>
  </city>
  <city name="Ambaritsatrana">
    <latitude>-12.5333333</latitude>
    <longitude>49.5333333</longitude>
  </city>
  <city name="Ambarivany">
    <latitude>-15.4333333</latitude>
    <longitude>48.1166667</longitude>
  </city>
  <city name="Ambarivao">
    <latitude>-22.0666667</latitude>
    <longitude>47.8333333</longitude>
  </city>
  <city name="Ambarivondrona">
    <latitude>-20.9</latitude>
    <longitude>46.1833333</longitude>
  </city>
  <city name="Ambarivoribe">
    <latitude>-16.85</latitude>
    <longitude>49.0</longitude>
  </city>
  <city name="Ambarizato">
    <latitude>-18.4333333</latitude>
    <longitude>47.8833333</longitude>
  </city>
  <city name="Ambaro">
    <latitude>-12.6</latitude>
    <longitude>49.5666667</longitude>
  </city>
  <city name="Ambarobe">
    <latitude>-20.4666667</latitude>
    <longitude>45.7</longitude>
  </city>
  <city name="Ambaromamoy">
    <latitude>-25.3</latitude>
    <longitude>45.8333333</longitude>
  </city>
  <city name="Ambaromanoy">
    <latitude>-25.3833333</latitude>
    <longitude>45.7666667</longitude>
  </city>
  <city name="Ambaromba">
    <latitude>-14.6666667</latitude>
    <longitude>49.3333333</longitude>
  </city>
  <city name="Ambaromidada Andrefana">
    <latitude>-25.3666667</latitude>
    <longitude>45.6</longitude>
  </city>
  <city name="Ambaromidada Atsinanana">
    <latitude>-25.3833333</latitude>
    <longitude>45.6333333</longitude>
  </city>
  <city name="Ambaromidada Est">
    <latitude>-25.3833333</latitude>
    <longitude>45.6333333</longitude>
  </city>
  <city name="Ambaromidada Ouest">
    <latitude>-25.3666667</latitude>
    <longitude>45.6</longitude>
  </city>
  <city name="Ambarovao">
    <latitude>-22.3833333</latitude>
    <longitude>47.9</longitude>
  </city>
  <city name="Ambary">
    <latitude>-19.8833333</latitude>
    <longitude>46.0333333</longitude>
  </city>
  <city name="Ambasahoka">
    <latitude>-23.9333333</latitude>
    <longitude>44.5666667</longitude>
  </city>
  <city name="Ambasimiviky">
    <latitude>-24.9333333</latitude>
    <longitude>44.0833333</longitude>
  </city>
  <city name="Ambasitila">
    <latitude>-23.9666667</latitude>
    <longitude>47.2666667</longitude>
  </city>
  <city name="Ambasotry">
    <latitude>-13.45</latitude>
    <longitude>49.3666667</longitude>
  </city>
  <city name="Ambasy">
    <latitude>-24.5166667</latitude>
    <longitude>45.3833333</longitude>
  </city>
  <city name="Ambasy Nord">
    <latitude>-25.4333333</latitude>
    <longitude>45.6</longitude>
  </city>
  <city name="Ambasy Sud">
    <latitude>-25.45</latitude>
    <longitude>45.6</longitude>
  </city>
  <city name="Ambata">
    <latitude>-25.4833333</latitude>
    <longitude>45.4833333</longitude>
  </city>
  <city name="Ambata Avaratra">
    <latitude>-20.3333333</latitude>
    <longitude>44.4166667</longitude>
  </city>
  <city name="Ambatabe">
    <latitude>-18.2333333</latitude>
    <longitude>46.25</longitude>
  </city>
  <city name="Ambatamarina">
    <latitude>-19.3333333</latitude>
    <longitude>46.6833333</longitude>
  </city>
  <city name="Ambatambaky">
    <latitude>-16.2166667</latitude>
    <longitude>49.0833333</longitude>
  </city>
  <city name="Ambatanirana">
    <latitude>-18.3666667</latitude>
    <longitude>46.65</longitude>
  </city>
  <city name="Ambatankozo">
    <latitude>-19.6333333</latitude>
    <longitude>45.8333333</longitude>
  </city>
  <city name="Ambatararatavokiky">
    <latitude>-19.8833333</latitude>
    <longitude>45.9666667</longitude>
  </city>
  <city name="Ambatarihy">
    <latitude>-19.9</latitude>
    <longitude>48.0</longitude>
  </city>
  <city name="Ambatata">
    <latitude>-18.6166667</latitude>
    <longitude>45.0333333</longitude>
  </city>
  <city name="Ambatateza">
    <latitude>-18.05</latitude>
    <longitude>48.8666667</longitude>
  </city>
  <city name="Ambataza">
    <latitude>-21.75</latitude>
    <longitude>46.9333333</longitude>
  </city>
  <city name="Ambatelo">
    <latitude>-16.1833333</latitude>
    <longitude>49.4833333</longitude>
  </city>
  <city name="Ambatoabo">
    <latitude>-23.2833333</latitude>
    <longitude>47.4333333</longitude>
  </city>
  <city name="Ambatoafo">
    <latitude>-12.0333333</latitude>
    <longitude>49.25</longitude>
  </city>
  <city name="Ambatoakana">
    <latitude>-18.7</latitude>
    <longitude>47.6166667</longitude>
  </city>
  <city name="Ambato">
    <latitude>-13.4</latitude>
    <longitude>48.4833333</longitude>
  </city>
  <city name="Ambatoampanga">
    <latitude>-18.2833333</latitude>
    <longitude>47.6166667</longitude>
  </city>
  <city name="Ambato-Andrano">
    <latitude>-20.2</latitude>
    <longitude>44.3333333</longitude>
  </city>
  <city name="Ambatoantranokely">
    <latitude>-18.9</latitude>
    <longitude>46.4333333</longitude>
  </city>
  <city name="Ambatoarana">
    <latitude>-15.9333333</latitude>
    <longitude>50.2333333</longitude>
  </city>
  <city name="Ambatoasaina">
    <latitude>-18.4833333</latitude>
    <longitude>45.85</longitude>
  </city>
  <city name="Ambatoasana Afovoany">
    <latitude>-19.05</latitude>
    <longitude>46.7333333</longitude>
  </city>
  <city name="Ambatoasana">
    <latitude>-19.1833333</latitude>
    <longitude>46.35</longitude>
  </city>
  <city name="Ambato Asana-Valabetokana">
    <latitude>-19.3333333</latitude>
    <longitude>46.7666667</longitude>
  </city>
  <city name="Ambatoatrano">
    <latitude>-19.6166667</latitude>
    <longitude>47.5</longitude>
  </city>
  <city name="Ambatobarika">
    <latitude>-14.5166667</latitude>
    <longitude>49.9</longitude>
  </city>
  <city name="Ambatobe">
    <latitude>-12.5666667</latitude>
    <longitude>48.9166667</longitude>
  </city>
  <city name="Ambatobe Ambony">
    <latitude>-23.4166667</latitude>
    <longitude>46.05</longitude>
  </city>
  <city name="Ambatobe-Anjavy">
    <latitude>-13.3166667</latitude>
    <longitude>49.0166667</longitude>
  </city>
  <city name="Ambatobe Atsimo">
    <latitude>-25.25</latitude>
    <longitude>45.4</longitude>
  </city>
  <city name="Ambatobe Besoy">
    <latitude>-24.0333333</latitude>
    <longitude>45.7333333</longitude>
  </city>
  <city name="Ambatoben' Anjavy">
    <latitude>-13.3166667</latitude>
    <longitude>49.0166667</longitude>
  </city>
  <city name="Ambatobe Sud">
    <latitude>-25.2666667</latitude>
    <longitude>45.4</longitude>
  </city>
  <city name="Ambatobimahavelo">
    <latitude>-16.1666667</latitude>
    <longitude>47.7166667</longitude>
  </city>
  <city name="Ambatoboahangy">
    <latitude>-19.5166667</latitude>
    <longitude>46.8166667</longitude>
  </city>
  <city name="Ambato Boeni">
    <latitude>-16.4666667</latitude>
    <longitude>46.7166667</longitude>
  </city>
  <city name="Ambato Boeny">
    <latitude>-16.4666667</latitude>
    <longitude>46.7166667</longitude>
  </city>
  <city name="Ambatoboro">
    <latitude>-23.3333333</latitude>
    <longitude>44.9166667</longitude>
  </city>
  <city name="Ambatobory">
    <latitude>-23.8833333</latitude>
    <longitude>44.6</longitude>
  </city>
  <city name="Ambatodidy">
    <latitude>-19.7333333</latitude>
    <longitude>47.5166667</longitude>
  </city>
  <city name="Ambatodinga">
    <latitude>-21.5</latitude>
    <longitude>47.5833333</longitude>
  </city>
  <city name="Ambatodrenambo">
    <latitude>-18.55</latitude>
    <longitude>47.5166667</longitude>
  </city>
  <city name="Ambatoefatra">
    <latitude>-16.8</latitude>
    <longitude>49.6</longitude>
  </city>
  <city name="Ambatofaingaina">
    <latitude>-21.0833333</latitude>
    <longitude>47.0333333</longitude>
  </city>
  <city name="Ambatofaliha">
    <latitude>-15.6333333</latitude>
    <longitude>46.4666667</longitude>
  </city>
  <city name="Ambatofaly">
    <latitude>-15.8</latitude>
    <longitude>46.7666667</longitude>
  </city>
  <city name="Ambatofamokonana">
    <latitude>-20.9</latitude>
    <longitude>47.6166667</longitude>
  </city>
  <city name="Ambatofangehana">
    <latitude>-20.5</latitude>
    <longitude>47.0166667</longitude>
  </city>
  <city name="Ambatofangery">
    <latitude>-20.1333333</latitude>
    <longitude>47.3833333</longitude>
  </city>
  <city name="Ambatofanto">
    <latitude>-18.5</latitude>
    <longitude>48.6833333</longitude>
  </city>
  <city name="Ambatofaritana">
    <latitude>-21.3666667</latitude>
    <longitude>48.0833333</longitude>
  </city>
  <city name="Ambato Fasy">
    <latitude>-23.4833333</latitude>
    <longitude>47.45</longitude>
  </city>
  <city name="Ambatofinandrahana">
    <latitude>-20.55</latitude>
    <longitude>46.8</longitude>
  </city>
  <city name="Ambatofisaka">
    <latitude>-14.85</latitude>
    <longitude>50.2666667</longitude>
  </city>
  <city name="Ambatofisaka II">
    <latitude>-20.0833333</latitude>
    <longitude>47.9</longitude>
  </city>
  <city name="Ambatofisaorana">
    <latitude>-18.5666667</latitude>
    <longitude>47.7166667</longitude>
  </city>
  <city name="Ambatofitarafana">
    <latitude>-16.2166667</latitude>
    <longitude>49.7833333</longitude>
  </city>
  <city name="Ambatofitatra">
    <latitude>-17.2166667</latitude>
    <longitude>48.1833333</longitude>
  </city>
  <city name="Ambatofitorahana">
    <latitude>-20.8166667</latitude>
    <longitude>47.1833333</longitude>
  </city>
  <city name="Ambatofohy">
    <latitude>-15.1666667</latitude>
    <longitude>48.15</longitude>
  </city>
  <city name="Ambatofolaka">
    <latitude>-16.3666667</latitude>
    <longitude>49.45</longitude>
  </city>
  <city name="Ambatofotsikely">
    <latitude>-18.3</latitude>
    <longitude>46.0333333</longitude>
  </city>
  <city name="Ambatofotsiloha">
    <latitude>-20.9333333</latitude>
    <longitude>47.4666667</longitude>
  </city>
  <city name="Ambatofotsy">
    <latitude>-13.8166667</latitude>
    <longitude>47.8666667</longitude>
  </city>
  <city name="Ambatofotsy-Initeraha">
    <latitude>-23.9666667</latitude>
    <longitude>44.6333333</longitude>
  </city>
  <city name="Ambatohambana">
    <latitude>-18.4</latitude>
    <longitude>48.9166667</longitude>
  </city>
  <city name="Ambatohara">
    <latitude>-15.0</latitude>
    <longitude>47.4166667</longitude>
  </city>
  <city name="Ambatoharamanga">
    <latitude>-17.7166667</latitude>
    <longitude>48.2</longitude>
  </city>
  <city name="Ambatoharana">
    <latitude>-12.95</latitude>
    <longitude>48.9833333</longitude>
  </city>
  <city name="Ambatoharanana">
    <latitude>-12.9166667</latitude>
    <longitude>49.8166667</longitude>
  </city>
  <city name="Ambatoharananaka">
    <latitude>-20.6666667</latitude>
    <longitude>48.4166667</longitude>
  </city>
  <city name="Ambatoharanana Volarivo">
    <latitude>-21.95</latitude>
    <longitude>47.5</longitude>
  </city>
  <city name="Ambatoharana Volarivo">
    <latitude>-21.95</latitude>
    <longitude>47.5</longitude>
  </city>
  <city name="Ambatoharangana">
    <latitude>-13.5333333</latitude>
    <longitude>48.6833333</longitude>
  </city>
  <city name="Ambatoharea">
    <latitude>-24.2666667</latitude>
    <longitude>45.6333333</longitude>
  </city>
  <city name="Ambatohirika">
    <latitude>-21.9666667</latitude>
    <longitude>46.5</longitude>
  </city>
  <city name="Ambatohiriky">
    <latitude>-22.15</latitude>
    <longitude>44.7833333</longitude>
  </city>
  <city name="Ambatoifatra">
    <latitude>-16.8</latitude>
    <longitude>49.6</longitude>
  </city>
  <city name="Ambatojobijoby">
    <latitude>-12.3</latitude>
    <longitude>49.15</longitude>
  </city>
  <city name="Ambatojoby">
    <latitude>-13.7166667</latitude>
    <longitude>49.7166667</longitude>
  </city>
  <city name="Ambatojoly">
    <latitude>-12.6166667</latitude>
    <longitude>49.2666667</longitude>
  </city>
  <city name="Ambatokapaika">
    <latitude>-20.55</latitude>
    <longitude>47.45</longitude>
  </city>
  <city name="Ambatokapika">
    <latitude>-23.9</latitude>
    <longitude>44.5166667</longitude>
  </city>
  <city name="Ambatokasa">
    <latitude>-24.4833333</latitude>
    <longitude>46.9666667</longitude>
  </city>
  <city name="Ambatokely">
    <latitude>-18.2</latitude>
    <longitude>47.6333333</longitude>
  </city>
  <city name="Ambatokintana">
    <latitude>-16.15</latitude>
    <longitude>49.6833333</longitude>
  </city>
  <city name="Ambatokirajy">
    <latitude>-14.8666667</latitude>
    <longitude>48.0666667</longitude>
  </city>
  <city name="Ambatokirintsa">
    <latitude>-13.75</latitude>
    <longitude>48.1666667</longitude>
  </city>
  <city name="Ambatola">
    <latitude>-19.4666667</latitude>
    <longitude>46.6</longitude>
  </city>
  <city name="Ambatolafia">
    <latitude>-16.25</latitude>
    <longitude>44.9333333</longitude>
  </city>
  <city name="Ambatolahiambana">
    <latitude>-21.3666667</latitude>
    <longitude>47.2333333</longitude>
  </city>
  <city name="Ambatolahiazo">
    <latitude>-19.3666667</latitude>
    <longitude>46.1166667</longitude>
  </city>
  <city name="Ambatolahidimy">
    <latitude>-21.25</latitude>
    <longitude>47.0666667</longitude>
  </city>
  <city name="Ambatolahihambana">
    <latitude>-21.3666667</latitude>
    <longitude>47.2333333</longitude>
  </city>
  <city name="Ambatolahihazo">
    <latitude>-19.3666667</latitude>
    <longitude>46.1166667</longitude>
  </city>
  <city name="Ambatolahihazo Est">
    <latitude>-19.3833333</latitude>
    <longitude>46.1333333</longitude>
  </city>
  <city name="Ambatolahimaro">
    <latitude>-19.5</latitude>
    <longitude>46.3666667</longitude>
  </city>
  <city name="Ambatolahimavo">
    <latitude>-21.3833333</latitude>
    <longitude>47.1833333</longitude>
  </city>
  <city name="Ambatolahimisoratra">
    <latitude>-20.4</latitude>
    <longitude>47.3</longitude>
  </city>
  <city name="Ambatolahinaory">
    <latitude>-24.9333333</latitude>
    <longitude>44.7666667</longitude>
  </city>
  <city name="Ambatolahindrabekibo">
    <latitude>-19.4666667</latitude>
    <longitude>46.5166667</longitude>
  </city>
  <city name="Ambatolahindrano">
    <latitude>-21.3166667</latitude>
    <longitude>47.15</longitude>
  </city>
  <city name="Ambatolahisoa">
    <latitude>-19.2166667</latitude>
    <longitude>46.4166667</longitude>
  </city>
  <city name="Ambatolahitelo">
    <latitude>-21.3166667</latitude>
    <longitude>47.2666667</longitude>
  </city>
  <city name="Ambatolahivondraka">
    <latitude>-21.0833333</latitude>
    <longitude>47.3666667</longitude>
  </city>
  <city name="Ambatolahy">
    <latitude>-20.6</latitude>
    <longitude>46.8333333</longitude>
  </city>
  <city name="Ambatolahy-Sarodrano">
    <latitude>-22.4</latitude>
    <longitude>44.2166667</longitude>
  </city>
  <city name="Ambatolahy-Soaserana">
    <latitude>-22.4166667</latitude>
    <longitude>44.1833333</longitude>
  </city>
  <city name="Ambatolalaka">
    <latitude>-14.1333333</latitude>
    <longitude>49.7666667</longitude>
  </city>
  <city name="Ambatolalona">
    <latitude>-20.2166667</latitude>
    <longitude>48.2833333</longitude>
  </city>
  <city name="Ambatolamakana">
    <latitude>-20.0166667</latitude>
    <longitude>48.1166667</longitude>
  </city>
  <city name="Ambatolampikely">
    <latitude>-17.2333333</latitude>
    <longitude>47.5</longitude>
  </city>
  <city name="Ambatolampy">
    <latitude>-12.3166667</latitude>
    <longitude>49.4333333</longitude>
  </city>
  <city name="Ambatolampy Bas">
    <latitude>-19.4</latitude>
    <longitude>47.45</longitude>
  </city>
  <city name="Ambatolaona">
    <latitude>-18.9333333</latitude>
    <longitude>47.9</longitude>
  </city>
  <city name="Ambatolatelo">
    <latitude>-21.3166667</latitude>
    <longitude>47.2666667</longitude>
  </city>
  <city name="Ambatolava">
    <latitude>-21.3</latitude>
    <longitude>46.75</longitude>
  </city>
  <city name="Ambatoloaka">
    <latitude>-13.3833333</latitude>
    <longitude>48.2</longitude>
  </city>
  <city name="Ambatoloaka Atsimo">
    <latitude>-16.3666667</latitude>
    <longitude>48.1</longitude>
  </city>
  <city name="Ambatoloaka Avaratra">
    <latitude>-16.3166667</latitude>
    <longitude>48.1166667</longitude>
  </city>
  <city name="Ambatolomaka">
    <latitude>-20.0166667</latitude>
    <longitude>48.1166667</longitude>
  </city>
  <city name="Ambatolongo">
    <latitude>-14.45</latitude>
    <longitude>49.9333333</longitude>
  </city>
  <city name="Ambatomadinika">
    <latitude>-19.3666667</latitude>
    <longitude>46.3333333</longitude>
  </city>
  <city name="Ambatomafana">
    <latitude>-17.4</latitude>
    <longitude>48.7</longitude>
  </city>
  <city name="Ambatomahamanina">
    <latitude>-18.7666667</latitude>
    <longitude>47.6166667</longitude>
  </city>
  <city name="Ambatomaintikely">
    <latitude>-17.7166667</latitude>
    <longitude>45.2</longitude>
  </city>
  <city name="Ambatomaintingoro">
    <latitude>-17.4</latitude>
    <longitude>48.7666667</longitude>
  </city>
  <city name="Ambatomainty">
    <latitude>-13.4666667</latitude>
    <longitude>48.75</longitude>
  </city>
  <city name="Ambatomainty Avaratra">
    <latitude>-17.9</latitude>
    <longitude>46.4166667</longitude>
  </city>
  <city name="Ambatomainty Nord">
    <latitude>-22.6</latitude>
    <longitude>44.3166667</longitude>
  </city>
  <city name="Ambatomaladia">
    <latitude>-19.65</latitude>
    <longitude>48.6833333</longitude>
  </city>
  <city name="Ambatomalady">
    <latitude>-19.65</latitude>
    <longitude>48.6833333</longitude>
  </city>
  <city name="Ambatomalama">
    <latitude>-20.45</latitude>
    <longitude>47.1333333</longitude>
  </city>
  <city name="Ambatomalaza">
    <latitude>-13.8833333</latitude>
    <longitude>50.0166667</longitude>
  </city>
  <city name="Ambatomamy">
    <latitude>-16.8166667</latitude>
    <longitude>46.3</longitude>
  </city>
  <city name="Ambatomana">
    <latitude>-23.6</latitude>
    <longitude>47.55</longitude>
  </city>
  <city name="Ambatomanaky">
    <latitude>-23.9333333</latitude>
    <longitude>46.35</longitude>
  </city>
  <city name="Ambatomanambahatsa">
    <latitude>-24.5666667</latitude>
    <longitude>44.9666667</longitude>
  </city>
  <city name="Ambatomanana">
    <latitude>-17.55</latitude>
    <longitude>49.0166667</longitude>
  </city>
  <city name="Ambatomanandoha">
    <latitude>-18.0666667</latitude>
    <longitude>49.3</longitude>
  </city>
  <city name="Ambatomandondona">
    <latitude>-17.2333333</latitude>
    <longitude>47.5833333</longitude>
  </city>
  <city name="Ambatomaneka">
    <latitude>-24.4666667</latitude>
    <longitude>47.0</longitude>
  </city>
  <city name="Ambatomaneno">
    <latitude>-17.3666667</latitude>
    <longitude>49.2166667</longitude>
  </city>
  <city name="Ambatomanga">
    <latitude>-21.8833333</latitude>
    <longitude>48.0333333</longitude>
  </city>
  <city name="Ambatomanjaka">
    <latitude>-20.7166667</latitude>
    <longitude>47.7</longitude>
  </city>
  <city name="Ambatomanjake">
    <latitude>-18.5166667</latitude>
    <longitude>47.7333333</longitude>
  </city>
  <city name="Ambatomanoakaza">
    <latitude>-18.9666667</latitude>
    <longitude>46.3666667</longitude>
  </city>
  <city name="Ambatomanoakazo">
    <latitude>-18.9666667</latitude>
    <longitude>46.3666667</longitude>
  </city>
  <city name="Ambatomanoina">
    <latitude>-18.3</latitude>
    <longitude>47.6166667</longitude>
  </city>
  <city name="Ambatomanoy">
    <latitude>-25.1</latitude>
    <longitude>45.5166667</longitude>
  </city>
  <city name="Ambatomarako">
    <latitude>-15.0666667</latitude>
    <longitude>48.3833333</longitude>
  </city>
  <city name="Ambatomaraoka">
    <latitude>-15.0666667</latitude>
    <longitude>48.3833333</longitude>
  </city>
  <city name="Ambatomarina">
    <latitude>-20.5833333</latitude>
    <longitude>47.0166667</longitude>
  </city>
  <city name="Ambatomaro">
    <latitude>-19.4333333</latitude>
    <longitude>48.0666667</longitude>
  </city>
  <city name="Ambatomasina">
    <latitude>-13.6666667</latitude>
    <longitude>49.5833333</longitude>
  </city>
  <city name="Ambatomasino">
    <latitude>-19.2166667</latitude>
    <longitude>48.3833333</longitude>
  </city>
  <city name="Ambatomaso">
    <latitude>-23.3</latitude>
    <longitude>45.7833333</longitude>
  </city>
  <city name="Ambatomasy">
    <latitude>-23.3</latitude>
    <longitude>45.7833333</longitude>
  </city>
  <city name="Ambatomay">
    <latitude>-15.5666667</latitude>
    <longitude>48.1</longitude>
  </city>
  <city name="Ambatombaky">
    <latitude>-16.2166667</latitude>
    <longitude>49.0833333</longitude>
  </city>
  <city name="Ambatombe">
    <latitude>-18.5666667</latitude>
    <longitude>48.8333333</longitude>
  </city>
  <city name="Ambatomboahangy">
    <latitude>-19.5166667</latitude>
    <longitude>46.8166667</longitude>
  </city>
  <city name="Ambatomboay">
    <latitude>-22.25</latitude>
    <longitude>47.0166667</longitude>
  </city>
  <city name="Ambatomboro">
    <latitude>-19.05</latitude>
    <longitude>46.75</longitude>
  </city>
  <city name="Ambatomboromahery">
    <latitude>-16.6</latitude>
    <longitude>47.5833333</longitude>
  </city>
  <city name="Ambatomborona">
    <latitude>-19.3</latitude>
    <longitude>47.15</longitude>
  </city>
  <city name="Ambatombositra">
