<?xml version="1.0" encoding="UTF-8"?>
<country code="ml" name="Mali">
  <city name="Abaladougou Kéniéba">
    <latitude>12.0444444</latitude>
    <longitude>-8.6280556</longitude>
  </city>
  <city name="Abdalaye">
    <latitude>15.2833333</latitude>
    <longitude>-5.3333333</longitude>
  </city>
  <city name="Abdoul Sinia">
    <latitude>14.9333333</latitude>
    <longitude>-11.75</longitude>
  </city>
  <city name="Abdourahmane">
    <latitude>14.7833333</latitude>
    <longitude>-4.2333333</longitude>
  </city>
  <city name="Abdouramane">
    <latitude>14.7833333</latitude>
    <longitude>-4.2333333</longitude>
  </city>
  <city name="Abdou Salam">
    <latitude>16.85</latitude>
    <longitude>-0.35</longitude>
  </city>
  <city name="Abeïbara">
    <latitude>19.1166667</latitude>
    <longitude>1.75</longitude>
  </city>
  <city name="Acil Barhé">
    <latitude>15.0</latitude>
    <longitude>-9.2333333</longitude>
  </city>
  <city name="Acil Barké">
    <latitude>15.0</latitude>
    <longitude>-9.2333333</longitude>
  </city>
  <city name="Adabaï Mahamoud">
    <latitude>16.0833333</latitude>
    <longitude>-2.6833333</longitude>
  </city>
  <city name="Adamabougou">
    <latitude>13.3333333</latitude>
    <longitude>-5.2</longitude>
  </city>
  <city name="Adia">
    <latitude>14.95</latitude>
    <longitude>-3.1166667</longitude>
  </city>
  <city name="Adiata">
    <latitude>17.0</latitude>
    <longitude>-1.4833333</longitude>
  </city>
  <city name="Adjiba">
    <latitude>16.8</latitude>
    <longitude>-2.3666667</longitude>
  </city>
  <city name="Adjila">
    <latitude>10.55</latitude>
    <longitude>-8.1833333</longitude>
  </city>
  <city name="Adjilamina">
    <latitude>10.6666667</latitude>
    <longitude>-8.25</longitude>
  </city>
  <city name="Adjilaminina">
    <latitude>10.6666667</latitude>
    <longitude>-8.25</longitude>
  </city>
  <city name="Adlaye Sidi">
    <latitude>15.3</latitude>
    <longitude>-5.3166667</longitude>
  </city>
  <city name="Adourakamé">
    <latitude>14.2166667</latitude>
    <longitude>-3.0333333</longitude>
  </city>
  <city name="Adyanabangou">
    <latitude>16.0666667</latitude>
    <longitude>-3.8833333</longitude>
  </city>
  <city name="Adyar">
    <latitude>16.2333333</latitude>
    <longitude>-3.5666667</longitude>
  </city>
  <city name="Adyèngo">
    <latitude>16.1</latitude>
    <longitude>-3.7166667</longitude>
  </city>
  <city name="Afia">
    <latitude>12.0333333</latitude>
    <longitude>-10.6333333</longitude>
  </city>
  <city name="Agaminan Taoussa">
    <latitude>16.4166667</latitude>
    <longitude>-3.1833333</longitude>
  </city>
  <city name="Agata">
    <latitude>17.0</latitude>
    <longitude>-1.4833333</longitude>
  </city>
  <city name="Ag Ènzali">
    <latitude>16.9166667</latitude>
    <longitude>-1.7833333</longitude>
  </city>
  <city name="Aguel-Hoc">
    <latitude>19.4544444</latitude>
    <longitude>0.8563889</longitude>
  </city>
  <city name="Aguelhok">
    <latitude>19.4544444</latitude>
    <longitude>0.8563889</longitude>
  </city>
  <city name="Aguelock">
    <latitude>19.4544444</latitude>
    <longitude>0.8563889</longitude>
  </city>
  <city name="Aguelok">
    <latitude>19.4544444</latitude>
    <longitude>0.8563889</longitude>
  </city>
  <city name="Aguilamina">
    <latitude>10.6666667</latitude>
    <longitude>-8.25</longitude>
  </city>
  <city name="Aguinaouiaoui">
    <latitude>16.4</latitude>
    <longitude>-0.1</longitude>
  </city>
  <city name="Ahagala">
    <latitude>15.4833333</latitude>
    <longitude>-9.25</longitude>
  </city>
  <city name="Ahaman Koïro">
    <latitude>16.8</latitude>
    <longitude>-0.3166667</longitude>
  </city>
  <city name="Ahel Barké">
    <latitude>15.3666667</latitude>
    <longitude>-11.55</longitude>
  </city>
  <city name="Ahel Falouté">
    <latitude>15.3666667</latitude>
    <longitude>-11.6666667</longitude>
  </city>
  <city name="Ahmdèg">
    <latitude>16.0666667</latitude>
    <longitude>-2.6666667</longitude>
  </city>
  <city name="Aïbongo">
    <latitude>16.2166667</latitude>
    <longitude>-3.25</longitude>
  </city>
  <city name="Aïna">
    <latitude>16.2333333</latitude>
    <longitude>-3.2333333</longitude>
  </city>
  <city name="Aïnamolo">
    <latitude>14.7833333</latitude>
    <longitude>-11.2166667</longitude>
  </city>
  <city name="Aïnessaba">
    <latitude>14.7833333</latitude>
    <longitude>-11.2666667</longitude>
  </city>
  <city name="Aïté">
    <latitude>15.0833333</latitude>
    <longitude>-11.65</longitude>
  </city>
  <city name="Aka">
    <latitude>15.4</latitude>
    <longitude>-4.2333333</longitude>
  </city>
  <city name="Akaban">
    <latitude>16.2166667</latitude>
    <longitude>-3.5</longitude>
  </city>
  <city name="Akarankom">
    <latitude>16.7166667</latitude>
    <longitude>-0.2666667</longitude>
  </city>
  <city name="Akka">
    <latitude>15.4</latitude>
    <longitude>-4.2333333</longitude>
  </city>
  <city name="Akor">
    <latitude>14.8833333</latitude>
    <longitude>-6.9666667</longitude>
  </city>
  <city name="Akor Tegdawich">
    <latitude>15.4</latitude>
    <longitude>-6.9166667</longitude>
  </city>
  <city name="Akouakiza">
    <latitude>16.05</latitude>
    <longitude>-3.5</longitude>
  </city>
  <city name="Akoumbouro">
    <latitude>14.4666667</latitude>
    <longitude>-2.15</longitude>
  </city>
  <city name="Alabi">
    <latitude>15.1666667</latitude>
    <longitude>-1.5833333</longitude>
  </city>
  <city name="Alafo">
    <latitude>16.1166667</latitude>
    <longitude>-3.4</longitude>
  </city>
  <city name="Alahina">
    <latitude>15.2333333</latitude>
    <longitude>-8.75</longitude>
  </city>
  <city name="Alahiné">
    <latitude>14.6833333</latitude>
    <longitude>-10.2166667</longitude>
  </city>
  <city name="Alaïna">
    <latitude>14.6666667</latitude>
    <longitude>-11.1833333</longitude>
  </city>
  <city name="Alakanda">
    <latitude>14.2166667</latitude>
    <longitude>-3.6166667</longitude>
  </city>
  <city name="Alakat">
    <latitude>16.7</latitude>
    <longitude>-3.7166667</longitude>
  </city>
  <city name="Alamakolo">
    <latitude>12.15</latitude>
    <longitude>-10.6833333</longitude>
  </city>
  <city name="Alamba">
    <latitude>16.85</latitude>
    <longitude>-2.05</longitude>
  </city>
  <city name="Alamoutala">
    <latitude>14.0</latitude>
    <longitude>-13.75</longitude>
  </city>
  <city name="Alana">
    <latitude>15.25</latitude>
    <longitude>-9.7333333</longitude>
  </city>
  <city name="Alasio">
    <latitude>14.9166667</latitude>
    <longitude>-8.0166667</longitude>
  </city>
  <city name="Alaso">
    <latitude>14.9166667</latitude>
    <longitude>-8.0166667</longitude>
  </city>
  <city name="Alassanila">
    <latitude>14.35</latitude>
    <longitude>-11.4833333</longitude>
  </city>
  <city name="Alasso">
    <latitude>14.9166667</latitude>
    <longitude>-8.0166667</longitude>
  </city>
  <city name="Alatana">
    <latitude>14.8</latitude>
    <longitude>-5.9333333</longitude>
  </city>
  <city name="Alatona">
    <latitude>14.8</latitude>
    <longitude>-5.9333333</longitude>
  </city>
  <city name="Alaya">
    <latitude>12.1166667</latitude>
    <longitude>-10.7166667</longitude>
  </city>
  <city name="Alékanda">
    <latitude>14.5</latitude>
    <longitude>-3.0666667</longitude>
  </city>
  <city name="Alfao">
    <latitude>16.6333333</latitude>
    <longitude>-3.7666667</longitude>
  </city>
  <city name="Alfo">
    <latitude>16.6333333</latitude>
    <longitude>-3.7666667</longitude>
  </city>
  <city name="Alidiamani">
    <latitude>12.8166667</latitude>
    <longitude>-10.9833333</longitude>
  </city>
  <city name="Alifabougou">
    <latitude>12.0908333</latitude>
    <longitude>-8.0422222</longitude>
  </city>
  <city name="Ali Hamadou Lilaé">
    <latitude>10.6</latitude>
    <longitude>-6.2</longitude>
  </city>
  <city name="Alikui">
    <latitude>13.3333333</latitude>
    <longitude>-4.6833333</longitude>
  </city>
  <city name="Alkamsara">
    <latitude>16.2</latitude>
    <longitude>-0.0833333</longitude>
  </city>
  <city name="Alkanabangou">
    <latitude>16.7166667</latitude>
    <longitude>-3.8833333</longitude>
  </city>
  <city name="Allafo">
    <latitude>16.1166667</latitude>
    <longitude>-3.4</longitude>
  </city>
  <city name="Allah Ina">
    <latitude>14.4833333</latitude>
    <longitude>-11.5</longitude>
  </city>
  <city name="Alla-Kanda">
    <latitude>14.5</latitude>
    <longitude>-3.0666667</longitude>
  </city>
  <city name="All">
    <latitude>13.7666667</latitude>
    <longitude>-3.6833333</longitude>
  </city>
  <city name="Almami">
    <latitude>14.9333333</latitude>
    <longitude>-5.0166667</longitude>
  </city>
  <city name="Almaniana">
    <latitude>14.8333333</latitude>
    <longitude>-5.3166667</longitude>
  </city>
  <city name="Almoustarat">
    <latitude>17.3666667</latitude>
    <longitude>0.0872222</longitude>
  </city>
  <city name="Alouléna">
    <latitude>13.0166667</latitude>
    <longitude>-9.55</longitude>
  </city>
  <city name="Ama">
    <latitude>14.0833333</latitude>
    <longitude>-3.75</longitude>
  </city>
  <city name="Amadilimane">
    <latitude>14.7833333</latitude>
    <longitude>-5.8333333</longitude>
  </city>
  <city name="Amadi Oumourou">
    <latitude>15.3333333</latitude>
    <longitude>-9.65</longitude>
  </city>
  <city name="Amadou Ali Wéré">
    <latitude>13.85</latitude>
    <longitude>-4.9166667</longitude>
  </city>
  <city name="Amadou Bafinnka">
    <latitude>13.65</latitude>
    <longitude>-5.7833333</longitude>
  </city>
  <city name="Amadoubougou">
    <latitude>12.6877778</latitude>
    <longitude>-7.3436111</longitude>
  </city>
  <city name="Amadou Doso Waré">
    <latitude>14.2333333</latitude>
    <longitude>-6.0833333</longitude>
  </city>
  <city name="Amadou Mama">
    <latitude>15.2</latitude>
    <longitude>-8.4166667</longitude>
  </city>
  <city name="Amakabougou">
    <latitude>13.95</latitude>
    <longitude>-7.5333333</longitude>
  </city>
  <city name="Amakouladji">
    <latitude>16.6</latitude>
    <longitude>-0.1</longitude>
  </city>
  <city name="Ama Koyra">
    <latitude>16.0166667</latitude>
    <longitude>-3.8666667</longitude>
  </city>
  <city name="Am">
    <latitude>14.1666667</latitude>
    <longitude>-2.9333333</longitude>
  </city>
  <city name="Amankobé">
    <latitude>15.35</latitude>
    <longitude>-5.5</longitude>
  </city>
  <city name="Amara">
    <latitude>15.0166667</latitude>
    <longitude>-9.05</longitude>
  </city>
  <city name="Amaragoungou">
    <latitude>16.7833333</latitude>
    <longitude>-2.35</longitude>
  </city>
  <city name="Amarékouléla">
    <latitude>13.3666667</latitude>
    <longitude>-7.45</longitude>
  </city>
  <city name="Amarosseldabay">
    <latitude>16.2333333</latitude>
    <longitude>-3.5</longitude>
  </city>
  <city name="Amata">
    <latitude>16.5</latitude>
    <longitude>-0.0666667</longitude>
  </city>
  <city name="Amba">
    <latitude>14.7833333</latitude>
    <longitude>-3.5333333</longitude>
  </city>
  <city name="Ambaka">
    <latitude>14.9166667</latitude>
    <longitude>-3.1166667</longitude>
  </city>
  <city name="Ambidédi">
    <latitude>14.5833333</latitude>
    <longitude>-11.7833333</longitude>
  </city>
  <city name="Amdalay">
    <latitude>12.0205556</latitude>
    <longitude>-8.3266667</longitude>
  </city>
  <city name="Amdalaye">
    <latitude>12.05</latitude>
    <longitude>-10.6166667</longitude>
  </city>
  <city name="Amdalaye-Timmbou">
    <latitude>12.05</latitude>
    <longitude>-10.6166667</longitude>
  </city>
  <city name="Amderamboukan">
    <latitude>15.4283333</latitude>
    <longitude>3.0183333</longitude>
  </city>
  <city name="Amdéramboukane">
    <latitude>15.4283333</latitude>
    <longitude>3.0183333</longitude>
  </city>
  <city name="Amgoundji">
    <latitude>17.05</latitude>
    <longitude>-1.1333333</longitude>
  </city>
  <city name="Amilalé">
    <latitude>15.4166667</latitude>
    <longitude>-11.6833333</longitude>
  </city>
  <city name="Ammdalaï">
    <latitude>13.5333333</latitude>
    <longitude>-6.05</longitude>
  </city>
  <city name="Amo">
    <latitude>14.0833333</latitude>
    <longitude>-3.75</longitude>
  </city>
  <city name="Anakaga">
    <latitude>14.0</latitude>
    <longitude>-3.3</longitude>
  </city>
  <city name="Anakanda">
    <latitude>13.8166667</latitude>
    <longitude>-3.3333333</longitude>
  </city>
  <city name="Anamangataré">
    <latitude>15.15</latitude>
    <longitude>-9.1833333</longitude>
  </city>
  <city name="Anamérho">
    <latitude>13.9</latitude>
    <longitude>-11.4666667</longitude>
  </city>
  <city name="Anamouniéla">
    <latitude>13.8833333</latitude>
    <longitude>-3.5333333</longitude>
  </city>
  <city name="Andagoye">
    <latitude>15.5333333</latitude>
    <longitude>-3.3333333</longitude>
  </city>
  <city name="Andakaga">
    <latitude>14.1333333</latitude>
    <longitude>-3.0666667</longitude>
  </city>
  <city name="Andélaye">
    <latitude>13.5666667</latitude>
    <longitude>-3.6333333</longitude>
  </city>
  <city name="Anderamboukan">
    <latitude>15.4283333</latitude>
    <longitude>3.0183333</longitude>
  </city>
  <city name="Andéramboukane">
    <latitude>15.4283333</latitude>
    <longitude>3.0183333</longitude>
  </city>
  <city name="Andéranboukane">
    <latitude>15.4283333</latitude>
    <longitude>3.0183333</longitude>
  </city>
  <city name="Andiama">
    <latitude>14.05</latitude>
    <longitude>-3.4</longitude>
  </city>
  <city name="Andjébí">
    <latitude>16.3333333</latitude>
    <longitude>-3.1666667</longitude>
  </city>
  <city name="Anéfis">
    <latitude>18.04</latitude>
    <longitude>0.6011111</longitude>
  </city>
  <city name="Anéfis In Daran">
    <latitude>18.04</latitude>
    <longitude>0.6011111</longitude>
  </city>
  <city name="Anefis i-n-Darane">
    <latitude>18.04</latitude>
    <longitude>0.6011111</longitude>
  </city>
  <city name="Anfoulgoulaye">
    <latitude>15.9333333</latitude>
    <longitude>-3.45</longitude>
  </city>
  <city name="Anfwakui">
    <latitude>13.1333333</latitude>
    <longitude>-4.75</longitude>
  </city>
  <city name="Anga">
    <latitude>14.7166667</latitude>
    <longitude>-3.5666667</longitude>
  </city>
  <city name="Angabéré">
    <latitude>16.5833333</latitude>
    <longitude>-3.7333333</longitude>
  </city>
  <city name="Angambongo">
    <latitude>16.3666667</latitude>
    <longitude>-3.3666667</longitude>
  </city>
  <city name="Angira">
    <latitude>15.8166667</latitude>
    <longitude>-4.1</longitude>
  </city>
  <city name="Anguihoro">
    <latitude>12.7</latitude>
    <longitude>-10.2166667</longitude>
  </city>
  <city name="Ankora">
    <latitude>15.9666667</latitude>
    <longitude>-3.6833333</longitude>
  </city>
  <city name="Ankoum">
    <latitude>15.25</latitude>
    <longitude>0.7166667</longitude>
  </city>
  <city name="Ankoum Myo">
    <latitude>15.2666667</latitude>
    <longitude>0.7333333</longitude>
  </city>
  <city name="Ansofiri">
    <latitude>14.0833333</latitude>
    <longitude>-10.3166667</longitude>
  </city>
  <city name="Ansofry">
    <latitude>14.0833333</latitude>
    <longitude>-10.3166667</longitude>
  </city>
  <city name="Ansongo">
    <latitude>15.6594444</latitude>
    <longitude>0.5016667</longitude>
  </city>
  <city name="Antam">
    <latitude>15.2833333</latitude>
    <longitude>0.7166667</longitude>
  </city>
  <city name="Antam Myo">
    <latitude>15.2833333</latitude>
    <longitude>0.7333333</longitude>
  </city>
  <city name="Anté">
    <latitude>14.65</latitude>
    <longitude>-3.1666667</longitude>
  </city>
  <city name="Antona">
    <latitude>12.5</latitude>
    <longitude>-5.7166667</longitude>
  </city>
  <city name="Aoré">
    <latitude>15.5166667</latitude>
    <longitude>-4.3166667</longitude>
  </city>
  <city name="Aoua">
    <latitude>16.9833333</latitude>
    <longitude>-0.4666667</longitude>
  </city>
  <city name="Aouadi">
    <latitude>14.75</latitude>
    <longitude>-6.5666667</longitude>
  </city>
  <city name="Aouaki">
    <latitude>16.05</latitude>
    <longitude>-3.5</longitude>
  </city>
  <city name="Aoudiaï Yoro Ali">
    <latitude>15.0833333</latitude>
    <longitude>-9.5833333</longitude>
  </city>
  <city name="'Aoueïna">
    <latitude>14.8666667</latitude>
    <longitude>-8.3833333</longitude>
  </city>
  <city name="Aouga">
    <latitude>15.9333333</latitude>
    <longitude>-3.5</longitude>
  </city>
  <city name="Aouoye">
    <latitude>15.3833333</latitude>
    <longitude>-4.1166667</longitude>
  </city>
  <city name="Aouré">
    <latitude>15.5166667</latitude>
    <longitude>-4.3166667</longitude>
  </city>
  <city name="Aourou">
    <latitude>14.95</latitude>
    <longitude>-11.5833333</longitude>
  </city>
  <city name="Aouzourou">
    <latitude>16.95</latitude>
    <longitude>-0.3666667</longitude>
  </city>
  <city name="Ara Ara Aramgoui">
    <latitude>16.4333333</latitude>
    <longitude>-3.3166667</longitude>
  </city>
  <city name="Ara Ara Harikouna">
    <latitude>16.4</latitude>
    <longitude>-3.3333333</longitude>
  </city>
  <city name="Arabangi">
    <latitude>15.1</latitude>
    <longitude>-1.9333333</longitude>
  </city>
  <city name="Arabangui">
    <latitude>15.1</latitude>
    <longitude>-1.9333333</longitude>
  </city>
  <city name="Arabébé">
    <latitude>16.0666667</latitude>
    <longitude>-3.8</longitude>
  </city>
  <city name="Arabou">
    <latitude>16.1666667</latitude>
    <longitude>-0.0166667</longitude>
  </city>
  <city name="Araham">
    <latitude>16.3833333</latitude>
    <longitude>-3.3666667</longitude>
  </city>
  <city name="Arahan">
    <latitude>16.3833333</latitude>
    <longitude>-3.3666667</longitude>
  </city>
  <city name="Aranga">
    <latitude>15.4666667</latitude>
    <longitude>-4.1666667</longitude>
  </city>
  <city name="Araouan">
    <latitude>18.9</latitude>
    <longitude>-3.55</longitude>
  </city>
  <city name="Araouane">
    <latitude>18.9</latitude>
    <longitude>-3.55</longitude>
  </city>
  <city name="Araoune">
    <latitude>18.9</latitude>
    <longitude>-3.55</longitude>
  </city>
  <city name="Arawan">
    <latitude>18.9</latitude>
    <longitude>-3.55</longitude>
  </city>
  <city name="Arbichi">
    <latitude>16.8166667</latitude>
    <longitude>-2.25</longitude>
  </city>
  <city name="Archâni">
    <latitude>14.8666667</latitude>
    <longitude>-8.6166667</longitude>
  </city>
  <city name="Argaga">
    <latitude>16.75</latitude>
    <longitude>-0.25</longitude>
  </city>
  <city name="Argan">
    <latitude>17.0</latitude>
    <longitude>-1.3333333</longitude>
  </city>
  <city name="Arguéto">
    <latitude>12.9333333</latitude>
    <longitude>-9.9</longitude>
  </city>
  <city name="Arh">
    <latitude>14.9833333</latitude>
    <longitude>-8.4833333</longitude>
  </city>
  <city name="Arhor">
    <latitude>15.3666667</latitude>
    <longitude>-6.55</longitude>
  </city>
  <city name="Aridiana">
    <latitude>13.8166667</latitude>
    <longitude>-3.4833333</longitude>
  </city>
  <city name="Arifonda">
    <latitude>15.15</latitude>
    <longitude>-9.75</longitude>
  </city>
  <city name="Arimèno">
    <latitude>16.9833333</latitude>
    <longitude>-1.4666667</longitude>
  </city>
  <city name="Arkodia">
    <latitude>15.7666667</latitude>
    <longitude>-3.6166667</longitude>
  </city>
  <city name="Arlal">
    <latitude>16.6166667</latitude>
    <longitude>-2.6833333</longitude>
  </city>
  <city name="Arlatinndala">
    <latitude>15.0333333</latitude>
    <longitude>-9.1</longitude>
  </city>
  <city name="Arnachi">
    <latitude>16.7166667</latitude>
    <longitude>-2.8</longitude>
  </city>
  <city name="Arnasey">
    <latitude>16.7166667</latitude>
    <longitude>-2.8</longitude>
  </city>
  <city name="Arnassey">
    <latitude>16.7166667</latitude>
    <longitude>-2.8</longitude>
  </city>
  <city name="Arnassi">
    <latitude>16.7166667</latitude>
    <longitude>-2.8</longitude>
  </city>
  <city name="Arsi-Bella">
    <latitude>15.8833333</latitude>
    <longitude>-3.3333333</longitude>
  </city>
  <city name="Arsi Belladé">
    <latitude>15.8833333</latitude>
    <longitude>-3.3333333</longitude>
  </city>
  <city name="Arsi Foulbé">
    <latitude>15.8666667</latitude>
    <longitude>-3.3333333</longitude>
  </city>
  <city name="Asandyi">
    <latitude>14.3333333</latitude>
    <longitude>-8.3</longitude>
  </city>
  <city name="Assaguèryé">
    <latitude>16.9666667</latitude>
    <longitude>-0.3666667</longitude>
  </city>
  <city name="Assakongo">
    <latitude>16.3833333</latitude>
    <longitude>-3.3</longitude>
  </city>
  <city name="Assamangataré">
    <latitude>15.15</latitude>
    <longitude>-9.1833333</longitude>
  </city>
  <city name="Assamangatéré">
    <latitude>15.15</latitude>
    <longitude>-9.1833333</longitude>
  </city>
  <city name="Assamorola">
    <latitude>11.3666667</latitude>
    <longitude>-8.2166667</longitude>
  </city>
  <city name="Assandyi">
    <latitude>14.3333333</latitude>
    <longitude>-8.3</longitude>
  </city>
  <city name="Assanmangatéré">
    <latitude>14.8</latitude>
    <longitude>-10.3</longitude>
  </city>
  <city name="Assatiémala">
    <latitude>14.7166667</latitude>
    <longitude>-10.1</longitude>
  </city>
  <city name="Assil Barké">
    <latitude>15.0</latitude>
    <longitude>-9.2333333</longitude>
  </city>
  <city name="Assobol">
    <latitude>16.2333333</latitude>
    <longitude>-3.7333333</longitude>
  </city>
  <city name="Assonfri">
    <latitude>14.0833333</latitude>
    <longitude>-10.3166667</longitude>
  </city>
  <city name="Ata">
    <latitude>16.1833333</latitude>
    <longitude>-3.7</longitude>
  </city>
  <city name="Atamakolo">
    <latitude>12.15</latitude>
    <longitude>-10.6833333</longitude>
  </city>
  <city name="Atil Barké">
    <latitude>15.0</latitude>
    <longitude>-9.2333333</longitude>
  </city>
  <city name="Atta">
    <latitude>16.1833333</latitude>
    <longitude>-3.7</longitude>
  </city>
  <city name="Attaï">
    <latitude>16.1833333</latitude>
    <longitude>-3.7</longitude>
  </city>
  <city name="Attara">
    <latitude>15.6666667</latitude>
    <longitude>-4.35</longitude>
  </city>
  <city name="Awâdi">
    <latitude>14.75</latitude>
    <longitude>-6.5666667</longitude>
  </city>
  <city name="Awala">
    <latitude>12.7463889</latitude>
    <longitude>-8.3608333</longitude>
  </city>
  <city name="Aweyna">
    <latitude>14.8666667</latitude>
    <longitude>-8.3833333</longitude>
  </city>
  <city name="Awoéni">
    <latitude>15.15</latitude>
    <longitude>-9.55</longitude>
  </city>
  <city name="Awoye">
    <latitude>15.3833333</latitude>
    <longitude>-4.1166667</longitude>
  </city>
  <city name="Aya">
    <latitude>15.7666667</latitude>
    <longitude>-3.7166667</longitude>
  </city>
  <city name="Ayoun Goupou">
    <latitude>15.4166667</latitude>
    <longitude>-8.1333333</longitude>
  </city>
  <city name="Azanga">
    <latitude>13.9333333</latitude>
    <longitude>-3.3666667</longitude>
  </city>
  <city name="Baakara">
    <latitude>11.95</latitude>
    <longitude>-7.5833333</longitude>
  </city>
  <city name="Baba">
    <latitude>11.8166667</latitude>
    <longitude>-6.6333333</longitude>
  </city>
  <city name="Baba Dama">
    <latitude>15.15</latitude>
    <longitude>-5.4</longitude>
  </city>
  <city name="Baba-Doma">
    <latitude>15.15</latitude>
    <longitude>-5.4</longitude>
  </city>
  <city name="Babadyan">
    <latitude>12.9333333</latitude>
    <longitude>-6.95</longitude>
  </city>
  <city name="Babaga">
    <latitude>16.0333333</latitude>
    <longitude>-3.4333333</longitude>
  </city>
  <city name="Babakabougou">
    <latitude>14.1333333</latitude>
    <longitude>-8.2666667</longitude>
  </city>
  <city name="Babala">
    <latitude>14.7166667</latitude>
    <longitude>-10.5333333</longitude>
  </city>
  <city name="Babalabougou">
    <latitude>11.5666667</latitude>
    <longitude>-6.3833333</longitude>
  </city>
  <city name="Babani">
    <latitude>13.3</latitude>
    <longitude>-5.7333333</longitude>
  </city>
  <city name="Babara">
    <latitude>12.3333333</latitude>
    <longitude>-10.9333333</longitude>
  </city>
  <city name="Babaroto">
    <latitude>13.8</latitude>
    <longitude>-10.8333333</longitude>
  </city>
  <city name="Babi">
    <latitude>15.8166667</latitude>
    <longitude>-4.05</longitude>
  </city>
  <city name="Babila">
    <latitude>12.0333333</latitude>
    <longitude>-10.6</longitude>
  </city>
  <city name="Babiléna">
    <latitude>11.4</latitude>
    <longitude>-6.9666667</longitude>
  </city>
  <city name="Baboto">
    <latitude>13.1333333</latitude>
    <longitude>-11.35</longitude>
  </city>
  <city name="Babougou">
    <latitude>15.9</latitude>
    <longitude>-7.5833333</longitude>
  </city>
  <city name="Babouro">
    <latitude>13.8333333</latitude>
    <longitude>-3.25</longitude>
  </city>
  <city name="Babove">
    <latitude>14.2666667</latitude>
    <longitude>-3.95</longitude>
  </city>
  <city name="Baboye">
    <latitude>14.2666667</latitude>
    <longitude>-3.95</longitude>
  </city>
  <city name="Bada">
    <latitude>14.4333333</latitude>
    <longitude>-11.7166667</longitude>
  </city>
  <city name="Badala">
    <latitude>12.9666667</latitude>
    <longitude>-9.7333333</longitude>
  </city>
  <city name="Badalabougon">
    <latitude>12.4866667</latitude>
    <longitude>-8.7825</longitude>
  </city>
  <city name="Badalabougou">
    <latitude>12.6255556</latitude>
    <longitude>-7.9838889</longitude>
  </city>
  <city name="Baddyano">
    <latitude>16.0833333</latitude>
    <longitude>-3.6666667</longitude>
  </city>
  <city name="Badéka">
    <latitude>13.1333333</latitude>
    <longitude>-10.4666667</longitude>
  </city>
  <city name="Badiana">
    <latitude>11.2333333</latitude>
    <longitude>-6.3166667</longitude>
  </city>
  <city name="Badian">
    <latitude>13.3</latitude>
    <longitude>-10.8</longitude>
  </city>
  <city name="Badianssita">
    <latitude>13.7</latitude>
    <longitude>-11.6333333</longitude>
  </city>
  <city name="Badiazita">
    <latitude>13.7</latitude>
    <longitude>-11.6333333</longitude>
  </city>
  <city name="Badi">
    <latitude>14.85</latitude>
    <longitude>-10.5833333</longitude>
  </city>
  <city name="Badigue">
    <latitude>12.35</latitude>
    <longitude>-6.9166667</longitude>
  </city>
  <city name="Badiguèndo">
    <latitude>12.5366667</latitude>
    <longitude>-7.1186111</longitude>
  </city>
  <city name="Badingko">
    <latitude>12.9666667</latitude>
    <longitude>-9.2166667</longitude>
  </city>
  <city name="Badinko">
    <latitude>12.9666667</latitude>
    <longitude>-9.2166667</longitude>
  </city>
  <city name="Badinndala">
    <latitude>12.7</latitude>
    <longitude>-9.75</longitude>
  </city>
  <city name="Badinouétou">
    <latitude>12.5536111</latitude>
    <longitude>-7.1311111</longitude>
  </city>
  <city name="Badinyé">
    <latitude>12.35</latitude>
    <longitude>-6.9166667</longitude>
  </city>
  <city name="Badio">
    <latitude>14.6666667</latitude>
    <longitude>-4.0333333</longitude>
  </city>
  <city name="Badioké">
    <latitude>12.7833333</latitude>
    <longitude>-9.95</longitude>
  </city>
  <city name="Badiomo">
    <latitude>14.6666667</latitude>
    <longitude>-4.0333333</longitude>
  </city>
  <city name="Badiongo">
    <latitude>14.6666667</latitude>
    <longitude>-4.0333333</longitude>
  </city>
  <city name="Badiougoula">
    <latitude>15.25</latitude>
    <longitude>-10.5</longitude>
  </city>
  <city name="Badji Gourma">
    <latitude>15.7333333</latitude>
    <longitude>0.4</longitude>
  </city>
  <city name="Badji Haoussa">
    <latitude>15.6833333</latitude>
    <longitude>0.5</longitude>
  </city>
  <city name="Badjila">
    <latitude>12.1125</latitude>
    <longitude>-7.3438889</longitude>
  </city>
  <city name="Badogo">
    <latitude>11.0333333</latitude>
    <longitude>-8.2166667</longitude>
  </city>
  <city name="Badouga">
    <latitude>13.3833333</latitude>
    <longitude>-9.7333333</longitude>
  </city>
  <city name="Badougou">
    <latitude>13.3833333</latitude>
    <longitude>-9.7333333</longitude>
  </city>
  <city name="Badougou Koro">
    <latitude>13.2833333</latitude>
    <longitude>-9.6333333</longitude>
  </city>
  <city name="Badoumbé">
    <latitude>13.6333333</latitude>
    <longitude>-10.2166667</longitude>
  </city>
  <city name="Badoumbéra">
    <latitude>13.35</latitude>
    <longitude>-7.45</longitude>
  </city>
  <city name="Badoumbo">
    <latitude>13.6333333</latitude>
    <longitude>-10.2166667</longitude>
  </city>
  <city name="Badyangoubougou">
    <latitude>14.1666667</latitude>
    <longitude>-7.8</longitude>
  </city>
  <city name="Bafaga">
    <latitude>11.3666667</latitude>
    <longitude>-7.0833333</longitude>
  </city>
  <city name="Bafarara">
    <latitude>15.3833333</latitude>
    <longitude>-11.4666667</longitude>
  </city>
  <city name="Bafaroto">
    <latitude>14.0</latitude>
    <longitude>-10.9</longitude>
  </city>
  <city name="Bafé">
    <latitude>12.15</latitude>
    <longitude>-10.4333333</longitude>
  </city>
  <city name="Bafimbougou">
    <latitude>12.6477778</latitude>
    <longitude>-7.2152778</longitude>
  </city>
  <city name="Bafing Makana">
    <latitude>12.55</latitude>
    <longitude>-10.25</longitude>
  </city>
  <city name="Bafing-Makhana">
    <latitude>12.55</latitude>
    <longitude>-10.25</longitude>
  </city>
  <city name="Bafinkabougou">
    <latitude>12.905</latitude>
    <longitude>-7.5072222</longitude>
  </city>
  <city name="Baflèbougou">
    <latitude>12.815</latitude>
    <longitude>-7.2608333</longitude>
  </city>
  <city name="Bafoulabé">
    <latitude>13.8</latitude>
    <longitude>-10.8333333</longitude>
  </city>
  <city name="Bafulabe">
    <latitude>13.8</latitude>
    <longitude>-10.8333333</longitude>
  </city>
  <city name="Baga">
    <latitude>12.1211111</latitude>
    <longitude>-7.9844444</longitude>
  </city>
  <city name="Bagabagadala">
    <latitude>12.6833333</latitude>
    <longitude>-9.1166667</longitude>
  </city>
  <city name="Bagadadi">
    <latitude>12.9</latitude>
    <longitude>-5.9</longitude>
  </city>
  <city name="Bagadadiè">
    <latitude>13.8333333</latitude>
    <longitude>-7.1</longitude>
  </city>
  <city name="Bagadadji">
    <latitude>12.65</latitude>
    <longitude>-8.0</longitude>
  </city>
  <city name="Bagado">
    <latitude>10.95</latitude>
    <longitude>-8.1</longitude>
  </city>
  <city name="Bagaïa">
    <latitude>12.1</latitude>
    <longitude>-11.1666667</longitude>
  </city>
  <city name="Bagalanta">
    <latitude>12.6333333</latitude>
    <longitude>-9.9166667</longitude>
  </city>
  <city name="Bagama">
    <latitude>14.45</latitude>
    <longitude>-10.3833333</longitude>
  </city>
  <city name="Bagan">
    <latitude>12.8727778</latitude>
    <longitude>-8.7961111</longitude>
  </city>
  <city name="Bagani">
    <latitude>11.4</latitude>
    <longitude>-7.85</longitude>
  </city>
  <city name="Baganita">
    <latitude>12.6333333</latitude>
    <longitude>-9.9166667</longitude>
  </city>
  <city name="Bagari">
    <latitude>14.1333333</latitude>
    <longitude>-10.55</longitude>
  </city>
  <city name="Bagaya">
    <latitude>12.1</latitude>
    <longitude>-11.1666667</longitude>
  </city>
  <city name="Bagayana">
    <latitude>11.9833333</latitude>
    <longitude>-7.1333333</longitude>
  </city>
  <city name="Bagayobougou">
    <latitude>11.95</latitude>
    <longitude>-7.75</longitude>
  </city>
  <city name="Bagayokokoungo Makandiana">
    <latitude>12.3438889</latitude>
    <longitude>-8.7794444</longitude>
  </city>
  <city name="Bagé">
    <latitude>15.3833333</latitude>
    <longitude>-8.7666667</longitude>
  </city>
  <city name="Bagiba">
    <latitude>12.7666667</latitude>
    <longitude>-6.5166667</longitude>
  </city>
  <city name="Bagila">
    <latitude>14.0166667</latitude>
    <longitude>-6.1666667</longitude>
  </city>
  <city name="Bagni">
    <latitude>13.4833333</latitude>
    <longitude>-10.4</longitude>
  </city>
  <city name="Bagny">
    <latitude>13.4833333</latitude>
    <longitude>-10.4</longitude>
  </city>
  <city name="Bagoéni">
    <latitude>15.1666667</latitude>
    <longitude>-8.6333333</longitude>
  </city>
  <city name="Bagouéni">
    <latitude>15.1666667</latitude>
    <longitude>-8.6333333</longitude>
  </city>
  <city name="Bagouko">
    <latitude>13.9833333</latitude>
    <longitude>-11.2166667</longitude>
  </city>
  <city name="Bagoundé">
    <latitude>16.2166667</latitude>
    <longitude>-0.0166667</longitude>
  </city>
  <city name="Bagoundié">
    <latitude>16.2166667</latitude>
    <longitude>-0.0166667</longitude>
  </city>
  <city name="Bagouré">
    <latitude>14.45</latitude>
    <longitude>-11.0333333</longitude>
  </city>
  <city name="Bagué">
    <latitude>15.3833333</latitude>
    <longitude>-8.7666667</longitude>
  </city>
  <city name="Baguébougou">
    <latitude>13.45</latitude>
    <longitude>-8.0333333</longitude>
  </city>
  <city name="Baguéya">
    <latitude>12.2</latitude>
    <longitude>-10.55</longitude>
  </city>
  <city name="Baguia">
    <latitude>12.25</latitude>
    <longitude>-10.4666667</longitude>
  </city>
  <city name="Baguiba">
    <latitude>12.7666667</latitude>
    <longitude>-6.5166667</longitude>
  </city>
  <city name="Baguibé">
    <latitude>12.1</latitude>
    <longitude>-4.9166667</longitude>
  </city>
  <city name="Baguila">
    <latitude>14.0166667</latitude>
    <longitude>-6.1666667</longitude>
  </city>
  <city name="Baguindan">
    <latitude>13.6166667</latitude>
    <longitude>-6.2</longitude>
  </city>
  <city name="Baguinéda">
    <latitude>12.6152778</latitude>
    <longitude>-7.7766667</longitude>
  </city>
  <city name="Baguinéda Village">
    <latitude>12.6333333</latitude>
    <longitude>-7.7872222</longitude>
  </city>
  <city name="Baguini">
    <latitude>12.7166667</latitude>
    <longitude>-6.5</longitude>
  </city>
  <city name="Baguinta">
    <latitude>13.6166667</latitude>
    <longitude>-6.2</longitude>
  </city>
  <city name="Baguiria">
    <latitude>13.8666667</latitude>
    <longitude>-11.0666667</longitude>
  </city>
  <city name="Baguita">
    <latitude>12.6833333</latitude>
    <longitude>-9.6333333</longitude>
  </city>
  <city name="Baguy">
    <latitude>13.4833333</latitude>
    <longitude>-10.4</longitude>
  </city>
  <city name="Baha">
    <latitude>15.4333333</latitude>
    <longitude>-9.2666667</longitude>
  </city>
  <city name="Bahabougou">
    <latitude>15.2166667</latitude>
    <longitude>-8.0166667</longitude>
  </city>
  <city name="Bahada">
    <latitude>13.8333333</latitude>
    <longitude>-3.5333333</longitude>
  </city>
  <city name="Bahé">
    <latitude>12.8333333</latitude>
    <longitude>-11.0166667</longitude>
  </city>
  <city name="Bahoundo">
    <latitude>16.9833333</latitude>
    <longitude>-1.45</longitude>
  </city>
  <city name="Baï">
    <latitude>13.6333333</latitude>
    <longitude>-3.3666667</longitude>
  </city>
  <city name="Bakabaka">
    <latitude>15.15</latitude>
    <longitude>-7.7333333</longitude>
  </city>
  <city name="Bâkabougou">
    <latitude>14.5666667</latitude>
    <longitude>-8.4</longitude>
  </city>
  <city name="Bakadadji">
    <latitude>13.0833333</latitude>
    <longitude>-10.7166667</longitude>
  </city>
  <city name="Bakadaka">
    <latitude>12.3369444</latitude>
    <longitude>-8.8166667</longitude>
  </city>
  <city name="Bakafé">
    <latitude>15.6833333</latitude>
    <longitude>-3.7833333</longitude>
  </city>
  <city name="Bakaran">
    <latitude>12.1055556</latitude>
    <longitude>-8.5641667</longitude>
  </city>
  <city name="Bakaria">
    <latitude>13.7833333</latitude>
    <longitude>-10.7333333</longitude>
  </city>
  <city name="Bakaribougou">
    <latitude>12.4958333</latitude>
    <longitude>-7.2430556</longitude>
  </city>
  <city name="Bakédaka">
    <latitude>14.15</latitude>
    <longitude>-4.9833333</longitude>
  </city>
  <city name="Bakeita">
    <latitude>12.4047222</latitude>
    <longitude>-8.7075</longitude>
  </city>
  <city name="Baki">
    <latitude>13.0166667</latitude>
    <longitude>-7.25</longitude>
  </city>
  <city name="Bako">
    <latitude>12.6738889</latitude>
    <longitude>-8.9275</longitude>
  </city>
  <city name="Bakogbougou">
    <latitude>13.1166667</latitude>
    <longitude>-6.8333333</longitude>
  </city>
  <city name="Bakolobi">
    <latitude>12.65</latitude>
    <longitude>-11.3666667</longitude>
  </city>
  <city name="Bakondo">
    <latitude>16.9833333</latitude>
    <longitude>-1.45</longitude>
  </city>
  <city name="Bakorobabougou">
    <latitude>13.2833333</latitude>
    <longitude>-7.2166667</longitude>
  </city>
  <city name="Bakorobougou">
    <latitude>12.6108333</latitude>
    <longitude>-7.8830556</longitude>
  </city>
  <city name="Bakorombougou">
    <latitude>13.1166667</latitude>
    <longitude>-6.8333333</longitude>
  </city>
  <city name="Bakoronibougou">
    <latitude>11.3833333</latitude>
    <longitude>-5.3</longitude>
  </city>
  <city name="Bakoronidougou">
    <latitude>11.3833333</latitude>
    <longitude>-5.3</longitude>
  </city>
  <city name="Bakou">
    <latitude>16.0333333</latitude>
    <longitude>-3.65</longitude>
  </city>
  <city name="Bakoudian">
    <latitude>13.3166667</latitude>
    <longitude>-9.6833333</longitude>
  </city>
  <city name="Bakoulé">
    <latitude>13.0833333</latitude>
    <longitude>-7.1833333</longitude>
  </city>
  <city name="Bakouroubougou">
    <latitude>13.3833333</latitude>
    <longitude>-8.0666667</longitude>
  </city>
  <city name="Bakouroufata">
    <latitude>13.4333333</latitude>
    <longitude>-10.7</longitude>
  </city>
  <city name="Bakoutoumbougou">
    <latitude>12.9219444</latitude>
    <longitude>-7.0744444</longitude>
  </city>
  <city name="Bakoye">
    <latitude>13.8166667</latitude>
    <longitude>-10.8166667</longitude>
  </city>
  <city name="Bala">
    <latitude>12.2166667</latitude>
    <longitude>-11.2833333</longitude>
  </city>
  <city name="Balaban">
    <latitude>13.2</latitude>
    <longitude>-7.1666667</longitude>
  </city>
  <city name="Balabougou">
    <latitude>14.5666667</latitude>
    <longitude>-8.7666667</longitude>
  </city>
  <city name="Baladougou">
    <latitude>14.0666667</latitude>
    <longitude>-10.4166667</longitude>
  </city>
  <city name="Balafimbougou">
    <latitude>12.3425</latitude>
    <longitude>-8.1941667</longitude>
  </city>
  <city name="Balaguira">
    <latitude>13.9833333</latitude>
    <longitude>-4.0333333</longitude>
  </city>
  <city name="Balaka">
    <latitude>13.5833333</latitude>
    <longitude>-5.6166667</longitude>
  </city>
  <city name="Balalaba">
    <latitude>14.05</latitude>
    <longitude>-9.75</longitude>
  </city>
  <city name="Balala">
    <latitude>12.1280556</latitude>
    <longitude>-8.1241667</longitude>
  </city>
  <city name="Balalani">
    <latitude>14.0666667</latitude>
    <longitude>-9.75</longitude>
  </city>
  <city name="Balal">
    <latitude>15.35</latitude>
    <longitude>-7.75</longitude>
  </city>
  <city name="Balamansaya">
    <latitude>12.1872222</latitude>
    <longitude>-8.7591667</longitude>
  </city>
  <city name="Bala Maoundé">
    <latitude>16.15</latitude>
    <longitude>-3.5666667</longitude>
  </city>
  <city name="Balambougou">
    <latitude>13.0666667</latitude>
    <longitude>-9.2</longitude>
  </city>
  <city name="Balan">
    <latitude>14.2833333</latitude>
    <longitude>-11.5</longitude>
  </city>
  <city name="Balanbougou">
    <latitude>13.0666667</latitude>
    <longitude>-9.2</longitude>
  </city>
  <city name="Balandougou">
    <latitude>12.6166667</latitude>
    <longitude>-10.9833333</longitude>
  </city>
  <city name="Balanfina">
    <latitude>11.0666667</latitude>
    <longitude>-7.8833333</longitude>
  </city>
  <city name="Balaniaoulé">
    <latitude>12.7333333</latitude>
    <longitude>-11.1</longitude>
  </city>
  <city name="Balani">
    <latitude>14.0666667</latitude>
    <longitude>-9.75</longitude>
  </city>
  <city name="Balanko">
    <latitude>12.1638889</latitude>
    <longitude>-8.8205556</longitude>
  </city>
  <city name="Balankomana">
    <latitude>12.135</latitude>
    <longitude>-8.7261111</longitude>
  </city>
  <city name="Balankoumakana">
    <latitude>12.135</latitude>
    <longitude>-8.7261111</longitude>
  </city>
  <city name="Balankoumana">
    <latitude>12.135</latitude>
    <longitude>-8.7261111</longitude>
  </city>
  <city name="Balansan">
    <latitude>11.8333333</latitude>
    <longitude>-8.55</longitude>
  </city>
  <city name="Baléa">
    <latitude>12.1666667</latitude>
    <longitude>-11.4166667</longitude>
  </city>
  <city name="Balé">
    <latitude>13.9</latitude>
    <longitude>-4.4666667</longitude>
  </city>
  <city name="Balébougou">
    <latitude>13.7333333</latitude>
    <longitude>-5.5333333</longitude>
  </city>
  <city name="Balé Diassa">
    <latitude>11.0666667</latitude>
    <longitude>-5.6166667</longitude>
  </city>
  <city name="Balel">
    <latitude>15.9666667</latitude>
    <longitude>-3.4833333</longitude>
  </city>
  <city name="Balèmba">
    <latitude>12.1802778</latitude>
    <longitude>-8.0961111</longitude>
  </city>
  <city name="Baléna">
    <latitude>11.1666667</latitude>
    <longitude>-7.9</longitude>
  </city>
  <city name="Baléssadjié">
    <latitude>16.5666667</latitude>
    <longitude>-0.1833333</longitude>
  </city>
  <city name="Baléya">
    <latitude>12.2166667</latitude>
    <longitude>-9.9666667</longitude>
  </city>
  <city name="Baléyani">
    <latitude>13.1166667</latitude>
    <longitude>-9.45</longitude>
  </city>
  <city name="Balé Zénon">
    <latitude>15.2166667</latitude>
    <longitude>-9.85</longitude>
  </city>
  <city name="Baliako">
    <latitude>12.8666667</latitude>
    <longitude>-11.1166667</longitude>
  </city>
  <city name="Bali">
    <latitude>12.2461111</latitude>
    <longitude>-8.2538889</longitude>
  </city>
  <city name="Balibougou">
    <latitude>13.7333333</latitude>
    <longitude>-5.5333333</longitude>
  </city>
  <city name="Balikongo">
    <latitude>13.4333333</latitude>
    <longitude>-5.55</longitude>
  </city>
  <city name="Balinndala">
    <latitude>12.5666667</latitude>
    <longitude>-9.4666667</longitude>
  </city>
  <city name="Ballé">
    <latitude>15.3333333</latitude>
    <longitude>-8.5833333</longitude>
  </city>
  <city name="Balou">
    <latitude>12.9666667</latitude>
    <longitude>-11.1</longitude>
  </city>
  <city name="Balténé">
    <latitude>12.6166667</latitude>
    <longitude>-9.1</longitude>
  </city>
  <city name="Bama">
    <latitude>15.1333333</latitude>
    <longitude>-8.0166667</longitude>
  </city>
  <city name="Bamabougou">
    <latitude>12.8344444</latitude>
    <longitude>-8.2997222</longitude>
  </city>
  <city name="Bamadiguin">
    <latitude>11.9666667</latitude>
    <longitude>-8.5666667</longitude>
  </city>
  <city name="Bamadingué">
    <latitude>14.4333333</latitude>
    <longitude>-9.4</longitude>
  </city>
  <city name="Bamadou">
    <latitude>12.9666667</latitude>
    <longitude>-7.0</longitude>
  </city>
  <city name="Bamafélé">
    <latitude>13.1</latitude>
    <longitude>-10.4</longitude>
  </city>
  <city name="Bamako">
    <latitude>12.65</latitude>
    <longitude>-8.0</longitude>
  </city>
  <city name="Bamako Koura">
    <latitude>12.65</latitude>
    <longitude>-8.0166667</longitude>
  </city>
  <city name="Bamakolon">
    <latitude>13.7166667</latitude>
    <longitude>-8.35</longitude>
  </city>
  <city name="Bamakoni">
    <latitude>12.0294444</latitude>
    <longitude>-7.7525</longitude>
  </city>
  <city name="Bamaku">
    <latitude>12.65</latitude>
    <longitude>-8.0</longitude>
  </city>
  <city name="Bamana">
    <latitude>12.5333333</latitude>
    <longitude>-5.8666667</longitude>
  </city>
  <city name="Bamanan">
    <latitude>12.8930556</latitude>
    <longitude>-7.0869444</longitude>
  </city>
  <city name="Bamanatoum">
    <latitude>11.7666667</latitude>
    <longitude>-6.5166667</longitude>
  </city>
  <city name="Bamanatoun">
    <latitude>11.7666667</latitude>
    <longitude>-6.5166667</longitude>
  </city>
  <city name="Baman">
    <latitude>13.8333333</latitude>
    <longitude>-7.8333333</longitude>
  </city>
  <city name="Bamangaye">
    <latitude>15.3833333</latitude>
    <longitude>-4.1333333</longitude>
  </city>
  <city name="Bamanina">
    <latitude>12.3883333</latitude>
    <longitude>-8.7166667</longitude>
  </city>
  <city name="Bamanko">
    <latitude>13.5166667</latitude>
    <longitude>-8.9</longitude>
  </city>
  <city name="Bamaro">
    <latitude>14.0666667</latitude>
    <longitude>-10.1</longitude>
  </city>
  <city name="Bamba">
    <latitude>17.0333333</latitude>
    <longitude>-1.4</longitude>
  </city>
  <city name="Bambada">
    <latitude>14.4166667</latitude>
    <longitude>-10.55</longitude>
  </city>
  <city name="Bamba Digua">
    <latitude>14.55</latitude>
    <longitude>-9.3833333</longitude>
  </city>
  <city name="Bambala">
    <latitude>11.1833333</latitude>
    <longitude>-7.4</longitude>
  </city>
  <city name="Bambana">
    <latitude>12.5333333</latitude>
    <longitude>-5.8666667</longitude>
  </city>
  <city name="Bambangoumba">
    <latitude>15.1</latitude>
    <longitude>-7.0</longitude>
  </city>
  <city name="Bambara">
    <latitude>13.4166667</latitude>
    <longitude>-4.1833333</longitude>
  </city>
  <city name="Bambara-Maoudé">
    <latitude>15.85</latitude>
    <longitude>-2.7833333</longitude>
  </city>
  <city name="Bambara Maoundé">
    <latitude>15.85</latitude>
    <longitude>-2.7833333</longitude>
  </city>
  <city name="Bambara-Maude">
    <latitude>15.85</latitude>
    <longitude>-2.7833333</longitude>
  </city>
  <city name="Bambara Sintienkoura">
    <latitude>14.4666667</latitude>
    <longitude>-11.65</longitude>
  </city>
  <city name="Bambéla">
    <latitude>14.6333333</latitude>
    <longitude>-11.5666667</longitude>
  </city>
  <city name="Bambella">
    <latitude>14.6333333</latitude>
    <longitude>-11.5666667</longitude>
  </city>
  <city name="Bambila">
    <latitude>14.3</latitude>
    <longitude>-10.3</longitude>
  </city>
  <city name="Bambougou">
    <latitude>13.6333333</latitude>
    <longitude>-6.0833333</longitude>
  </city>
  <city name="Bamdéré">
    <latitude>12.0333333</latitude>
    <longitude>-5.4166667</longitude>
  </city>
  <city name="Bamiandougou">
    <latitude>14.2833333</latitude>
    <longitude>-7.45</longitude>
  </city>
  <city name="Bammaco">
    <latitude>12.65</latitude>
    <longitude>-8.0</longitude>
  </city>
  <city name="Bammako">
    <latitude>12.65</latitude>
    <longitude>-8.0</longitude>
  </city>
  <city name="Bamodibougou">
    <latitude>13.4166667</latitude>
    <longitude>-7.3666667</longitude>
  </city>
  <city name="Bamou">
    <latitude>12.9833333</latitude>
    <longitude>-6.4833333</longitude>
  </city>
  <city name="Bamougou">
    <latitude>11.4833333</latitude>
    <longitude>-5.3333333</longitude>
  </city>
  <city name="Bamoussakabougouda">
    <latitude>12.8069444</latitude>
    <longitude>-8.4613889</longitude>
  </city>
  <city name="Bana">
    <latitude>14.7833333</latitude>
    <longitude>-9.25</longitude>
  </city>
  <city name="Banabougou">
    <latitude>14.1333333</latitude>
    <longitude>-6.0333333</longitude>
  </city>
  <city name="Banadjé">
    <latitude>15.2166667</latitude>
    <longitude>-4.3166667</longitude>
  </city>
  <city name="Banadjié">
    <latitude>15.2166667</latitude>
    <longitude>-4.3166667</longitude>
  </city>
  <city name="Banakoro">
    <latitude>12.7119444</latitude>
    <longitude>-8.9708333</longitude>
  </city>
  <city name="Banakourou">
    <latitude>13.35</latitude>
    <longitude>-10.95</longitude>
  </city>
  <city name="Banamba">
    <latitude>13.55</latitude>
    <longitude>-7.45</longitude>
  </city>
  <city name="Banambani">
    <latitude>12.7919444</latitude>
    <longitude>-8.0325</longitude>
  </city>
  <city name="Bananba">
    <latitude>13.2166667</latitude>
    <longitude>-6.4833333</longitude>
  </city>
  <city name="Banan">
    <latitude>13.8333333</latitude>
    <longitude>-7.8333333</longitude>
  </city>
  <city name="Bananblé">
    <latitude>13.5</latitude>
    <longitude>-6.85</longitude>
  </city>
  <city name="Banandomo">
    <latitude>13.2166667</latitude>
    <longitude>-6.3166667</longitude>
  </city>
  <city name="Banangoroni">
    <latitude>13.35</latitude>
    <longitude>-6.3833333</longitude>
  </city>
  <city name="Banankabougou">
    <latitude>14.3833333</latitude>
    <longitude>-11.55</longitude>
  </city>
  <city name="Banankélé">
    <latitude>10.6166667</latitude>
    <longitude>-7.5333333</longitude>
  </city>
  <city name="Bananko">
    <latitude>11.25</latitude>
    <longitude>-6.5833333</longitude>
  </city>
  <city name="Banankoni">
    <latitude>11.3166667</latitude>
    <longitude>-5.7833333</longitude>
  </city>
  <city name="Banankoro">
    <latitude>12.8258333</latitude>
    <longitude>-8.8886111</longitude>
  </city>
  <city name="Banankoroni">
    <latitude>13.35</latitude>
    <longitude>-6.3833333</longitude>
  </city>
  <city name="Banankoumou">
    <latitude>11.7333333</latitude>
    <longitude>-7.65</longitude>
  </city>
  <city name="Banankoura">
    <latitude>12.7666667</latitude>
    <longitude>-9.1</longitude>
  </city>
  <city name="Bananmbani">
    <latitude>12.7919444</latitude>
    <longitude>-8.0325</longitude>
  </city>
  <city name="Bananso">
    <latitude>10.8833333</latitude>
    <longitude>-6.0333333</longitude>
  </city>
  <city name="Banantomona">
    <latitude>12.25</latitude>
    <longitude>-6.5333333</longitude>
  </city>
  <city name="Banantou">
    <latitude>12.4036111</latitude>
    <longitude>-7.4638889</longitude>
  </city>
  <city name="Bananzolé">
    <latitude>12.2147222</latitude>
    <longitude>-7.9083333</longitude>
  </city>
  <city name="Banaouolo">
    <latitude>12.9730556</latitude>
    <longitude>-8.0675</longitude>
  </city>
  <city name="Banaré">
    <latitude>13.5333333</latitude>
    <longitude>-11.2333333</longitude>
  </city>
  <city name="Banavana">
    <latitude>11.9833333</latitude>
    <longitude>-7.1333333</longitude>
  </city>
  <city name="Banaya">
    <latitude>13.7166667</latitude>
    <longitude>-10.75</longitude>
  </city>
  <city name="Banay">
    <latitude>14.6166667</latitude>
    <longitude>-1.8666667</longitude>
  </city>
  <city name="Banazo">
    <latitude>12.1</latitude>
    <longitude>-5.1666667</longitude>
  </city>
  <city name="Banba">
    <latitude>10.3833333</latitude>
    <longitude>-7.15</longitude>
  </city>
  <city name="Banbadi Aoura">
    <latitude>12.1166667</latitude>
    <longitude>-11.25</longitude>
  </city>
  <city name="Banbadinnka">
    <latitude>12.3833333</latitude>
    <longitude>-11.2166667</longitude>
  </city>
  <city name="Banbafara">
    <latitude>12.8333333</latitude>
    <longitude>-9.5333333</longitude>
  </city>
  <city name="Banba Guédé">
    <latitude>15.3166667</latitude>
    <longitude>-9.2</longitude>
  </city>
  <city name="Banbako">
    <latitude>12.85</latitude>
    <longitude>-10.9833333</longitude>
  </city>
  <city name="Banbala">
    <latitude>13.3666667</latitude>
    <longitude>-9.3333333</longitude>
  </city>
  <city name="Ban">
    <latitude>13.7166667</latitude>
    <longitude>-5.3833333</longitude>
  </city>
  <city name="Banbara">
    <latitude>13.4166667</latitude>
    <longitude>-4.1833333</longitude>
  </city>
  <city name="Banbaran">
    <latitude>13.75</latitude>
    <longitude>-9.1166667</longitude>
  </city>
  <city name="Banbara-Sintienkoura">
    <latitude>14.4666667</latitude>
    <longitude>-11.65</longitude>
  </city>
  <city name="Banbê">
    <latitude>12.3</latitude>
    <longitude>-11.3</longitude>
  </city>
  <city name="Banbé">
    <latitude>12.45</latitude>
    <longitude>-10.0833333</longitude>
  </city>
  <city name="Banbéla">
    <latitude>14.6333333</latitude>
    <longitude>-11.5666667</longitude>
  </city>
  <city name="Banbéra">
    <latitude>14.9</latitude>
    <longitude>-11.1</longitude>
  </city>
  <city name="Banbila">
    <latitude>13.85</latitude>
    <longitude>-7.3666667</longitude>
  </city>
  <city name="Banbira">
    <latitude>14.3833333</latitude>
    <longitude>-11.6833333</longitude>
  </city>
  <city name="Banbougou">
    <latitude>13.7333333</latitude>
    <longitude>-5.3333333</longitude>
  </city>
  <city name="Banbouta">
    <latitude>12.95</latitude>
    <longitude>10.35</longitude>
  </city>
  <city name="Banda">
    <latitude>12.1333333</latitude>
    <longitude>-11.2666667</longitude>
  </city>
  <city name="Bande">
    <latitude>14.3</latitude>
    <longitude>-3.0166667</longitude>
  </city>
  <city name="Bandé">
    <latitude>15.8166667</latitude>
    <longitude>-3.9333333</longitude>
  </city>
  <city name="Bandia">
    <latitude>12.6</latitude>
    <longitude>-10.5</longitude>
  </city>
  <city name="Bandiagara">
    <latitude>14.35</latitude>
    <longitude>-3.6166667</longitude>
  </city>
  <city name="Bandiala">
    <latitude>10.6833333</latitude>
    <longitude>-8.2333333</longitude>
  </city>
  <city name="Bandiankabougou">
    <latitude>13.6833333</latitude>
    <longitude>-8.25</longitude>
  </city>
  <city name="Bandièndé">
    <latitude>16.5833333</latitude>
    <longitude>-0.2333333</longitude>
  </city>
  <city name="Bandigoula">
    <latitude>12.9833333</latitude>
    <longitude>-9.4666667</longitude>
  </city>
  <city name="Bandionia">
    <latitude>12.7</latitude>
    <longitude>-11.1333333</longitude>
  </city>
  <city name="Bandiougoubougou">
    <latitude>14.0666667</latitude>
    <longitude>-9.8166667</longitude>
  </city>
  <city name="Bandiougoubouria">
    <latitude>12.7333333</latitude>
    <longitude>-9.8666667</longitude>
  </city>
  <city name="Bandiougoufara">
    <latitude>11.2166667</latitude>
    <longitude>-8.35</longitude>
  </city>
  <city name="Bandiougoula">
    <latitude>15.25</latitude>
    <longitude>-10.5</longitude>
  </city>
  <city name="Bandiougou Lambé">
    <latitude>14.9833333</latitude>
    <longitude>-9.05</longitude>
  </city>
  <city name="Bandoma">
    <latitude>13.1666667</latitude>
    <longitude>-9.4166667</longitude>
  </city>
  <city name="Bandougou">
    <latitude>12.5175</latitude>
    <longitude>-7.7663889</longitude>
  </city>
  <city name="Bandyougoubougou">
    <latitude>15.05</latitude>
    <longitude>-8.8833333</longitude>
  </city>
  <city name="Banégébougou">
    <latitude>14.0166667</latitude>
    <longitude>-7.4333333</longitude>
  </city>
  <city name="Banéguébougou">
    <latitude>14.0166667</latitude>
    <longitude>-7.4333333</longitude>
  </city>
  <city name="Banekane">
    <latitude>16.95</latitude>
    <longitude>-1.75</longitude>
  </city>
  <city name="Banenso">
    <latitude>12.1</latitude>
    <longitude>-5.1666667</longitude>
  </city>
  <city name="Baney">
    <latitude>16.2666667</latitude>
    <longitude>-3.1833333</longitude>
  </city>
  <city name="Banfankoto">
    <latitude>12.85</latitude>
    <longitude>-11.3666667</longitude>
  </city>
  <city name="Banfara">
    <latitude>12.2333333</latitude>
    <longitude>-10.5166667</longitude>
  </city>
  <city name="Banfoula">
    <latitude>15.5166667</latitude>
    <longitude>-4.0</longitude>
  </city>
  <city name="Banga">
    <latitude>12.4833333</latitude>
    <longitude>-4.4833333</longitude>
  </city>
  <city name="Bangadarya Abadyouma">
    <latitude>16.0166667</latitude>
    <longitude>-3.5666667</longitude>
  </city>
  <city name="Bangadarya Wouloun">
    <latitude>16.0333333</latitude>
    <longitude>-3.2833333</longitude>
  </city>
  <city name="Bangadia">
    <latitude>16.0333333</latitude>
    <longitude>-3.2833333</longitude>
  </city>
  <city name="Bangadié">
    <latitude>14.5833333</latitude>
    <longitude>-2.1</longitude>
  </city>
  <city name="Bangadina">
    <latitude>12.6666667</latitude>
    <longitude>-4.6666667</longitude>
  </city>
  <city name="Bangadria">
    <latitude>16.0333333</latitude>
    <longitude>-3.2833333</longitude>
  </city>
  <city name="Bangala">
    <latitude>14.7</latitude>
    <longitude>-10.4333333</longitude>
  </city>
  <city name="Bangalébougou">
    <latitude>13.5</latitude>
    <longitude>-7.5</longitude>
  </city>
  <city name="Banganoura">
    <latitude>14.0166667</latitude>
    <longitude>-11.1166667</longitude>
  </city>
  <city name="Bangao">
    <latitude>16.7833333</latitude>
    <longitude>-2.2666667</longitude>
  </city>
  <city name="Bangasse">
    <latitude>14.5</latitude>
    <longitude>-11.5</longitude>
  </city>
  <city name="Bangassi">
    <latitude>13.0166667</latitude>
    <longitude>-9.55</longitude>
  </city>
  <city name="Bangassidougou">
    <latitude>14.55</latitude>
    <longitude>-11.4833333</longitude>
  </city>
  <city name="Bangassi Nangou">
    <latitude>14.5</latitude>
    <longitude>-11.5</longitude>
  </city>
  <city name="Bangaya">
    <latitude>13.2333333</latitude>
    <longitude>-10.7166667</longitude>
  </city>
  <city name="Bango">
    <latitude>15.1666667</latitude>
    <longitude>-4.0166667</longitude>
  </city>
  <city name="Bangoro">
    <latitude>12.7333333</latitude>
    <longitude>-6.9</longitude>
  </city>
  <city name="Bangou">
    <latitude>13.7166667</latitude>
    <longitude>-5.3833333</longitude>
  </city>
  <city name="Bangouma">
    <latitude>12.9</latitude>
    <longitude>-6.9166667</longitude>
  </city>
  <city name="Bangouna">
    <latitude>13.3666667</latitude>
    <longitude>-4.9666667</longitude>
  </city>
  <city name="Banguel Toupé">
    <latitude>14.6666667</latitude>
    <longitude>-3.65</longitude>
  </city>
  <city name="Bangui Akadi">
    <latitude>15.5</latitude>
    <longitude>0.5666667</longitude>
  </city>
  <city name="Banguirila">
    <latitude>14.2333333</latitude>
    <longitude>-10.6833333</longitude>
  </city>
  <city name="Banguita">
    <latitude>15.2833333</latitude>
    <longitude>-4.35</longitude>
  </city>
  <city name="Banharho">
    <latitude>13.4333333</latitude>
    <longitude>-11.3</longitude>
  </city>
  <city name="Banhon">
    <latitude>12.8666667</latitude>
    <longitude>-9.8333333</longitude>
  </city>
  <city name="Baniakafata">
    <latitude>12.8333333</latitude>
    <longitude>-9.8</longitude>
  </city>
  <city name="Baniakoro">
    <latitude>12.3697222</latitude>
    <longitude>-7.525</longitude>
  </city>
  <city name="Baniakoro Ouolodièdo">
    <latitude>12.3919444</latitude>
    <longitude>-7.5269444</longitude>
  </city>
  <city name="Baniamébougou">
    <latitude>13.5333333</latitude>
    <longitude>-6.7166667</longitude>
  </city>
  <city name="Baniankafata">
    <latitude>12.8833333</latitude>
    <longitude>-9.8</longitude>
  </city>
  <city name="Bani">
    <latitude>13.6666667</latitude>
    <longitude>-6.2</longitude>
  </city>
  <city name="Banikan">
    <latitude>16.05</latitude>
    <longitude>-3.6</longitude>
  </city>
  <city name="Banikane">
    <latitude>16.05</latitude>
    <longitude>-3.6</longitude>
  </city>
  <city name="Banikani">
    <latitude>15.1833333</latitude>
    <longitude>-2.8</longitude>
  </city>
  <city name="Bani-Koro">
    <latitude>14.7166667</latitude>
    <longitude>-5.8666667</longitude>
  </city>
  <city name="Baninko">
    <latitude>12.9666667</latitude>
    <longitude>-9.2166667</longitude>
  </city>
  <city name="Baninkoro">
    <latitude>12.6136111</latitude>
    <longitude>-7.0608333</longitude>
  </city>
  <city name="Baninkouma">
    <latitude>12.4672222</latitude>
    <longitude>-8.7325</longitude>
  </city>
  <city name="Baninzolé">
    <latitude>12.2147222</latitude>
    <longitude>-7.9083333</longitude>
  </city>
  <city name="Baniougou">
    <latitude>13.6333333</latitude>
    <longitude>-6.0833333</longitude>
  </city>
  <city name="Baniré">
    <latitude>12.0166667</latitude>
    <longitude>-10.6166667</longitude>
  </city>
  <city name="Baniré Koré">
    <latitude>15.2</latitude>
    <longitude>-9.15</longitude>
  </city>
  <city name="Bankamé">
    <latitude>14.3333333</latitude>
    <longitude>-11.2833333</longitude>
  </city>
  <city name="Bankani">
    <latitude>16.1666667</latitude>
    <longitude>-3.7833333</longitude>
  </city>
  <city name="Bankas">
    <latitude>14.0666667</latitude>
    <longitude>-3.5166667</longitude>
  </city>
  <city name="Bankass">
    <latitude>14.0666667</latitude>
    <longitude>-3.5166667</longitude>
  </city>
  <city name="Bankassé">
    <latitude>14.0666667</latitude>
    <longitude>-3.5166667</longitude>
  </city>
  <city name="Bankassi">
    <latitude>13.4333333</latitude>
    <longitude>-3.75</longitude>
  </city>
  <city name="Banko">
    <latitude>12.7666667</latitude>
    <longitude>-9.15</longitude>
  </city>
  <city name="Bankokoro">
    <latitude>12.42</latitude>
    <longitude>-8.0902778</longitude>
  </city>
  <city name="Banko Koura">
    <latitude>12.42</latitude>
    <longitude>-8.0902778</longitude>
  </city>
  <city name="Bankolé">
    <latitude>11.9333333</latitude>
    <longitude>-8.6833333</longitude>
  </city>
  <city name="Bankoma">
    <latitude>13.3833333</latitude>
    <longitude>-3.8</longitude>
  </city>
  <city name="Bankoni">
    <latitude>12.6772222</latitude>
    <longitude>-7.95</longitude>
  </city>
  <city name="Bankonina">
    <latitude>13.0166667</latitude>
    <longitude>-9.3333333</longitude>
  </city>
  <city name="Bankoro">
    <latitude>12.2352778</latitude>
    <longitude>-7.4322222</longitude>
  </city>
  <city name="Bankoroni">
    <latitude>12.3413889</latitude>
    <longitude>-8.4930556</longitude>
  </city>
  <city name="Banko-Sokoum">
    <latitude>11.1</latitude>
    <longitude>-7.4333333</longitude>
  </city>
  <city name="Banko Sokoun">
    <latitude>11.1</latitude>
    <longitude>-7.4333333</longitude>
  </city>
  <city name="Bankouma">
    <latitude>13.05</latitude>
    <longitude>-5.2166667</longitude>
  </city>
  <city name="Bankoumana">
    <latitude>11.3</latitude>
    <longitude>-8.2666667</longitude>
  </city>
  <city name="Bankoumani">
    <latitude>12.4219444</latitude>
    <longitude>-7.605</longitude>
  </city>
  <city name="Bankumana">
    <latitude>12.8333333</latitude>
    <longitude>-5.7833333</longitude>
  </city>
  <city name="Banlassi">
    <latitude>15.4833333</latitude>
    <longitude>0.7166667</longitude>
  </city>
  <city name="Ban Markala">
    <latitude>13.1</latitude>
    <longitude>-5.5333333</longitude>
  </city>
  <city name="Banmbangoumba">
    <latitude>15.1</latitude>
    <longitude>-7.0</longitude>
  </city>
  <city name="Banna">
    <latitude>15.2833333</latitude>
    <longitude>-9.6166667</longitude>
  </city>
  <city name="Bannbadinnka">
    <latitude>13.2833333</latitude>
    <longitude>-10.3166667</longitude>
  </city>
  <city name="Bannkara">
    <latitude>16.9333333</latitude>
    <longitude>-1.6833333</longitude>
  </city>
  <city name="Banntako">
    <latitude>13.2</latitude>
    <longitude>-11.1166667</longitude>
  </city>
  <city name="Banomé">
    <latitude>16.6</latitude>
    <longitude>-0.2666667</longitude>
  </city>
  <city name="Banougou">
    <latitude>12.5175</latitude>
    <longitude>-7.7663889</longitude>
  </city>
  <city name="Banounfé">
    <latitude>12.45</latitude>
    <longitude>-9.7833333</longitude>
  </city>
  <city name="Bansa">
    <latitude>13.7</latitude>
    <longitude>-11.0333333</longitude>
  </city>
  <city name="Bantahama">
    <latitude>14.1833333</latitude>
    <longitude>-10.8333333</longitude>
  </city>
  <city name="Bantakoto">
    <latitude>12.7</latitude>
    <longitude>-10.1166667</longitude>
  </city>
  <city name="Bantanho">
    <latitude>16.4833333</latitude>
    <longitude>-3.1333333</longitude>
  </city>
  <city name="Bantanko">
    <latitude>12.6333333</latitude>
    <longitude>-11.05</longitude>
  </city>
  <city name="Bantankoto">
    <latitude>13.35</latitude>
    <longitude>-10.7166667</longitude>
  </city>
  <city name="Bantanta">
    <latitude>13.1666667</latitude>
    <longitude>-9.6833333</longitude>
  </city>
  <city name="Bantianko">
    <latitude>13.4166667</latitude>
    <longitude>-10.7333333</longitude>
  </city>
  <city name="Banti">
    <latitude>12.9697222</latitude>
    <longitude>-8.2311111</longitude>
  </city>
  <city name="Bantièsso">
    <latitude>12.75</latitude>
    <longitude>-5.5666667</longitude>
  </city>
  <city name="Bantina">
    <latitude>14.0333333</latitude>
    <longitude>-4.15</longitude>
  </city>
  <city name="Bantinngoungou">
    <latitude>13.7</latitude>
    <longitude>-10.8666667</longitude>
  </city>
  <city name="Bantoma">
    <latitude>13.0666667</latitude>
    <longitude>-9.3833333</longitude>
  </city>
  <city name="Bantona">
    <latitude>12.25</latitude>
    <longitude>-6.5333333</longitude>
  </city>
  <city name="Banyéga">
    <latitude>16.1666667</latitude>
    <longitude>-3.7333333</longitude>
  </city>
  <city name="Banzana">
    <latitude>14.4333333</latitude>
    <longitude>-11.5</longitude>
  </city>
  <city name="Banzan">
    <latitude>12.0883333</latitude>
    <longitude>-8.5144444</longitude>
  </city>
  <city name="Banzano">
    <latitude>13.1166667</latitude>
    <longitude>-7.4666667</longitude>
  </city>
  <city name="Banzanso">
    <latitude>11.55</latitude>
    <longitude>-5.2666667</longitude>
  </city>
  <city name="Banzasso">
    <latitude>11.55</latitude>
    <longitude>-5.2666667</longitude>
  </city>
  <city name="Bao">
    <latitude>12.2166667</latitude>
    <longitude>-6.5833333</longitude>
  </city>
  <city name="Bao Bowal">
    <latitude>12.0666667</latitude>
    <longitude>-11.1833333</longitude>
  </city>
  <city name="Bao Flala">
    <latitude>12.2166667</latitude>
    <longitude>-6.5833333</longitude>
  </city>
  <city name="Baon">
    <latitude>13.7166667</latitude>
    <longitude>-5.3833333</longitude>
  </city>
  <city name="Baoua">
    <latitude>16.2333333</latitude>
    <longitude>-3.2833333</longitude>
  </city>
  <city name="Baouéma">
    <latitude>13.9</latitude>
    <longitude>-3.7</longitude>
  </city>
  <city name="Baoulé">
    <latitude>12.8880556</latitude>
    <longitude>-8.6297222</longitude>
  </city>
  <city name="Baoundo">
    <latitude>16.9833333</latitude>
    <longitude>-1.45</longitude>
  </city>
  <city name="Barabala">
    <latitude>13.3666667</latitude>
    <longitude>-9.4166667</longitude>
  </city>
  <city name="Bara">
    <latitude>15.8</latitude>
    <longitude>0.3333333</longitude>
  </city>
  <city name="Barabéri">
    <latitude>15.8166667</latitude>
    <longitude>0.2666667</longitude>
  </city>
  <city name="Barafara">
    <latitude>13.85</latitude>
    <longitude>-10.65</longitude>
  </city>
  <city name="Barafoto">
    <latitude>14.0</latitude>
    <longitude>-10.9</longitude>
  </city>
  <city name="Baraïné">
    <latitude>14.6666667</latitude>
    <longitude>-9.0666667</longitude>
  </city>
  <city name="Barakaboagou">
    <latitude>14.2833333</latitude>
    <longitude>-5.55</longitude>
  </city>
  <city name="Barakabougou">
    <latitude>12.8666667</latitude>
    <longitude>-6.6333333</longitude>
  </city>
  <city name="Barakaïa">
    <latitude>13.1333333</latitude>
    <longitude>-8.8833333</longitude>
  </city>
  <city name="Barakolé">
    <latitude>14.4166667</latitude>
    <longitude>-11.2833333</longitude>
  </city>
  <city name="Barakolombougou">
    <latitude>13.9</latitude>
    <longitude>-8.05</longitude>
  </city>
  <city name="Barakolonbougou">
    <latitude>13.9</latitude>
    <longitude>-8.05</longitude>
  </city>
  <city name="Barakorodji">
    <latitude>13.5166667</latitude>
    <longitude>-8.7333333</longitude>
  </city>
  <city name="Barakoto">
    <latitude>12.6666667</latitude>
    <longitude>-11.05</longitude>
  </city>
  <city name="Barakotogoré">
    <latitude>13.8833333</latitude>
    <longitude>-10.3166667</longitude>
  </city>
  <city name="Barakourou">
    <latitude>12.3391667</latitude>
    <longitude>-8.6938889</longitude>
  </city>
  <city name="Barama">
    <latitude>14.3333333</latitude>
    <longitude>-9.9333333</longitude>
  </city>
  <city name="Baramabougou">
    <latitude>14.4333333</latitude>
    <longitude>-9.4</longitude>
  </city>
  <city name="Baramana">
    <latitude>12.8</latitude>
    <longitude>-5.6</longitude>
  </city>
  <city name="Baramandougou">
    <latitude>13.6</latitude>
    <longitude>-4.6</longitude>
  </city>
  <city name="Baramba">
    <latitude>12.6333333</latitude>
    <longitude>-5.45</longitude>
  </city>
  <city name="Baram">
    <latitude>12.7333333</latitude>
    <longitude>-9.3833333</longitude>
  </city>
  <city name="Barana">
    <latitude>13.1166667</latitude>
    <longitude>-4.5166667</longitude>
  </city>
  <city name="Baranian">
    <latitude>12.9666667</latitude>
    <longitude>-9.5833333</longitude>
  </city>
  <city name="Barani">
    <latitude>11.4</latitude>
    <longitude>-7.85</longitude>
  </city>
  <city name="Baranii">
    <latitude>13.5333333</latitude>
    <longitude>-11.5666667</longitude>
  </city>
  <city name="Baraninnba">
    <latitude>13.1166667</latitude>
    <longitude>-9.5166667</longitude>
  </city>
  <city name="Barao">
    <latitude>15.5833333</latitude>
    <longitude>-3.85</longitude>
  </city>
  <city name="Barassafé">
    <latitude>13.8333333</latitude>
    <longitude>-7.7</longitude>
  </city>
  <city name="Barassalé">
    <latitude>14.8</latitude>
    <longitude>-9.6166667</longitude>
  </city>
  <city name="Baratou">
    <latitude>13.9333333</latitude>
    <longitude>-4.4</longitude>
  </city>
  <city name="Barayogoulékana">
    <latitude>14.0</latitude>
    <longitude>-3.25</longitude>
  </city>
  <city name="Barbara">
    <latitude>12.3333333</latitude>
    <longitude>-10.9333333</longitude>
  </city>
  <city name="Barbon">
    <latitude>15.5</latitude>
    <longitude>0.5833333</longitude>
  </city>
  <city name="Baré">
    <latitude>14.0666667</latitude>
    <longitude>-3.5666667</longitude>
  </city>
  <city name="Barébougou">
    <latitude>14.1333333</latitude>
    <longitude>-6.0833333</longitude>
  </city>
  <city name="Baré Sémé">
    <latitude>15.3</latitude>
    <longitude>-3.8833333</longitude>
  </city>
  <city name="Barfa">
    <latitude>12.2</latitude>
    <longitude>-11.25</longitude>
  </city>
  <city name="Bargué">
    <latitude>14.8</latitude>
    <longitude>-3.0666667</longitude>
  </city>
  <city name="Barhanba">
    <latitude>12.6333333</latitude>
    <longitude>-5.45</longitude>
  </city>
  <city name="Barikoro">
    <latitude>14.7166667</latitude>
    <longitude>-5.8666667</longitude>
  </city>
  <city name="Barila">
    <latitude>10.9333333</latitude>
    <longitude>-8.15</longitude>
  </city>
  <city name="Barkadaga">
    <latitude>14.15</latitude>
    <longitude>-4.9833333</longitude>
  </city>
  <city name="Barkafou">
    <latitude>14.9666667</latitude>
    <longitude>-11.0666667</longitude>
  </city>
  <city name="Barkaïa">
    <latitude>13.1333333</latitude>
    <longitude>-8.8833333</longitude>
  </city>
  <city name="Barkaïna">
    <latitude>16.95</latitude>
    <longitude>-0.75</longitude>
  </city>
  <city name="Barkaya">
    <latitude>13.1333333</latitude>
    <longitude>-8.8833333</longitude>
  </city>
  <city name="Barké Amadou">
    <latitude>14.85</latitude>
    <longitude>-7.95</longitude>
  </city>
  <city name="Barkédaga">
    <latitude>14.15</latitude>
    <longitude>-4.9833333</longitude>
  </city>
  <city name="Barkérou">
    <latitude>15.2666667</latitude>
    <longitude>-5.5833333</longitude>
  </city>
  <city name="Barkeyna">
    <latitude>16.95</latitude>
    <longitude>-0.75</longitude>
  </city>
  <city name="Barkinelbi">
    <latitude>15.1666667</latitude>
    <longitude>-3.8666667</longitude>
  </city>
  <city name="Barlakourou Tinntila">
    <latitude>13.15</latitude>
    <longitude>-10.4</longitude>
  </city>
  <city name="Barna">
    <latitude>12.6166667</latitude>
    <longitude>-4.75</longitude>
  </city>
  <city name="Baro">
    <latitude>12.3302778</latitude>
    <longitude>-8.4558333</longitude>
  </city>
  <city name="Barou">
    <latitude>15.5833333</latitude>
    <longitude>-3.85</longitude>
  </city>
  <city name="Barouéli">
    <latitude>13.0666667</latitude>
    <longitude>-6.8333333</longitude>
  </city>
  <city name="Baroumba">
    <latitude>13.4</latitude>
    <longitude>-11.35</longitude>
  </city>
  <city name="Barsafè">
    <latitude>15.3</latitude>
    <longitude>-8.5666667</longitude>
  </city>
  <city name="Barsafé">
    <latitude>14.2833333</latitude>
    <longitude>-10.4833333</longitude>
  </city>
  <city name="Barsandaga">
    <latitude>13.7666667</latitude>
    <longitude>-9.65</longitude>
  </city>
  <city name="Bartaga">
    <latitude>16.3666667</latitude>
    <longitude>-0.0833333</longitude>
  </city>
  <city name="Bartyakoba">
    <latitude>15.6666667</latitude>
    <longitude>0.5</longitude>
  </city>
  <city name="Barwéli">
    <latitude>13.0666667</latitude>
    <longitude>-6.8333333</longitude>
  </city>
  <city name="Basaka">
    <latitude>15.2666667</latitude>
    <longitude>-8.6166667</longitude>
  </city>
  <city name="Basaro Wéré">
    <latitude>14.5</latitude>
    <longitude>-6.1</longitude>
  </city>
  <city name="Bascidialambougou">
    <latitude>13.3</latitude>
    <longitude>-6.8833333</longitude>
  </city>
  <city name="Basibougou">
    <latitude>14.3833333</latitude>
    <longitude>-8.3</longitude>
  </city>
  <city name="Bassa">
    <latitude>11.4333333</latitude>
    <longitude>-7.3</longitude>
  </city>
  <city name="Bassabougou">
    <latitude>13.0666667</latitude>
    <longitude>-8.3</longitude>
  </city>
  <city name="Bassaka">
    <latitude>15.2666667</latitude>
    <longitude>-8.6166667</longitude>
  </city>
  <city name="Bassalaba">
    <latitude>14.0</latitude>
    <longitude>-7.8833333</longitude>
  </city>
  <city name="Bassala">
    <latitude>14.0</latitude>
    <longitude>-7.8833333</longitude>
  </city>
  <city name="Bassara">
    <latitude>12.1166667</latitude>
    <longitude>-11.1666667</longitude>
  </city>
  <city name="Bassarey">
    <latitude>17.0</latitude>
    <longitude>-1.35</longitude>
  </city>
  <city name="Bassaro Wéré">
    <latitude>14.5</latitude>
    <longitude>-6.1</longitude>
  </city>
  <city name="Bassatou">
    <latitude>13.8333333</latitude>
    <longitude>-10.9</longitude>
  </city>
  <city name="Bassé">
    <latitude>13.95</latitude>
    <longitude>-11.5</longitude>
  </city>
  <city name="Bassédiguébi">
    <latitude>10.5666667</latitude>
    <longitude>-7.9166667</longitude>
  </city>
  <city name="Basselaba">
    <latitude>14.0</latitude>
    <longitude>-7.8833333</longitude>
  </city>
  <city name="Bassian">
    <latitude>12.3333333</latitude>
    <longitude>-7.4666667</longitude>
  </city>
  <city name="Bassibougou">
    <latitude>13.2833333</latitude>
    <longitude>-9.6</longitude>
  </city>
  <city name="Bassidialandougou">
    <latitude>13.3</latitude>
    <longitude>-6.8833333</longitude>
  </city>
  <city name="Bassidibédji">
    <latitude>10.5666667</latitude>
    <longitude>-7.9166667</longitude>
  </city>
  <city name="Bassidibédjin">
    <latitude>10.5666667</latitude>
    <longitude>-7.9166667</longitude>
  </city>
  <city name="Bassirou">
    <latitude>15.4</latitude>
    <longitude>-10.6666667</longitude>
  </city>
  <city name="Bassi-Tomon">
    <latitude>14.6833333</latitude>
    <longitude>-5.9333333</longitude>
  </city>
  <city name="Bassiya">
    <latitude>12.7833333</latitude>
    <longitude>-11.1666667</longitude>
  </city>
  <city name="Basso">
    <latitude>12.5166667</latitude>
    <longitude>-5.3333333</longitude>
  </city>
  <city name="Batakarédji">
    <latitude>15.2833333</latitude>
    <longitude>-9.5333333</longitude>
  </city>
  <city name="Batal">
    <latitude>16.3833333</latitude>
    <longitude>-0.0166667</longitude>
  </city>
  <city name="Batalé">
    <latitude>12.7333333</latitude>
    <longitude>-11.2</longitude>
  </city>
  <city name="Batama">
    <latitude>13.05</latitude>
    <longitude>-11.1666667</longitude>
  </city>
  <city name="Batanga">
    <latitude>17.0</latitude>
    <longitude>-0.7833333</longitude>
  </city>
  <city name="Batara">
    <latitude>13.4833333</latitude>
    <longitude>-5.6833333</longitude>
  </city>
  <city name="Batchirikui">
    <latitude>13.15</latitude>
    <longitude>-4.5</longitude>
  </city>
  <city name="Batérandé">
    <latitude>14.2833333</latitude>
    <longitude>-10.8333333</longitude>
  </city>
  <city name="Batibougou">
    <latitude>12.7919444</latitude>
    <longitude>-8.2891667</longitude>
  </city>
  <city name="Batiembougou">
    <latitude>13.4333333</latitude>
    <longitude>-6.05</longitude>
  </city>
  <city name="Batienso">
    <latitude>13.2</latitude>
    <longitude>-4.3166667</longitude>
  </city>
  <city name="Batigama">
    <latitude>16.3833333</latitude>
    <longitude>-0.0833333</longitude>
  </city>
  <city name="Batilaye">
    <latitude>12.3333333</latitude>
    <longitude>-10.7</longitude>
  </city>
  <city name="Batimakana">
    <latitude>13.25</latitude>
    <longitude>-9.3833333</longitude>
  </city>
  <city name="Batiokui">
    <latitude>13.1833333</latitude>
    <longitude>-4.7</longitude>
  </city>
  <city name="Batirilo">
    <latitude>13.6333333</latitude>
    <longitude>-4.4166667</longitude>
  </city>
  <city name="Bato">
    <latitude>12.9</latitude>
    <longitude>-10.8666667</longitude>
  </city>
  <city name="Batou">
    <latitude>14.3166667</latitude>
    <longitude>-2.5</longitude>
  </city>
  <city name="Batoudji">
    <latitude>12.75</latitude>
    <longitude>-9.85</longitude>
  </city>
  <city name="Batouma">
    <latitude>15.0</latitude>
    <longitude>-3.6166667</longitude>
  </city>
  <city name="Batroébougou">
    <latitude>14.7166667</latitude>
    <longitude>-8.4833333</longitude>
  </city>
  <city name="Battal">
    <latitude>16.3833333</latitude>
    <longitude>-0.0166667</longitude>
  </city>
  <city name="Bawa">
    <latitude>13.25</latitude>
    <longitude>-4.8666667</longitude>
  </city>
  <city name="Bawéma">
    <latitude>13.9</latitude>
    <longitude>-3.7</longitude>
  </city>
  <city name="Bayabougou">
    <latitude>13.1833333</latitude>
    <longitude>-8.4166667</longitude>
  </city>
  <city name="Bayala">
    <latitude>12.6166667</latitude>
    <longitude>-9.2333333</longitude>
  </city>
  <city name="Bayan">
    <latitude>12.1966667</latitude>
    <longitude>-8.6738889</longitude>
  </city>
  <city name="Bayasso">
    <latitude>13.1833333</latitude>
    <longitude>-4.7</longitude>
  </city>
  <city name="Baye">
    <latitude>13.35</latitude>
    <longitude>-10.95</longitude>
  </city>
  <city name="Bayéko">
    <latitude>12.8</latitude>
    <longitude>-9.2666667</longitude>
  </city>
  <city name="Bayélé">
    <latitude>12.0155556</latitude>
    <longitude>-7.6094444</longitude>
  </city>
  <city name="Bayo">
    <latitude>13.4</latitude>
    <longitude>-6.4166667</longitude>
  </city>
  <city name="Bayorobougou">
    <latitude>12.8730556</latitude>
    <longitude>-7.2583333</longitude>
  </city>
  <city name="Bayouko">
    <latitude>13.9833333</latitude>
    <longitude>-11.2166667</longitude>
  </city>
  <city name="Bazayokobougou">
    <latitude>11.9</latitude>
    <longitude>-8.0333333</longitude>
  </city>
  <city name="Bazogou">
    <latitude>13.7833333</latitude>
    <longitude>-3.55</longitude>
  </city>
  <city name="Béba">
    <latitude>15.5666667</latitude>
    <longitude>-3.3666667</longitude>
  </city>
  <city name="Bé">
    <latitude>13.15</latitude>
    <longitude>-5.5</longitude>
  </city>
  <city name="Bébé">
    <latitude>13.1</latitude>
    <longitude>-6.7833333</longitude>
  </city>
  <city name="Bédékoma">
    <latitude>14.0333333</latitude>
    <longitude>-10.2666667</longitude>
  </city>
  <city name="Bédéwel">
    <latitude>14.0166667</latitude>
    <longitude>-3.1833333</longitude>
  </city>
  <city name="Bèdèya">
    <latitude>12.4972222</latitude>
    <longitude>-8.6866667</longitude>
  </city>
  <city name="Béfarara">
    <latitude>15.3833333</latitude>
    <longitude>-11.4666667</longitude>
  </city>
  <city name="Bégéla">
    <latitude>11.7666667</latitude>
    <longitude>-8.05</longitude>
  </city>
  <city name="Bégéné">
    <latitude>12.7166667</latitude>
    <longitude>-6.5</longitude>
  </city>
  <city name="Bégnéna">
    <latitude>12.4</latitude>
    <longitude>-6.5666667</longitude>
  </city>
  <city name="Bégoudjindé">
    <latitude>16.5166667</latitude>
    <longitude>-0.0833333</longitude>
  </city>
  <city name="Béguéné">
    <latitude>12.7166667</latitude>
    <longitude>-6.5</longitude>
  </city>
  <city name="Béhékui">
    <latitude>13.2</latitude>
    <longitude>-4.3166667</longitude>
  </city>
  <city name="Beïdat">
    <latitude>15.45</latitude>
    <longitude>-8.8</longitude>
  </city>
  <city name="Béjéla">
    <latitude>11.7666667</latitude>
    <longitude>-8.05</longitude>
  </city>
  <city name="Békola">
    <latitude>12.7833333</latitude>
    <longitude>-11.1333333</longitude>
  </city>
  <city name="Bèkui">
    <latitude>13.4333333</latitude>
    <longitude>-4.7166667</longitude>
  </city>
  <city name="Béla">
    <latitude>11.1333333</latitude>
    <longitude>-7.05</longitude>
  </city>
  <city name="Bélabougou">
    <latitude>13.5166667</latitude>
    <longitude>-6.4</longitude>
  </city>
  <city name="Bélamougou">
    <latitude>14.3333333</latitude>
    <longitude>-6.8833333</longitude>
  </city>
  <city name="Bélé">
    <latitude>13.9</latitude>
    <longitude>-4.4666667</longitude>
  </city>
  <city name="Belebougou">
    <latitude>13.5166667</latitude>
    <longitude>-6.4</longitude>
  </city>
  <city name="Béléco">
    <latitude>12.65</latitude>
    <longitude>-6.5666667</longitude>
  </city>
  <city name="Béleélinko">
    <latitude>13.55</latitude>
    <longitude>-7.4166667</longitude>
  </city>
  <city name="Bélékanbougou">
    <latitude>13.2</latitude>
    <longitude>-8.0333333</longitude>
  </city>
  <city name="Béléko">
    <latitude>14.5833333</latitude>
    <longitude>-7.6333333</longitude>
  </city>
  <city name="Béléko Flala">
    <latitude>12.4666667</latitude>
    <longitude>-6.4166667</longitude>
  </city>
  <city name="Béléko Gwéngéna">
    <latitude>12.45</latitude>
    <longitude>-6.4333333</longitude>
  </city>
  <city name="Béléko Gwénguéna">
    <latitude>12.45</latitude>
    <longitude>-6.4333333</longitude>
  </city>
  <city name="Bélékoro">
    <latitude>12.4833333</latitude>
    <longitude>-6.4166667</longitude>
  </city>
  <city name="Béléko Soba">
    <latitude>12.4833333</latitude>
    <longitude>-6.4166667</longitude>
  </city>
  <city name="Bélékosso">
    <latitude>12.4333333</latitude>
    <longitude>-5.6166667</longitude>
  </city>
  <city name="Belekou">
    <latitude>12.4833333</latitude>
    <longitude>-6.4166667</longitude>
  </city>
  <city name="Bélèl">
    <latitude>16.9333333</latitude>
    <longitude>-1.7333333</longitude>
  </city>
  <city name="Bélénéko">
    <latitude>13.5833333</latitude>
    <longitude>-8.15</longitude>
  </city>
  <city name="Béléni">
    <latitude>12.3</latitude>
    <longitude>-6.45</longitude>
  </city>
  <city name="Béleninko">
    <latitude>13.2</latitude>
    <longitude>-7.3166667</longitude>
  </city>
  <city name="Béléninnko">
    <latitude>13.2</latitude>
    <longitude>-7.3166667</longitude>
  </city>
  <city name="Bélesso">
    <latitude>12.3166667</latitude>
    <longitude>-5.6</longitude>
  </city>
  <city name="Bélétéla">
    <latitude>13.3833333</latitude>
    <longitude>-5.7666667</longitude>
  </city>
  <city name="Belga">
    <latitude>15.45</latitude>
    <longitude>0.7333333</longitude>
  </city>
  <city name="Bélia">
    <latitude>15.4166667</latitude>
    <longitude>-1.7166667</longitude>
  </city>
  <city name="Bélidinkaré">
    <latitude>14.4333333</latitude>
    <longitude>-11.7</longitude>
  </city>
  <city name="Bélindo">
    <latitude>12.1619444</latitude>
    <longitude>-8.5291667</longitude>
  </city>
  <city name="Bella">
    <latitude>15.4166667</latitude>
    <longitude>-1.7166667</longitude>
  </city>
  <city name="Bellassao Diéna">
    <latitude>16.7333333</latitude>
    <longitude>-2.7333333</longitude>
  </city>
  <city name="Bellassao Djinguina">
    <latitude>16.7333333</latitude>
    <longitude>-2.7166667</longitude>
  </city>
  <city name="Bellassao Guiguina">
    <latitude>16.7333333</latitude>
    <longitude>-2.7166667</longitude>
  </city>
  <city name="Bellassao Zeyna">
    <latitude>16.7333333</latitude>
    <longitude>-2.7333333</longitude>
  </city>
  <city name="Belléko">
    <latitude>13.6166667</latitude>
    <longitude>-7.3333333</longitude>
  </city>
  <city name="Bellel">
    <latitude>16.9333333</latitude>
    <longitude>-1.7333333</longitude>
  </city>
  <city name="Bellénitiéni">
    <latitude>13.3833333</latitude>
    <longitude>-4.9166667</longitude>
  </city>
  <city name="Bélou">
    <latitude>14.5833333</latitude>
    <longitude>-11.6166667</longitude>
  </city>
  <city name="Béma">
    <latitude>15.05</latitude>
    <longitude>-9.35</longitude>
  </city>
  <city name="Bemanaou">
    <latitude>12.8902778</latitude>
    <longitude>-8.1122222</longitude>
  </city>
  <city name="Bémasa">
    <latitude>12.8902778</latitude>
    <longitude>-8.1122222</longitude>
  </city>
  <city name="Bémasso">
    <latitude>12.8902778</latitude>
    <longitude>-8.1122222</longitude>
  </city>
  <city name="Bembokoto">
    <latitude>13.8666667</latitude>
    <longitude>-11.7666667</longitude>
  </city>
  <city name="Bembougou">
    <latitude>11.7333333</latitude>
    <longitude>-6.5333333</longitude>
  </city>
  <city name="Bémékabougou">
    <latitude>12.0213889</latitude>
    <longitude>-7.8183333</longitude>
  </city>
  <city name="Bemmbokoto">
    <latitude>13.8666667</latitude>
    <longitude>-11.7666667</longitude>
  </city>
  <city name="Béna">
    <latitude>12.75</latitude>
    <longitude>-11.3666667</longitude>
  </city>
  <city name="Benandiana">
    <latitude>12.75</latitude>
    <longitude>-6.3166667</longitude>
  </city>
  <city name="Ben">
    <latitude>13.35</latitude>
    <longitude>-7.8166667</longitude>
  </city>
  <city name="Benda">
    <latitude>12.4833333</latitude>
    <longitude>-10.5333333</longitude>
  </city>
  <city name="Bendorobougou">
    <latitude>11.1833333</latitude>
    <longitude>-6.5666667</longitude>
  </city>
  <city name="Bendougou">
    <latitude>13.0666667</latitude>
    <longitude>-9.8666667</longitude>
  </city>
  <city name="Bénéma">
    <latitude>13.1166667</latitude>
    <longitude>-4.3666667</longitude>
  </city>
  <city name="Bénéna">
    <latitude>13.1166667</latitude>
    <longitude>-4.3666667</longitude>
  </city>
  <city name="Bénéni-Kégni">
    <latitude>13.3833333</latitude>
    <longitude>-4.9166667</longitude>
  </city>
  <city name="Bénénikényi">
    <latitude>13.3833333</latitude>
    <longitude>-4.9166667</longitude>
  </city>
  <city name="Bèngo">
    <latitude>14.6</latitude>
    <longitude>-6.9</longitude>
  </city>
  <city name="Bèniambougou">
    <latitude>12.6411111</latitude>
    <longitude>-8.1508333</longitude>
  </city>
  <city name="Bènian">
    <latitude>12.1313889</latitude>
    <longitude>-7.1705556</longitude>
  </city>
  <city name="Béniani">
    <latitude>13.5</latitude>
    <longitude>-7.5666667</longitude>
  </city>
  <city name="Béni">
    <latitude>12.8833333</latitude>
    <longitude>-4.6166667</longitude>
  </city>
  <city name="Bénima">
    <latitude>15.7333333</latitude>
    <longitude>-4.2</longitude>
  </city>
  <city name="Béninko">
    <latitude>12.6197222</latitude>
    <longitude>-7.3211111</longitude>
  </city>
  <city name="Béniouma">
    <latitude>14.1666667</latitude>
    <longitude>-3.3833333</longitude>
  </city>
  <city name="Benké Salima">
    <latitude>15.6333333</latitude>
    <longitude>-4.6166667</longitude>
  </city>
  <city name="Benkou">
    <latitude>12.4833333</latitude>
    <longitude>-6.4166667</longitude>
  </city>
  <city name="Bennbara">
    <latitude>14.1</latitude>
    <longitude>-3.1666667</longitude>
  </city>
  <city name="Benndiéli">
    <latitude>14.4666667</latitude>
    <longitude>-3.5833333</longitude>
  </city>
  <city name="Benngourla">
    <latitude>12.2166667</latitude>
    <longitude>-4.9666667</longitude>
  </city>
  <city name="Bennké-Salima">
    <latitude>15.6333333</latitude>
    <longitude>-4.6166667</longitude>
  </city>
  <city name="Bénoudakoto">
    <latitude>12.7666667</latitude>
    <longitude>-11.1166667</longitude>
  </city>
  <city name="Bentia">
    <latitude>15.35</latitude>
    <longitude>0.7666667</longitude>
  </city>
  <city name="Bényan">
    <latitude>12.1313889</latitude>
    <longitude>-7.1705556</longitude>
  </city>
  <city name="Bényéna">
    <latitude>12.4</latitude>
    <longitude>-6.5666667</longitude>
  </city>
  <city name="Bényoko">
    <latitude>14.2333333</latitude>
    <longitude>-8.55</longitude>
  </city>
  <city name="Benzana">
    <latitude>11.0333333</latitude>
    <longitude>-7.6333333</longitude>
  </city>
  <city name="Benzasso">
    <latitude>11.55</latitude>
    <longitude>-5.2666667</longitude>
  </city>
  <city name="Béra">
    <latitude>16.35</latitude>
    <longitude>-0.0333333</longitude>
  </city>
  <city name="Bérala">
    <latitude>11.7666667</latitude>
    <longitude>-7.3166667</longitude>
  </city>
  <city name="Berdossou">
    <latitude>14.7333333</latitude>
    <longitude>-3.05</longitude>
  </city>
  <city name="Bérébogola">
    <latitude>11.4333333</latitude>
    <longitude>-8.1833333</longitude>
  </city>
  <city name="Bèrèbougou">
    <latitude>12.5430556</latitude>
    <longitude>-7.4083333</longitude>
  </city>
  <city name="Bérébougoula">
    <latitude>10.6166667</latitude>
    <longitude>-8.2</longitude>
  </city>
  <city name="Beregoungo">
    <latitude>16.7333333</latitude>
    <longitude>-2.5833333</longitude>
  </city>
  <city name="Bérégoungou">
    <latitude>16.7333333</latitude>
    <longitude>-2.5833333</longitude>
  </city>
  <city name="Berékantounbo">
    <latitude>12.2833333</latitude>
    <longitude>-9.5333333</longitude>
  </city>
  <city name="Bérékégni">
    <latitude>12.6166667</latitude>
    <longitude>-9.2</longitude>
  </city>
  <city name="Béréko">
    <latitude>10.9833333</latitude>
    <longitude>-8.05</longitude>
  </city>
  <city name="Bérékoma">
    <latitude>14.35</latitude>
    <longitude>-10.5166667</longitude>
  </city>
  <city name="Bérékoussa Dioma">
    <latitude>13.4166667</latitude>
    <longitude>-11.1666667</longitude>
  </city>
  <city name="Bèrèla">
    <latitude>12.3911111</latitude>
    <longitude>-8.3847222</longitude>
  </city>
  <city name="Bérélé">
    <latitude>14.65</latitude>
    <longitude>-8.9333333</longitude>
  </city>
  <city name="Béréli">
    <latitude>14.2666667</latitude>
    <longitude>-3.2166667</longitude>
  </city>
  <city name="Bérémassou">
    <latitude>13.65</latitude>
    <longitude>-10.6166667</longitude>
  </city>
  <city name="Bérétékounda">
    <latitude>13.35</latitude>
    <longitude>-10.6333333</longitude>
  </city>
  <city name="Bérétéla">
    <latitude>13.4666667</latitude>
    <longitude>-5.95</longitude>
  </city>
  <city name="Bèrèya">
    <latitude>12.5463889</latitude>
    <longitude>-8.7575</longitude>
  </city>
  <city name="Bèrgènaré">
    <latitude>15.2</latitude>
    <longitude>-7.35</longitude>
  </city>
  <city name="Bèrguènaré">
    <latitude>15.2</latitude>
    <longitude>-7.35</longitude>
  </city>
  <city name="Bérian">
    <latitude>11.4166667</latitude>
    <longitude>-7.9333333</longitude>
  </city>
  <city name="Bérila">
    <latitude>11.45</latitude>
    <longitude>-7.4166667</longitude>
  </city>
  <city name="Bérinbé">
    <latitude>13.6</latitude>
    <longitude>-3.6833333</longitude>
  </city>
  <city name="Berkégni">
    <latitude>12.8333333</latitude>
    <longitude>-11.0666667</longitude>
  </city>
  <city name="Bérola">
    <latitude>13.0333333</latitude>
    <longitude>-11.0166667</longitude>
  </city>
  <city name="Berta">
    <latitude>13.7166667</latitude>
    <longitude>-5.2</longitude>
  </city>
  <city name="Bertela">
    <latitude>13.4666667</latitude>
    <longitude>-5.95</longitude>
  </city>
  <city name="Bertéla">
    <latitude>12.7833333</latitude>
    <longitude>-6.8666667</longitude>
  </city>
  <city name="Bèrzak">
    <latitude>15.1166667</latitude>
    <longitude>-7.25</longitude>
  </city>
  <city name="Bessébougou">
    <latitude>14.35</latitude>
    <longitude>-11.5</longitude>
  </city>
  <city name="Bessina">
    <latitude>10.9833333</latitude>
    <longitude>-6.7666667</longitude>
  </city>
  <city name="Besso">
    <latitude>12.1</latitude>
    <longitude>-4.9833333</longitude>
  </city>
  <city name="Bétéandi">
    <latitude>12.95</latitude>
    <longitude>-9.7666667</longitude>
  </city>
  <city name="Beyabougou">
    <latitude>13.1833333</latitude>
    <longitude>-8.4166667</longitude>
  </city>
  <city name="Bia">
    <latitude>16.85</latitude>
    <longitude>-0.3</longitude>
  </city>
  <city name="Bi">
    <latitude>13.9166667</latitude>
    <longitude>-2.9333333</longitude>
  </city>
  <city name="Bicatongo">
    <latitude>16.7333333</latitude>
    <longitude>-3.7333333</longitude>
  </city>
  <city name="Bida">
    <latitude>11.9166667</latitude>
    <longitude>-8.65</longitude>
  </city>
  <city name="Bidandji">
    <latitude>15.2</latitude>
    <longitude>-10.7</longitude>
  </city>
  <city name="Bidangala">
    <latitude>12.6</latitude>
    <longitude>-10.9333333</longitude>
  </city>
  <city name="Bidi">
    <latitude>13.4666667</latitude>
    <longitude>-3.9166667</longitude>
  </city>
  <city name="Bienso">
    <latitude>13.2666667</latitude>
    <longitude>-4.9666667</longitude>
  </city>
  <city name="Biko">
    <latitude>11.9</latitude>
    <longitude>-7.6333333</longitude>
  </city>
  <city name="Biladié">
    <latitude>11.0833333</latitude>
    <longitude>-7.15</longitude>
  </city>
  <city name="Biladji Kodlouroula">
    <latitude>14.9166667</latitude>
    <longitude>-9.85</longitude>
  </city>
  <city name="Biladjmi">
    <latitude>14.7</latitude>
    <longitude>-11.5166667</longitude>
  </city>
  <city name="Biladougou">
    <latitude>13.1333333</latitude>
    <longitude>-9.4833333</longitude>
  </city>
  <city name="Bilafoundou">
    <latitude>12.7166667</latitude>
    <longitude>-10.9666667</longitude>
  </city>
  <city name="Bilajmi">
    <latitude>15.0166667</latitude>
    <longitude>-11.25</longitude>
  </city>
  <city name="Bilalbankoré">
    <latitude>15.7166667</latitude>
    <longitude>-3.7666667</longitude>
  </city>
  <city name="Bilalíkoïra">
    <latitude>16.1833333</latitude>
    <longitude>-0.0333333</longitude>
  </city>
  <city name="Bilali Koyra">
    <latitude>16.1833333</latitude>
    <longitude>-0.0333333</longitude>
  </city>
  <city name="Bilali Sirandou">
    <latitude>15.15</latitude>
    <longitude>-5.5333333</longitude>
  </city>
  <city name="Bilantal">
    <latitude>15.2833333</latitude>
    <longitude>-1.5666667</longitude>
  </city>
  <city name="Bilé Dembéré">
    <latitude>14.9666667</latitude>
    <longitude>-4.3833333</longitude>
  </city>
  <city name="Bilèl">
    <latitude>16.0666667</latitude>
    <longitude>-3.2333333</longitude>
  </city>
  <city name="Bilifara">
    <latitude>12.8666667</latitude>
    <longitude>-9.2833333</longitude>
  </city>
  <city name="Biliko">
    <latitude>12.8833333</latitude>
    <longitude>-9.8666667</longitude>
  </city>
  <city name="Bilikouaté">
    <latitude>15.5333333</latitude>
    <longitude>-11.6</longitude>
  </city>
  <city name="Bilissibougou">
    <latitude>14.1333333</latitude>
    <longitude>-9.5333333</longitude>
  </city>
  <city name="Biljami">
    <latitude>15.0166667</latitude>
    <longitude>-11.25</longitude>
  </city>
  <city name="Bima">
    <latitude>14.9166667</latitude>
