<?xml version="1.0" encoding="UTF-8"?>
<country code="mn" name="Mongolie">
  <city name="Abaragin Khid">
    <latitude>45.7666667</latitude>
    <longitude>111.2</longitude>
  </city>
  <city name="Abaraha">
    <latitude>44.3833333</latitude>
    <longitude>105.55</longitude>
  </city>
  <city name="Abarahaiin Hiid">
    <latitude>45.7666667</latitude>
    <longitude>111.2</longitude>
  </city>
  <city name="Abarahaiin Hural">
    <latitude>45.2166667</latitude>
    <longitude>108.0333333</longitude>
  </city>
  <city name="Abarahaiin Süme">
    <latitude>45.7666667</latitude>
    <longitude>111.2</longitude>
  </city>
  <city name="Abdaliin Hüryee">
    <latitude>48.9833333</latitude>
    <longitude>98.3333333</longitude>
  </city>
  <city name="Abdaliin khure">
    <latitude>48.9833333</latitude>
    <longitude>98.3333333</longitude>
  </city>
  <city name="Abdara-Bayan">
    <latitude>47.1666667</latitude>
    <longitude>107.1666667</longitude>
  </city>
  <city name="Abdara Bayan Sume">
    <latitude>47.1666667</latitude>
    <longitude>107.1666667</longitude>
  </city>
  <city name="Abdara bayan sumu">
    <latitude>47.1666667</latitude>
    <longitude>107.1666667</longitude>
  </city>
  <city name="Abdarantaiin Hural">
    <latitude>44.6666667</latitude>
    <longitude>110.5</longitude>
  </city>
  <city name="Abdarantona Khural">
    <latitude>44.6666667</latitude>
    <longitude>110.5</longitude>
  </city>
  <city name="Abdarantön Khural">
    <latitude>44.6666667</latitude>
    <longitude>110.5</longitude>
  </city>
  <city name="Abdarantyn khural">
    <latitude>44.6666667</latitude>
    <longitude>110.5</longitude>
  </city>
  <city name="Abdar Bayan">
    <latitude>47.1666667</latitude>
    <longitude>107.1666667</longitude>
  </city>
  <city name="Abdar Bayan Somon">
    <latitude>47.1666667</latitude>
    <longitude>107.1666667</longitude>
  </city>
  <city name="Abdar Bayan Suma">
    <latitude>47.1666667</latitude>
    <longitude>107.1666667</longitude>
  </city>
  <city name="Abdartayn Süm">
    <latitude>46.3666667</latitude>
    <longitude>113.5833333</longitude>
  </city>
  <city name="Abdartayn Süme">
    <latitude>46.3666667</latitude>
    <longitude>113.5833333</longitude>
  </city>
  <city name="Abdartöyn Sume">
    <latitude>46.3666667</latitude>
    <longitude>113.5833333</longitude>
  </city>
  <city name="Abdartyn sume">
    <latitude>46.3666667</latitude>
    <longitude>113.5833333</longitude>
  </city>
  <city name="Abdartyyn sume">
    <latitude>46.3666667</latitude>
    <longitude>113.5833333</longitude>
  </city>
  <city name="Abdzaba">
    <latitude>47.9</latitude>
    <longitude>103.4166667</longitude>
  </city>
  <city name="Abdzava">
    <latitude>47.9</latitude>
    <longitude>103.4166667</longitude>
  </city>
  <city name="Aborahü hural">
    <latitude>44.3833333</latitude>
    <longitude>105.55</longitude>
  </city>
  <city name="Aborokhu sume">
    <latitude>44.3833333</latitude>
    <longitude>105.55</longitude>
  </city>
  <city name="Abudarabayan">
    <latitude>47.1666667</latitude>
    <longitude>107.1666667</longitude>
  </city>
  <city name="Aburahuin hural">
    <latitude>44.3833333</latitude>
    <longitude>105.55</longitude>
  </city>
  <city name="Aburahuin Sume">
    <latitude>45.7666667</latitude>
    <longitude>111.2</longitude>
  </city>
  <city name="Aburakhoyn Khid">
    <latitude>45.7666667</latitude>
    <longitude>111.2</longitude>
  </city>
  <city name="Aburakhöyn Khural">
    <latitude>45.2166667</latitude>
    <longitude>108.0333333</longitude>
  </city>
  <city name="Aburakhyyn Khid">
    <latitude>45.7666667</latitude>
    <longitude>111.2</longitude>
  </city>
  <city name="Aburakhyyn khural">
    <latitude>45.2166667</latitude>
    <longitude>108.0333333</longitude>
  </city>
  <city name="Aburgain-Khural">
    <latitude>45.2166667</latitude>
    <longitude>108.0333333</longitude>
  </city>
  <city name="Aburgayn Khural">
    <latitude>45.2166667</latitude>
    <longitude>108.0333333</longitude>
  </city>
  <city name="Aburgen-sume">
    <latitude>45.7666667</latitude>
    <longitude>111.2</longitude>
  </city>
  <city name="Aburugen Yashiro">
    <latitude>45.7666667</latitude>
    <longitude>111.2</longitude>
  </city>
  <city name="Achiutuin dugang">
    <latitude>48.7166667</latitude>
    <longitude>103.6666667</longitude>
  </city>
  <city name="Achuutaiin Dugang">
    <latitude>48.7166667</latitude>
    <longitude>103.6666667</longitude>
  </city>
  <city name="Achzhalchinyy khorsho">
    <latitude>48.0166667</latitude>
    <longitude>107.75</longitude>
  </city>
  <city name="Achzhirigyyn Khure">
    <latitude>48.8166667</latitude>
    <longitude>100.9666667</longitude>
  </city>
  <city name="Adaatsag">
    <latitude>46.4166667</latitude>
    <longitude>105.7833333</longitude>
  </city>
  <city name="Agaratu">
    <latitude>43.1666667</latitude>
    <longitude>109.4333333</longitude>
  </city>
  <city name="Agaratu somon">
    <latitude>43.1666667</latitude>
    <longitude>109.4333333</longitude>
  </city>
  <city name="Agaratu-Sumu">
    <latitude>43.1666667</latitude>
    <longitude>109.4333333</longitude>
  </city>
  <city name="Agarut">
    <latitude>43.1666667</latitude>
    <longitude>109.4333333</longitude>
  </city>
  <city name="Agarutu Somon">
    <latitude>43.1666667</latitude>
    <longitude>109.4333333</longitude>
  </city>
  <city name="Agarutu-sumu">
    <latitude>43.1666667</latitude>
    <longitude>109.4333333</longitude>
  </city>
  <city name="Agaruut">
    <latitude>43.1666667</latitude>
    <longitude>109.4333333</longitude>
  </city>
  <city name="Agaruuta Suma">
    <latitude>43.1666667</latitude>
    <longitude>109.4333333</longitude>
  </city>
  <city name="Agaruutü">
    <latitude>43.1666667</latitude>
    <longitude>109.4333333</longitude>
  </city>
  <city name="Agatayn Hiid">
    <latitude>46.5833333</latitude>
    <longitude>108.6166667</longitude>
  </city>
  <city name="Agatön Khid">
    <latitude>46.5833333</latitude>
    <longitude>108.6166667</longitude>
  </city>
  <city name="Agatöyn Khid">
    <latitude>46.5833333</latitude>
    <longitude>108.6166667</longitude>
  </city>
  <city name="Agatyn-Khid">
    <latitude>46.5833333</latitude>
    <longitude>108.6166667</longitude>
  </city>
  <city name="Agatyyn Khid">
    <latitude>46.5833333</latitude>
    <longitude>108.6166667</longitude>
  </city>
  <city name="Agita Hüryee">
    <latitude>47.5</latitude>
    <longitude>96.8333333</longitude>
  </city>
  <city name="Agitu Khure">
    <latitude>47.5</latitude>
    <longitude>96.8333333</longitude>
  </city>
  <city name="Aguy-sume">
    <latitude>42.5833333</latitude>
    <longitude>107.8</longitude>
  </city>
  <city name="Aguy Süme Hiid">
    <latitude>42.5833333</latitude>
    <longitude>107.8</longitude>
  </city>
  <city name="Aguy sume khid">
    <latitude>42.5833333</latitude>
    <longitude>107.8</longitude>
  </city>
  <city name="Aguytayn Jisa">
    <latitude>47.05</latitude>
    <longitude>107.65</longitude>
  </city>
  <city name="Aguytuin chzhisa">
    <latitude>47.05</latitude>
    <longitude>107.65</longitude>
  </city>
  <city name="Aguytuyn chzhisa">
    <latitude>47.05</latitude>
    <longitude>107.65</longitude>
  </city>
  <city name="Ahay-Beeseiin-Hüree">
    <latitude>46.6</latitude>
    <longitude>109.4</longitude>
  </city>
  <city name="Ahay Beeseiin Hüryee">
    <latitude>46.6</latitude>
    <longitude>109.4</longitude>
  </city>
  <city name="Ajilchinii Horshoo">
    <latitude>48.0166667</latitude>
    <longitude>107.75</longitude>
  </city>
  <city name="Ajirigaiin-Hüree">
    <latitude>48.8166667</latitude>
    <longitude>100.9666667</longitude>
  </city>
  <city name="Ajirigaiin Hüryee">
    <latitude>48.8166667</latitude>
    <longitude>100.9666667</longitude>
  </city>
  <city name="Ak-aral">
    <latitude>49.2</latitude>
    <longitude>90.9</longitude>
  </city>
  <city name="Akhaybeysin Khure">
    <latitude>46.6</latitude>
    <longitude>109.4</longitude>
  </city>
  <city name="A-la-erh-t'u">
    <latitude>48.6833333</latitude>
    <longitude>115.9666667</longitude>
  </city>
  <city name="Alag-Erdene">
    <latitude>50.1213889</latitude>
    <longitude>100.0430556</longitude>
  </city>
  <city name="Alag Erdeni">
    <latitude>50.1213889</latitude>
    <longitude>100.0430556</longitude>
  </city>
  <city name="Alag-erdeni somon">
    <latitude>50.1213889</latitude>
    <longitude>100.0430556</longitude>
  </city>
  <city name="Alag Erdeni Suma">
    <latitude>50.1213889</latitude>
    <longitude>100.0430556</longitude>
  </city>
  <city name="Alag Erdeni Sume">
    <latitude>50.1213889</latitude>
    <longitude>100.0430556</longitude>
  </city>
  <city name="Alag-Erdeni-Sumu">
    <latitude>50.1213889</latitude>
    <longitude>100.0430556</longitude>
  </city>
  <city name="Alag Hololiin Örtöö">
    <latitude>47.2333333</latitude>
    <longitude>113.95</longitude>
  </city>
  <city name="Alag Hötöliin Örtöö">
    <latitude>47.2333333</latitude>
    <longitude>113.95</longitude>
  </city>
  <city name="Alagiin Süme">
    <latitude>44.75</latitude>
    <longitude>110.4166667</longitude>
  </city>
  <city name="Alagin Sume">
    <latitude>44.75</latitude>
    <longitude>110.4166667</longitude>
  </city>
  <city name="Alag Khululöyn Urto">
    <latitude>47.2333333</latitude>
    <longitude>113.95</longitude>
  </city>
  <city name="Alag Khutulöyn Urto">
    <latitude>47.2333333</latitude>
    <longitude>113.95</longitude>
  </city>
  <city name="Alag Khutulyyn Urto">
    <latitude>47.2333333</latitude>
    <longitude>113.95</longitude>
  </city>
  <city name="Alag-Tutulyyn">
    <latitude>47.2333333</latitude>
    <longitude>113.95</longitude>
  </city>
  <city name="Alartu">
    <latitude>48.6833333</latitude>
    <longitude>115.9666667</longitude>
  </city>
  <city name="Alata">
    <latitude>48.6833333</latitude>
    <longitude>115.9666667</longitude>
  </city>
  <city name="Aldar">
    <latitude>47.7</latitude>
    <longitude>96.6</longitude>
  </city>
  <city name="Aldarhaan">
    <latitude>47.7</latitude>
    <longitude>96.6</longitude>
  </city>
  <city name="Aldar Haan Suma">
    <latitude>47.7</latitude>
    <longitude>96.6</longitude>
  </city>
  <city name="Aldar han">
    <latitude>47.7</latitude>
    <longitude>96.6</longitude>
  </city>
  <city name="Aldarhan sumu">
    <latitude>47.7</latitude>
    <longitude>96.6</longitude>
  </city>
  <city name="Aldarkhaan">
    <latitude>47.7</latitude>
    <longitude>96.6</longitude>
  </city>
  <city name="Aldarkhan">
    <latitude>47.7</latitude>
    <longitude>96.6</longitude>
  </city>
  <city name="Aldar Khan Somon">
    <latitude>47.7</latitude>
    <longitude>96.6</longitude>
  </city>
  <city name="Aldir">
    <latitude>47.7</latitude>
    <longitude>96.6</longitude>
  </city>
  <city name="Aldyr">
    <latitude>47.7</latitude>
    <longitude>96.6</longitude>
  </city>
  <city name="Aleta">
    <latitude>48.6833333</latitude>
    <longitude>115.9666667</longitude>
  </city>
  <city name="Aletu">
    <latitude>48.6833333</latitude>
    <longitude>115.9666667</longitude>
  </city>
  <city name="A-li-k'o">
    <latitude>50.45</latitude>
    <longitude>100.9</longitude>
  </city>
  <city name="A-lo-te-erh">
    <latitude>47.7</latitude>
    <longitude>96.6</longitude>
  </city>
  <city name="Altaï">
    <latitude>48.3</latitude>
    <longitude>89.5</longitude>
  </city>
  <city name="Altai">
    <latitude>45.8</latitude>
    <longitude>92.2833333</longitude>
  </city>
  <city name="Altan">
    <latitude>48.1166667</latitude>
    <longitude>95.7166667</longitude>
  </city>
  <city name="Altanbulag">
    <latitude>49.3</latitude>
    <longitude>96.3333333</longitude>
  </city>
  <city name="Altan Bulak">
    <latitude>50.3155556</latitude>
    <longitude>106.4986111</longitude>
  </city>
  <city name="Altan-Ovoo">
    <latitude>47.45</latitude>
    <longitude>101.7833333</longitude>
  </city>
  <city name="Altanshiree">
    <latitude>45.5333333</latitude>
    <longitude>110.4666667</longitude>
  </city>
  <city name="Altanteel">
    <latitude>47.1</latitude>
    <longitude>92.85</longitude>
  </city>
  <city name="Altan teeli">
    <latitude>47.1</latitude>
    <longitude>92.85</longitude>
  </city>
  <city name="Altan Teeli Somon">
    <latitude>47.1</latitude>
    <longitude>92.85</longitude>
  </city>
  <city name="Altan Teeli Suma">
    <latitude>47.1</latitude>
    <longitude>92.85</longitude>
  </city>
  <city name="Altan Teeli Sumu">
    <latitude>47.1</latitude>
    <longitude>92.85</longitude>
  </city>
  <city name="Altan-Tel">
    <latitude>47.1</latitude>
    <longitude>92.85</longitude>
  </city>
  <city name="Altan-Teli">
    <latitude>47.1</latitude>
    <longitude>92.85</longitude>
  </city>
  <city name="Altan Teli Sume">
    <latitude>47.1</latitude>
    <longitude>92.85</longitude>
  </city>
  <city name="Altantsögts">
    <latitude>49.05</latitude>
    <longitude>90.45</longitude>
  </city>
  <city name="Altatayn Dugang">
    <latitude>49.1666667</latitude>
    <longitude>103.1166667</longitude>
  </city>
  <city name="Altatuin dugang">
    <latitude>49.1666667</latitude>
    <longitude>103.1166667</longitude>
  </city>
  <city name="Altay">
    <latitude>48.3</latitude>
    <longitude>89.5</longitude>
  </city>
  <city name="Altay Somon">
    <latitude>45.8</latitude>
    <longitude>92.2833333</longitude>
  </city>
  <city name="Altay Suma">
    <latitude>45.8</latitude>
    <longitude>92.2833333</longitude>
  </city>
  <city name="Altay sumu">
    <latitude>45.8</latitude>
    <longitude>92.2833333</longitude>
  </city>
  <city name="Alton Brok">
    <latitude>50.3155556</latitude>
    <longitude>106.4986111</longitude>
  </city>
  <city name="Altraga">
    <latitude>50.2111111</latitude>
    <longitude>98.9508333</longitude>
  </city>
  <city name="Altyn-Bulak">
    <latitude>50.3155556</latitude>
    <longitude>106.4986111</longitude>
  </city>
  <city name="Amagalangiin Jisa Hiid">
    <latitude>46.85</latitude>
    <longitude>106.7333333</longitude>
  </city>
  <city name="Amagalanta Hiid">
    <latitude>48.9833333</latitude>
    <longitude>110.5666667</longitude>
  </city>
  <city name="Amaiin Usanii Hiid">
    <latitude>46.1333333</latitude>
    <longitude>104.4333333</longitude>
  </city>
  <city name="Amaiin-Usanii-Hiyd">
    <latitude>46.1333333</latitude>
    <longitude>104.4333333</longitude>
  </city>
  <city name="Amain Usunoy Khid">
    <latitude>46.1333333</latitude>
    <longitude>104.4333333</longitude>
  </city>
  <city name="Amain usunyy khid">
    <latitude>46.1333333</latitude>
    <longitude>104.4333333</longitude>
  </city>
  <city name="Amar-Buyantayn-Hüree">
    <latitude>44.6166667</latitude>
    <longitude>98.7</longitude>
  </city>
  <city name="Amar Buyantayn Hüryee">
    <latitude>44.6166667</latitude>
    <longitude>98.7</longitude>
  </city>
  <city name="Amardalay">
    <latitude>46.1333333</latitude>
    <longitude>106.3833333</longitude>
  </city>
  <city name="Amar Hiyd">
    <latitude>49.45</latitude>
    <longitude>105.05</longitude>
  </city>
  <city name="Amayn usunöy khid">
    <latitude>46.1333333</latitude>
    <longitude>104.4333333</longitude>
  </city>
  <city name="Amogalantu-Khid">
    <latitude>48.9833333</latitude>
    <longitude>110.5666667</longitude>
  </city>
  <city name="Amogolambu">
    <latitude>47.9</latitude>
    <longitude>107.0</longitude>
  </city>
  <city name="Amogolang-batur">
    <latitude>47.9</latitude>
    <longitude>107.0</longitude>
  </city>
  <city name="Amogolangöin chzhisa khid">
    <latitude>46.85</latitude>
    <longitude>106.7333333</longitude>
  </city>
  <city name="Amogolangöyn chzhisa khid">
    <latitude>46.85</latitude>
    <longitude>106.7333333</longitude>
  </city>
  <city name="Amogolangtu Khiit">
    <latitude>48.9833333</latitude>
    <longitude>110.5666667</longitude>
  </city>
  <city name="Amogolangyin chzhisa khid">
    <latitude>46.85</latitude>
    <longitude>106.7333333</longitude>
  </city>
  <city name="Amologan-Bator">
    <latitude>47.9</latitude>
    <longitude>107.0</longitude>
  </city>
  <city name="Amor Buyantiin Khure">
    <latitude>44.6166667</latitude>
    <longitude>98.7</longitude>
  </city>
  <city name="Amor buyantuin-fure">
    <latitude>44.6166667</latitude>
    <longitude>98.7</longitude>
  </city>
  <city name="Amor buyant'uin hürie">
    <latitude>44.6166667</latitude>
    <longitude>98.7</longitude>
  </city>
  <city name="Amor-Buyantuyn-Khure">
    <latitude>44.6166667</latitude>
    <longitude>98.7</longitude>
  </city>
  <city name="Amur Bayantuin Khure">
    <latitude>44.6166667</latitude>
    <longitude>98.7</longitude>
  </city>
  <city name="Amür büyantuin hurie">
    <latitude>44.6166667</latitude>
    <longitude>98.7</longitude>
  </city>
  <city name="A-pu-erh-kan-su-mu">
    <latitude>45.7666667</latitude>
    <longitude>111.2</longitude>
  </city>
  <city name="Ara Bayan Gol">
    <latitude>49.1166667</latitude>
    <longitude>106.35</longitude>
  </city>
  <city name="Ara-Bulag">
    <latitude>49.9</latitude>
    <longitude>99.4333333</longitude>
  </city>
  <city name="Ara Bulagiin Dugang">
    <latitude>48.4333333</latitude>
    <longitude>105.6</longitude>
  </city>
  <city name="Ara Bulag Suma">
    <latitude>49.9</latitude>
    <longitude>99.4333333</longitude>
  </city>
  <city name="Ara bulag sumu">
    <latitude>49.9</latitude>
    <longitude>99.4333333</longitude>
  </city>
  <city name="Ara-bulagyyn dugang">
    <latitude>48.4333333</latitude>
    <longitude>105.6</longitude>
  </city>
  <city name="Ara-Bulak Somon">
    <latitude>49.9</latitude>
    <longitude>99.4333333</longitude>
  </city>
  <city name="Ara Buluk Sume">
    <latitude>49.9</latitude>
    <longitude>99.4333333</longitude>
  </city>
  <city name="Arachzhargalanta Khid">
    <latitude>47.05</latitude>
    <longitude>115.05</longitude>
  </city>
  <city name="Arachzhargalanta Somon">
    <latitude>46.95</latitude>
    <longitude>115.2833333</longitude>
  </city>
  <city name="Ara chzhirgalantu">
    <latitude>47.05</latitude>
    <longitude>115.05</longitude>
  </city>
  <city name="Ara Djirgalantu">
    <latitude>47.05</latitude>
    <longitude>115.05</longitude>
  </city>
  <city name="Aradzhargalanta khid">
    <latitude>47.05</latitude>
    <longitude>115.05</longitude>
  </city>
  <city name="Aradzhargalanta-Somon">
    <latitude>46.95</latitude>
    <longitude>115.2833333</longitude>
  </city>
  <city name="Aradzhargalantu Khid">
    <latitude>47.05</latitude>
    <longitude>115.05</longitude>
  </city>
  <city name="Ara-Dzhirgalantu">
    <latitude>46.95</latitude>
    <longitude>115.2833333</longitude>
  </city>
  <city name="Ara Horoiin Hiid">
    <latitude>47.25</latitude>
    <longitude>113.9166667</longitude>
  </city>
  <city name="Araiin Hüryee">
    <latitude>46.85</latitude>
    <longitude>95.7333333</longitude>
  </city>
  <city name="Arain Khure">
    <latitude>46.85</latitude>
    <longitude>95.7333333</longitude>
  </city>
  <city name="Ara Jirgalanta Hiid">
    <latitude>47.05</latitude>
    <longitude>115.05</longitude>
  </city>
  <city name="Ara Jirgalanta Suma">
    <latitude>46.95</latitude>
    <longitude>115.2833333</longitude>
  </city>
  <city name="Ara Jirgalantu">
    <latitude>46.95</latitude>
    <longitude>115.2833333</longitude>
  </city>
  <city name="Ara Jirgalantu sumu">
    <latitude>46.95</latitude>
    <longitude>115.2833333</longitude>
  </city>
  <city name="Ara jirugarantu">
    <latitude>46.95</latitude>
    <longitude>115.2833333</longitude>
  </city>
  <city name="Ara Khoröyn Khid">
    <latitude>47.25</latitude>
    <longitude>113.9166667</longitude>
  </city>
  <city name="Ara khoryyn khid">
    <latitude>47.25</latitude>
    <longitude>113.9166667</longitude>
  </city>
  <city name="Araliin Dugang">
    <latitude>48.3</latitude>
    <longitude>108.65</longitude>
  </city>
  <city name="Aralyin dugang">
    <latitude>48.3</latitude>
    <longitude>108.65</longitude>
  </city>
  <city name="Aralyyn dugang">
    <latitude>48.3</latitude>
    <longitude>108.65</longitude>
  </city>
  <city name="Ar-Asgat">
    <latitude>48.2622222</latitude>
    <longitude>105.4119444</longitude>
  </city>
  <city name="Ara Teeliin Dugang">
    <latitude>48.6333333</latitude>
    <longitude>98.3666667</longitude>
  </city>
  <city name="Ara Unarshi Dugang">
    <latitude>49.3166667</latitude>
    <longitude>112.15</longitude>
  </city>
  <city name="Ara Ünürchi Dugan">
    <latitude>49.3166667</latitude>
    <longitude>112.15</longitude>
  </city>
  <city name="Ara-Unurshi-dugang">
    <latitude>49.3166667</latitude>
    <longitude>112.15</longitude>
  </city>
  <city name="Arbai Khere">
    <latitude>46.25</latitude>
    <longitude>102.7666667</longitude>
  </city>
  <city name="Ar Bayangol">
    <latitude>49.1166667</latitude>
    <longitude>106.35</longitude>
  </city>
  <city name="Arbay Heere">
    <latitude>46.25</latitude>
    <longitude>102.7666667</longitude>
  </city>
  <city name="Arbay hure">
    <latitude>46.25</latitude>
    <longitude>102.7666667</longitude>
  </city>
  <city name="Arbayin hure">
    <latitude>46.25</latitude>
    <longitude>102.7666667</longitude>
  </city>
  <city name="Arbayin Khure">
    <latitude>46.25</latitude>
    <longitude>102.7666667</longitude>
  </city>
  <city name="Arbay Khere">
    <latitude>46.25</latitude>
    <longitude>102.7666667</longitude>
  </city>
  <city name="Arbulag">
    <latitude>49.9</latitude>
    <longitude>99.4333333</longitude>
  </city>
  <city name="Ar-Dzhargalant">
    <latitude>47.05</latitude>
    <longitude>115.05</longitude>
  </city>
  <city name="Argalant">
    <latitude>44.05</latitude>
    <longitude>110.1333333</longitude>
  </city>
  <city name="Argalinta Suma">
    <latitude>43.4705556</latitude>
    <longitude>104.6516667</longitude>
  </city>
  <city name="Argalintayn Örtöö">
    <latitude>45.3166667</latitude>
    <longitude>102.2666667</longitude>
  </city>
  <city name="Argalintiin Urto">
    <latitude>45.3166667</latitude>
    <longitude>102.2666667</longitude>
  </city>
  <city name="Argalintiin yurt">
    <latitude>45.3166667</latitude>
    <longitude>102.2666667</longitude>
  </city>
  <city name="Argalintu">
    <latitude>43.4705556</latitude>
    <longitude>104.6516667</longitude>
  </city>
  <city name="Argalintu Somon">
    <latitude>43.4705556</latitude>
    <longitude>104.6516667</longitude>
  </city>
  <city name="Argalintu sumu">
    <latitude>43.4705556</latitude>
    <longitude>104.6516667</longitude>
  </city>
  <city name="Argatay">
    <latitude>45.7666667</latitude>
    <longitude>107.9833333</longitude>
  </city>
  <city name="Arguut">
    <latitude>45.45</latitude>
    <longitude>102.4166667</longitude>
  </city>
  <city name="Arhustai">
    <latitude>47.7</latitude>
    <longitude>107.7833333</longitude>
  </city>
  <city name="Arhust">
    <latitude>47.7</latitude>
    <longitude>107.7833333</longitude>
  </city>
  <city name="Arigiin Dugang">
    <latitude>50.3</latitude>
    <longitude>102.2</longitude>
  </city>
  <city name="Arig'iin hürie">
    <latitude>50.45</latitude>
    <longitude>100.9</longitude>
  </city>
  <city name="Arigiin Hüryee">
    <latitude>50.45</latitude>
    <longitude>100.9</longitude>
  </city>
  <city name="Arigin-Khure">
    <latitude>50.45</latitude>
    <longitude>100.9</longitude>
  </city>
  <city name="Arigyin Dugang">
    <latitude>50.3</latitude>
    <longitude>102.2</longitude>
  </city>
  <city name="Arigyyn dugang">
    <latitude>50.3</latitude>
    <longitude>102.2</longitude>
  </city>
  <city name="Arigyyn khure">
    <latitude>50.45</latitude>
    <longitude>100.9</longitude>
  </city>
  <city name="Arik">
    <latitude>50.45</latitude>
    <longitude>100.9</longitude>
  </city>
  <city name="Arik-Khure">
    <latitude>50.45</latitude>
    <longitude>100.9</longitude>
  </city>
  <city name="Arkhust">
    <latitude>47.7</latitude>
    <longitude>107.7833333</longitude>
  </city>
  <city name="Arsayn-shand">
    <latitude>44.9666667</latitude>
    <longitude>110.0833333</longitude>
  </city>
  <city name="Arshaan Hural">
    <latitude>42.4666667</latitude>
    <longitude>104.2833333</longitude>
  </city>
  <city name="Arshaanii Hüryee">
    <latitude>50.7666667</latitude>
    <longitude>100.8</longitude>
  </city>
  <city name="Arshaanta Suma">
    <latitude>49.1266667</latitude>
    <longitude>101.4280556</longitude>
  </city>
  <city name="Arshaantayn Hural">
    <latitude>46.5</latitude>
    <longitude>110.3333333</longitude>
  </city>
  <city name="Arshaantayn-Hüree">
    <latitude>44.9666667</latitude>
    <longitude>109.3</longitude>
  </city>
  <city name="Arshaantayn Hüryee">
    <latitude>44.9666667</latitude>
    <longitude>109.3</longitude>
  </city>
  <city name="Arshaantayn Süme">
    <latitude>45.3833333</latitude>
    <longitude>113.7</longitude>
  </city>
  <city name="Arshaantu">
    <latitude>49.1266667</latitude>
    <longitude>101.4280556</longitude>
  </city>
  <city name="Arshani khure">
    <latitude>50.7666667</latitude>
    <longitude>100.8</longitude>
  </city>
  <city name="Arshan Khural">
    <latitude>42.4666667</latitude>
    <longitude>104.2833333</longitude>
  </city>
  <city name="Arshan-kurul">
    <latitude>42.4666667</latitude>
    <longitude>104.2833333</longitude>
  </city>
  <city name="Arshantin Khure">
    <latitude>44.9666667</latitude>
    <longitude>109.3</longitude>
  </city>
  <city name="Arshantön Khural">
    <latitude>46.5</latitude>
    <longitude>110.3333333</longitude>
  </city>
  <city name="Arshantön Sume">
    <latitude>45.3833333</latitude>
    <longitude>113.7</longitude>
  </city>
  <city name="Arshantöyn Khure">
    <latitude>44.9666667</latitude>
    <longitude>109.3</longitude>
  </city>
  <city name="Arshantuin Khure">
    <latitude>48.9166667</latitude>
    <longitude>102.5</longitude>
  </city>
  <city name="Arshantu Khure">
    <latitude>49.1266667</latitude>
    <longitude>101.4280556</longitude>
  </city>
  <city name="Arshantu Somon">
    <latitude>49.1266667</latitude>
    <longitude>101.4280556</longitude>
  </city>
  <city name="Arshantu sumu">
    <latitude>49.1266667</latitude>
    <longitude>101.4280556</longitude>
  </city>
  <city name="Arshantyn-khural">
    <latitude>46.5</latitude>
    <longitude>110.3333333</longitude>
  </city>
  <city name="Arshantyn-khure">
    <latitude>44.9666667</latitude>
    <longitude>109.3</longitude>
  </city>
  <city name="Arshantyn Sume">
    <latitude>45.3833333</latitude>
    <longitude>113.7</longitude>
  </city>
  <city name="Arshantyyn khural">
    <latitude>46.5</latitude>
    <longitude>110.3333333</longitude>
  </city>
  <city name="Arshantyyn Khure">
    <latitude>44.9666667</latitude>
    <longitude>109.3</longitude>
  </city>
  <city name="Arsnan khural">
    <latitude>42.4666667</latitude>
    <longitude>104.2833333</longitude>
  </city>
  <city name="Artsatayn Dugang">
    <latitude>48.1666667</latitude>
    <longitude>105.5</longitude>
  </city>
  <city name="Artsatayn Shiliin Hiid">
    <latitude>43.8</latitude>
    <longitude>104.6833333</longitude>
  </city>
  <city name="Artsatii Shiliin Hiid">
    <latitude>43.8</latitude>
    <longitude>104.6833333</longitude>
  </city>
  <city name="Artsatii Shiliin Hiyd">
    <latitude>43.8</latitude>
    <longitude>104.6833333</longitude>
  </city>
  <city name="Artsatuin dugang">
    <latitude>48.1666667</latitude>
    <longitude>105.5</longitude>
  </city>
  <city name="Artsatuin shiliin khid">
    <latitude>43.8</latitude>
    <longitude>104.6833333</longitude>
  </city>
  <city name="Artsatuyn shiliin khid">
    <latitude>43.8</latitude>
    <longitude>104.6833333</longitude>
  </city>
  <city name="Artsatyn Dugang">
    <latitude>48.1666667</latitude>
    <longitude>105.5</longitude>
  </city>
  <city name="Arubai gere">
    <latitude>46.25</latitude>
    <longitude>102.7666667</longitude>
  </city>
  <city name="Arudïru">
    <latitude>47.7</latitude>
    <longitude>96.6</longitude>
  </city>
  <city name="Arushan fururu">
    <latitude>42.4666667</latitude>
    <longitude>104.2833333</longitude>
  </city>
  <city name="Arushan-fururu">
    <latitude>45.3833333</latitude>
    <longitude>113.7</longitude>
  </city>
  <city name="Arushan-kururu">
    <latitude>42.4666667</latitude>
    <longitude>104.2833333</longitude>
  </city>
  <city name="Arutan teri">
    <latitude>47.1</latitude>
    <longitude>92.85</longitude>
  </city>
  <city name="Arvayheer">
    <latitude>46.25</latitude>
    <longitude>102.7666667</longitude>
  </city>
  <city name="Arwaïkheer">
    <latitude>46.25</latitude>
    <longitude>102.7666667</longitude>
  </city>
  <city name="Asahatay">
    <latitude>45.8166667</latitude>
    <longitude>113.75</longitude>
  </city>
  <city name="Asahatayn Hüryee">
    <latitude>49.4</latitude>
    <longitude>100.7166667</longitude>
  </city>
  <city name="Asahatayn Suurin Hiid">
    <latitude>48.6666667</latitude>
    <longitude>111.1666667</longitude>
  </city>
  <city name="Asahatay Suma">
    <latitude>45.8166667</latitude>
    <longitude>113.75</longitude>
  </city>
  <city name="Asahtu Sumu">
    <latitude>45.8166667</latitude>
    <longitude>113.75</longitude>
  </city>
  <city name="Asakhtu">
    <latitude>45.8166667</latitude>
    <longitude>113.75</longitude>
  </city>
  <city name="Asaralta">
    <latitude>48.4166667</latitude>
    <longitude>107.5</longitude>
  </city>
  <city name="Asgat">
    <latitude>46.3666667</latitude>
    <longitude>113.6</longitude>
  </city>
  <city name="Ashatay">
    <latitude>45.8333333</latitude>
    <longitude>113.7666667</longitude>
  </city>
  <city name="Ashatayn-Hüree">
    <latitude>49.6</latitude>
    <longitude>101.6666667</longitude>
  </city>
  <city name="Ashatü">
    <latitude>45.8166667</latitude>
    <longitude>113.75</longitude>
  </city>
  <city name="Askhate Somon">
    <latitude>45.8166667</latitude>
    <longitude>113.75</longitude>
  </city>
  <city name="Askhatiin Suriin Khiit">
    <latitude>48.6666667</latitude>
    <longitude>111.1666667</longitude>
  </city>
  <city name="Askhatuin khure">
    <latitude>49.4</latitude>
    <longitude>100.7166667</longitude>
  </city>
  <city name="Askhatuin-surin-khid">
    <latitude>48.6666667</latitude>
    <longitude>111.1666667</longitude>
  </city>
  <city name="Assarlite">
    <latitude>48.4166667</latitude>
    <longitude>107.5</longitude>
  </city>
  <city name="Atatyn-Khid">
    <latitude>46.5833333</latitude>
    <longitude>108.6166667</longitude>
  </city>
  <city name="Audzaga">
    <latitude>47.9</latitude>
    <longitude>103.4166667</longitude>
  </city>
  <city name="Avdzaga">
    <latitude>47.6333333</latitude>
    <longitude>103.5166667</longitude>
  </city>
  <city name="Avraga">
    <latitude>47.1833333</latitude>
    <longitude>109.1666667</longitude>
  </city>
  <city name="Awdzaga">
    <latitude>47.9</latitude>
    <longitude>103.4166667</longitude>
  </city>
  <city name="Ayagatayn Dugang">
    <latitude>48.8333333</latitude>
    <longitude>99.5</longitude>
  </city>
  <city name="Ayagatayn Dugang Hiid">
    <latitude>47.9833333</latitude>
    <longitude>106.2</longitude>
  </city>
  <city name="Ayagatuin Dugang Khid">
    <latitude>47.9833333</latitude>
    <longitude>106.2</longitude>
  </city>
  <city name="Ayagtuin dugang">
    <latitude>48.8333333</latitude>
    <longitude>99.5</longitude>
  </city>
  <city name="Aygatayn Dugang">
    <latitude>49.0166667</latitude>
    <longitude>101.05</longitude>
  </city>
  <city name="Aygatuin dugang">
    <latitude>49.0166667</latitude>
    <longitude>101.05</longitude>
  </city>
  <city name="Aylbayan">
    <latitude>43.6333333</latitude>
    <longitude>108.9</longitude>
  </city>
  <city name="Aymagay Hiid">
    <latitude>45.9166667</latitude>
    <longitude>111.6166667</longitude>
  </city>
  <city name="Aymagay Khid">
    <latitude>45.9166667</latitude>
    <longitude>111.6166667</longitude>
  </city>
  <city name="Ayrag">
    <latitude>45.8</latitude>
    <longitude>109.3333333</longitude>
  </city>
  <city name="Azakhachi">
    <latitude>47.8333333</latitude>
    <longitude>114.2833333</longitude>
  </city>
  <city name="Baan Khuduk">
    <latitude>47.1666667</latitude>
    <longitude>110.8166667</longitude>
  </city>
  <city name="Baatar Uan Hüryee">
    <latitude>49.4166667</latitude>
    <longitude>102.7</longitude>
  </city>
  <city name="Baatar Wang Hüryee">
    <latitude>49.4166667</latitude>
    <longitude>102.7</longitude>
  </city>
  <city name="Baatsagaan">
    <latitude>45.55</latitude>
    <longitude>99.4166667</longitude>
  </city>
  <city name="Babaiin Hüryee">
    <latitude>48.4</latitude>
    <longitude>102.9666667</longitude>
  </city>
  <city name="Babuin Khure">
    <latitude>48.4</latitude>
    <longitude>102.9666667</longitude>
  </city>
  <city name="Badmashin">
    <latitude>47.2833333</latitude>
    <longitude>116.65</longitude>
  </city>
  <city name="Badrah">
    <latitude>49.6183333</latitude>
    <longitude>101.9897222</longitude>
  </city>
  <city name="Baga Mandal">
    <latitude>48.4333333</latitude>
    <longitude>106.7666667</longitude>
  </city>
  <city name="Baga Modo Hiid">
    <latitude>42.75</latitude>
    <longitude>106.8</longitude>
  </city>
  <city name="Baga Sargalant">
    <latitude>48.3166667</latitude>
    <longitude>106.8</longitude>
  </city>
  <city name="Baga Suji">
    <latitude>48.3166667</latitude>
    <longitude>106.25</longitude>
  </city>
  <city name="Bagiin Dugang">
    <latitude>47.55</latitude>
    <longitude>101.3</longitude>
  </city>
  <city name="Bagmodo khid">
    <latitude>42.75</latitude>
    <longitude>106.8</longitude>
  </city>
  <city name="Bagmodo-Khural">
    <latitude>42.75</latitude>
    <longitude>106.8</longitude>
  </city>
  <city name="Bagshiin Hiid">
    <latitude>47.7333333</latitude>
    <longitude>106.9833333</longitude>
  </city>
  <city name="Bagshiin-Hiyd">
    <latitude>47.7333333</latitude>
    <longitude>106.9833333</longitude>
  </city>
  <city name="Bagshiin Khid">
    <latitude>47.7333333</latitude>
    <longitude>106.9833333</longitude>
  </city>
  <city name="Baidariku">
    <latitude>47.2833333</latitude>
    <longitude>99.6666667</longitude>
  </city>
  <city name="Baïdrag">
    <latitude>47.0333333</latitude>
    <longitude>99.5</longitude>
  </city>
  <city name="Bain Belk">
    <latitude>45.4</latitude>
    <longitude>106.75</longitude>
  </city>
  <city name="Bain Belki">
    <latitude>45.4</latitude>
    <longitude>106.75</longitude>
  </city>
  <city name="Bain-chzhargalanta Somon">
    <latitude>45.7666667</latitude>
    <longitude>107.9833333</longitude>
  </city>
  <city name="Bain-delger Somon">
    <latitude>45.7166667</latitude>
    <longitude>112.35</longitude>
  </city>
  <city name="Bain Delgerulegchi Sume">
    <latitude>46.85</latitude>
    <longitude>115.5333333</longitude>
  </city>
  <city name="Bain-Del'gir-Somon">
    <latitude>45.7166667</latitude>
    <longitude>112.35</longitude>
  </city>
  <city name="Bain don">
    <latitude>48.7333333</latitude>
    <longitude>114.55</longitude>
  </city>
  <city name="Bain-dugan">
    <latitude>49.5166667</latitude>
    <longitude>103.6166667</longitude>
  </city>
  <city name="Bain-Dzhargalanta-somon">
    <latitude>45.7666667</latitude>
    <longitude>107.9833333</longitude>
  </city>
  <city name="Bain-Dzhirgalang-sumu">
    <latitude>45.7666667</latitude>
    <longitude>107.9833333</longitude>
  </city>
  <city name="Bain-gol">
    <latitude>48.9116667</latitude>
    <longitude>106.0866667</longitude>
  </city>
  <city name="Bain khayerkhen">
    <latitude>48.1</latitude>
    <longitude>102.5</longitude>
  </city>
  <city name="Bain Khid">
    <latitude>44.9166667</latitude>
    <longitude>108.9166667</longitude>
  </city>
  <city name="Bain-khodzhir">
    <latitude>48.25</latitude>
    <longitude>106.3333333</longitude>
  </city>
  <city name="Bain Khoshu">
    <latitude>45.6</latitude>
    <longitude>106.7666667</longitude>
  </city>
  <city name="Bainkobïru">
    <latitude>44.5333333</latitude>
    <longitude>100.1333333</longitude>
  </city>
  <city name="Bain Munkhoyn">
    <latitude>47.4</latitude>
    <longitude>110.6666667</longitude>
  </city>
  <city name="Bain Munkhöyn Salbar Khorsho">
    <latitude>46.7666667</latitude>
    <longitude>109.8333333</longitude>
  </city>
  <city name="Bain Munkhu khid">
    <latitude>47.1</latitude>
    <longitude>109.7666667</longitude>
  </city>
  <city name="Bain Munkhyyn Salbar Khorsho">
    <latitude>46.7666667</latitude>
    <longitude>109.8333333</longitude>
  </city>
  <city name="Bain-Munkhyyn Shandyyn urto">
    <latitude>47.4</latitude>
    <longitude>110.6666667</longitude>
  </city>
  <city name="Bain Munkin Khid">
    <latitude>45.2</latitude>
    <longitude>111.4666667</longitude>
  </city>
  <city name="Bain-Munku-Khid">
    <latitude>45.2</latitude>
    <longitude>111.4666667</longitude>
  </city>
  <city name="Bain Munku Khid">
    <latitude>47.1</latitude>
    <longitude>109.7666667</longitude>
  </city>
  <city name="Bain-Munku Somon">
    <latitude>45.0666667</latitude>
    <longitude>111.1333333</longitude>
  </city>
  <city name="Bain-munku Somon">
    <latitude>46.9</latitude>
    <longitude>109.75</longitude>
  </city>
  <city name="Bain-obo Somon">
    <latitude>47.7833333</latitude>
    <longitude>112.1166667</longitude>
  </city>
  <city name="Bain-terme Somon">
    <latitude>47.1333333</latitude>
    <longitude>112.3833333</longitude>
  </city>
  <city name="Baintomenhashu">
    <latitude>48.0666667</latitude>
    <longitude>114.5</longitude>
  </city>
  <city name="Bain-tsogto Somon">
    <latitude>46.1666667</latitude>
    <longitude>109.0</longitude>
  </city>
  <city name="Bain-tsurkhe">
    <latitude>48.65</latitude>
    <longitude>103.7166667</longitude>
  </city>
  <city name="Bain-tszurkhe">
    <latitude>48.65</latitude>
    <longitude>103.7166667</longitude>
  </city>
  <city name="Bain Tumen">
    <latitude>48.05</latitude>
    <longitude>114.3666667</longitude>
  </city>
  <city name="Bain-ulan Somon">
    <latitude>47.5</latitude>
    <longitude>109.25</longitude>
  </city>
  <city name="Baisakhlin">
    <latitude>47.65</latitude>
    <longitude>102.5666667</longitude>
  </city>
  <city name="Baishinte">
    <latitude>43.49</latitude>
    <longitude>103.5244444</longitude>
  </city>
  <city name="Baishintu">
    <latitude>43.49</latitude>
    <longitude>103.5244444</longitude>
  </city>
  <city name="Baishintu-Sume">
    <latitude>45.7166667</latitude>
    <longitude>112.6666667</longitude>
  </city>
  <city name="Baissakly">
    <latitude>47.65</latitude>
    <longitude>102.5666667</longitude>
  </city>
  <city name="Balagiyn khure">
    <latitude>49.1730556</latitude>
    <longitude>101.9444444</longitude>
  </city>
  <city name="Balchzhi">
    <latitude>48.6</latitude>
    <longitude>106.6166667</longitude>
  </city>
  <city name="Balchzhi Khorsho">
    <latitude>49.0</latitude>
    <longitude>110.55</longitude>
  </city>
  <city name="Bal'chzhi Sumu">
    <latitude>49.0</latitude>
    <longitude>110.55</longitude>
  </city>
  <city name="Bal'dzhi">
    <latitude>49.0</latitude>
    <longitude>110.55</longitude>
  </city>
  <city name="Balgas-Nu-Khit">
    <latitude>43.3333333</latitude>
    <longitude>104.7333333</longitude>
  </city>
  <city name="Balgatay">
    <latitude>46.9</latitude>
    <longitude>97.15</longitude>
  </city>
  <city name="Balhin Chuluu">
    <latitude>48.55</latitude>
    <longitude>107.9333333</longitude>
  </city>
  <city name="Baligiin-Hüree">
    <latitude>49.1730556</latitude>
    <longitude>101.9444444</longitude>
  </city>
  <city name="Baligiin Hüryee">
    <latitude>49.1730556</latitude>
    <longitude>101.9444444</longitude>
  </city>
  <city name="Baligyyn Khure">
    <latitude>49.1730556</latitude>
    <longitude>101.9444444</longitude>
  </city>
  <city name="Balji">
    <latitude>48.6</latitude>
    <longitude>106.6166667</longitude>
  </city>
  <city name="Balji Horshoo">
    <latitude>49.0</latitude>
    <longitude>110.55</longitude>
  </city>
  <city name="Balji Suma">
    <latitude>49.0</latitude>
    <longitude>110.55</longitude>
  </city>
  <city name="Balji Sume">
    <latitude>49.0</latitude>
    <longitude>110.55</longitude>
  </city>
  <city name="Bal'ji Sumu">
    <latitude>49.0</latitude>
    <longitude>110.55</longitude>
  </city>
  <city name="Balkin-chulu">
    <latitude>48.55</latitude>
    <longitude>107.9333333</longitude>
  </city>
  <city name="Balvi Horshoo">
    <latitude>48.9833333</latitude>
    <longitude>110.6</longitude>
  </city>
  <city name="Bandan Dashiling Hüryee">
    <latitude>46.8666667</latitude>
    <longitude>95.4666667</longitude>
  </city>
  <city name="Bandang Dashilin Hüryee">
    <latitude>46.8666667</latitude>
    <longitude>95.4666667</longitude>
  </city>
  <city name="Bandi Gegeen Hüryee">
    <latitude>49.15</latitude>
    <longitude>101.4333333</longitude>
  </city>
  <city name="Bandi Gegeenii Hüryee">
    <latitude>49.15</latitude>
    <longitude>101.4333333</longitude>
  </city>
  <city name="Bandi gegeni khure">
    <latitude>49.15</latitude>
    <longitude>101.4333333</longitude>
  </city>
  <city name="Banga">
    <latitude>50.0</latitude>
    <longitude>105.6666667</longitude>
  </city>
  <city name="Baraguin Dugang Khid">
    <latitude>47.3833333</latitude>
    <longitude>107.1</longitude>
  </city>
  <city name="Baraguyn Dugang Hiid">
    <latitude>47.3833333</latitude>
    <longitude>107.1</longitude>
  </city>
  <city name="Baraguyn Dugan Hiid">
    <latitude>47.3833333</latitude>
    <longitude>107.1</longitude>
  </city>
  <city name="Baraguyn-Dugan-Hiyd">
    <latitude>47.3833333</latitude>
    <longitude>107.1</longitude>
  </city>
  <city name="Baraibunku-hito">
    <latitude>48.2</latitude>
    <longitude>109.4333333</longitude>
  </city>
  <city name="Baraybang Hiid">
    <latitude>48.2</latitude>
    <longitude>109.4333333</longitude>
  </city>
  <city name="Barayban Hiid">
    <latitude>48.2</latitude>
    <longitude>109.4333333</longitude>
  </city>
  <city name="Baraybung hid">
    <latitude>48.2</latitude>
    <longitude>109.4333333</longitude>
  </city>
  <city name="Baraybung-Hiyd">
    <latitude>48.2</latitude>
    <longitude>109.4333333</longitude>
  </city>
  <city name="Baraybung-khid">
    <latitude>48.2</latitude>
    <longitude>109.4333333</longitude>
  </city>
  <city name="Barbaiin Hüryee">
    <latitude>48.4</latitude>
    <longitude>102.9666667</longitude>
  </city>
  <city name="Bartayn Dugang">
    <latitude>49.8666667</latitude>
    <longitude>102.5333333</longitude>
  </city>
  <city name="Bartuin-dugang">
    <latitude>49.8666667</latitude>
    <longitude>102.5333333</longitude>
  </city>
  <city name="Barun Bayan Ulan somon">
    <latitude>45.1666667</latitude>
    <longitude>101.4</longitude>
  </city>
  <city name="Barun-Burin Somon">
    <latitude>49.2786111</latitude>
    <longitude>104.7352778</longitude>
  </city>
  <city name="Barun datsan khure">
    <latitude>49.2</latitude>
    <longitude>94.4166667</longitude>
  </city>
  <city name="Barun Ganchzhur Khid">
    <latitude>45.7166667</latitude>
    <longitude>107.4833333</longitude>
  </city>
  <city name="Barun Goyotiin Khid">
    <latitude>43.5833333</latitude>
    <longitude>101.1666667</longitude>
  </city>
  <city name="Barun Gudöyn Khid">
    <latitude>47.75</latitude>
    <longitude>112.4666667</longitude>
  </city>
  <city name="Barun Gudyyn khid">
    <latitude>47.75</latitude>
    <longitude>112.4666667</longitude>
  </city>
  <city name="Barun iret khid">
    <latitude>46.45</latitude>
    <longitude>102.2333333</longitude>
  </city>
  <city name="Barun-Khashiatu Somon">
    <latitude>49.5</latitude>
    <longitude>105.6166667</longitude>
  </city>
  <city name="Barun Khura">
    <latitude>43.75</latitude>
    <longitude>105.5666667</longitude>
  </city>
  <city name="Barun Khural">
    <latitude>43.75</latitude>
    <longitude>105.5666667</longitude>
  </city>
  <city name="Barun-Norga">
    <latitude>45.8666667</latitude>
    <longitude>107.95</longitude>
  </city>
  <city name="Barun Sume">
    <latitude>46.5</latitude>
    <longitude>103.4666667</longitude>
  </city>
  <city name="Barun tsorga">
    <latitude>45.8666667</latitude>
    <longitude>107.95</longitude>
  </city>
  <city name="Barun Ul'dzeytu Sumu">
    <latitude>46.0833333</latitude>
    <longitude>100.8333333</longitude>
  </city>
  <city name="Barun Ultszeytu Somon">
    <latitude>46.0833333</latitude>
    <longitude>100.8333333</longitude>
  </city>
  <city name="Barut Ganzhur Khid">
    <latitude>46.8</latitude>
    <longitude>111.9833333</longitude>
  </city>
  <city name="Barut Gonzhur Khid">
    <latitude>46.8</latitude>
    <longitude>111.9833333</longitude>
  </city>
  <city name="Baruud Ganjir Hiid">
    <latitude>46.8</latitude>
    <longitude>111.9833333</longitude>
  </city>
  <city name="Baruunbayan-Ulaan">
    <latitude>45.1666667</latitude>
    <longitude>101.4</longitude>
  </city>
  <city name="Baruun Bayan Uula Suma">
    <latitude>45.1666667</latitude>
    <longitude>101.4</longitude>
  </city>
  <city name="Baruunbüren">
    <latitude>49.2786111</latitude>
    <longitude>104.7352778</longitude>
  </city>
  <city name="Baruun Büriin Suma">
    <latitude>49.2786111</latitude>
    <longitude>104.7352778</longitude>
  </city>
  <city name="Baruun Datsang Hüryee">
    <latitude>49.2</latitude>
    <longitude>94.4166667</longitude>
  </city>
  <city name="Baruun-Datsan-Hüree">
    <latitude>49.2</latitude>
    <longitude>94.4166667</longitude>
  </city>
  <city name="Baruun Ganjir Hiid">
    <latitude>45.7166667</latitude>
    <longitude>107.4833333</longitude>
  </city>
  <city name="Baruun-Goyotiin-Hiyd">
    <latitude>43.5833333</latitude>
    <longitude>101.1666667</longitude>
  </city>
  <city name="Baruun Goyotoyn Hiid">
    <latitude>43.5833333</latitude>
    <longitude>101.1666667</longitude>
  </city>
  <city name="Baruun Gudaiin Hiid">
    <latitude>47.75</latitude>
    <longitude>112.4666667</longitude>
  </city>
  <city name="Baruunharaa">
    <latitude>49.6166667</latitude>
    <longitude>106.8833333</longitude>
  </city>
  <city name="Baruun Hashaata Suma">
    <latitude>49.5</latitude>
    <longitude>105.6166667</longitude>
  </city>
  <city name="Baruun Hural">
    <latitude>43.75</latitude>
    <longitude>105.5666667</longitude>
  </city>
  <city name="Baruun-Hüree">
    <latitude>47.05</latitude>
    <longitude>102.95</longitude>
  </city>
  <city name="Baruun Iret Hiid">
    <latitude>46.45</latitude>
    <longitude>102.2333333</longitude>
  </city>
  <city name="Baruun Öldzeyte">
    <latitude>46.0833333</latitude>
    <longitude>100.8333333</longitude>
  </city>
  <city name="Baruun Öldzeyte Suma">
    <latitude>46.0833333</latitude>
    <longitude>100.8333333</longitude>
  </city>
  <city name="Baruun Süme">
    <latitude>46.5</latitude>
    <longitude>103.4666667</longitude>
  </city>
  <city name="Baruunsuu">
    <latitude>43.6972222</latitude>
    <longitude>105.7363889</longitude>
  </city>
  <city name="Baruun Tsorgo">
    <latitude>45.8666667</latitude>
    <longitude>107.95</longitude>
  </city>
  <city name="Baruunturuun">
    <latitude>49.65</latitude>
    <longitude>94.3833333</longitude>
  </city>
  <city name="Baruun Urta">
    <latitude>46.7</latitude>
    <longitude>113.2833333</longitude>
  </city>
  <city name="Baruun-Urt">
    <latitude>46.7</latitude>
    <longitude>113.2833333</longitude>
  </city>
  <city name="Bata Chorboin Khid">
    <latitude>47.9166667</latitude>
    <longitude>111.5</longitude>
  </city>
  <city name="Bata Chorböyn Khid">
    <latitude>47.9166667</latitude>
    <longitude>111.5</longitude>
  </city>
  <city name="Bataiin Hiid">
    <latitude>47.3666667</latitude>
    <longitude>104.2833333</longitude>
  </city>
  <city name="Bataiin Hiyd">
    <latitude>47.3666667</latitude>
    <longitude>104.2833333</longitude>
  </city>
  <city name="Bata Norboiin Hiid">
    <latitude>47.9166667</latitude>
    <longitude>111.5</longitude>
  </city>
  <city name="Bata Norboin">
    <latitude>48.0333333</latitude>
    <longitude>111.3666667</longitude>
  </city>
  <city name="Bata Norboyn Khid">
    <latitude>47.9166667</latitude>
    <longitude>111.5</longitude>
  </city>
  <city name="Bata Öldzeyte">
    <latitude>43.1166667</latitude>
    <longitude>110.35</longitude>
  </city>
  <city name="Bata Öldzeyte Hural">
    <latitude>43.1166667</latitude>
    <longitude>110.35</longitude>
  </city>
  <city name="Bata Sümber Somon">
    <latitude>48.3833333</latitude>
    <longitude>106.75</longitude>
  </city>
  <city name="Bata Sümber Suma">
    <latitude>48.3833333</latitude>
    <longitude>106.75</longitude>
  </city>
  <city name="Bathaan">
    <latitude>46.7166667</latitude>
    <longitude>104.1333333</longitude>
  </city>
  <city name="Batkhaan">
    <latitude>46.7166667</latitude>
    <longitude>104.1333333</longitude>
  </city>
  <city name="Batnorov">
    <latitude>47.9166667</latitude>
    <longitude>111.5</longitude>
  </city>
  <city name="Batnorow">
    <latitude>47.9166667</latitude>
    <longitude>111.5</longitude>
  </city>
  <city name="Bat-Öldziï">
    <latitude>46.8166667</latitude>
    <longitude>102.25</longitude>
  </city>
  <city name="Bat-Öldziy">
    <latitude>46.8166667</latitude>
    <longitude>102.25</longitude>
  </city>
  <city name="Bat-Öldziyt">
    <latitude>48.2111111</latitude>
    <longitude>104.7597222</longitude>
  </city>
  <city name="Batomuch">
    <latitude>47.2833333</latitude>
    <longitude>116.65</longitude>
  </city>
  <city name="Batshireet">
    <latitude>48.6833333</latitude>
    <longitude>110.1833333</longitude>
  </city>
  <city name="Batsümber">
    <latitude>48.3833333</latitude>
    <longitude>106.75</longitude>
  </city>
  <city name="Battsengel">
    <latitude>47.7833333</latitude>
    <longitude>101.9666667</longitude>
  </city>
  <city name="Batuin Khid">
    <latitude>47.3666667</latitude>
    <longitude>104.2833333</longitude>
  </city>
  <city name="Batu-Norbo">
    <latitude>48.0333333</latitude>
    <longitude>111.3666667</longitude>
  </city>
  <city name="Batu-Norboiin hürie">
    <latitude>47.9166667</latitude>
    <longitude>111.5</longitude>
  </city>
  <city name="Batu Norb'oin hürie">
    <latitude>47.9166667</latitude>
    <longitude>111.5</longitude>
  </city>
  <city name="Batu Norboin Khure">
    <latitude>47.9166667</latitude>
    <longitude>111.5</longitude>
  </city>
  <city name="Batu Norbo Sumu">
    <latitude>48.0333333</latitude>
    <longitude>111.3666667</longitude>
  </city>
  <city name="Batu-Norboyn-Khure">
    <latitude>47.9166667</latitude>
    <longitude>111.5</longitude>
  </city>
  <city name="Batu-norubo">
    <latitude>47.9166667</latitude>
    <longitude>111.5</longitude>
  </city>
  <city name="Batur Sumbur Sume">
    <latitude>48.3833333</latitude>
    <longitude>106.75</longitude>
  </city>
  <city name="Batu-Sumbur">
    <latitude>48.3833333</latitude>
    <longitude>106.75</longitude>
  </city>
  <city name="Batu Sumbur Somon">
    <latitude>48.3833333</latitude>
    <longitude>106.75</longitude>
  </city>
  <city name="Batu sümbür sumu">
    <latitude>48.3833333</latitude>
    <longitude>106.75</longitude>
  </city>
  <city name="Batu Ul'tszeytu">
    <latitude>43.1166667</latitude>
    <longitude>110.35</longitude>
  </city>
  <city name="Batu ul'tszeytu-khural">
    <latitude>43.1166667</latitude>
    <longitude>110.35</longitude>
  </city>
  <city name="Batyr-van-khure">
    <latitude>49.4166667</latitude>
    <longitude>102.7</longitude>
  </city>
  <city name="Bayagiin Dugan">
    <latitude>48.1333333</latitude>
    <longitude>107.6166667</longitude>
  </city>
  <city name="Bayagiin Dugang">
    <latitude>48.1333333</latitude>
    <longitude>107.6166667</longitude>
  </city>
  <city name="Bayagin dugang">
    <latitude>48.1333333</latitude>
    <longitude>107.6166667</longitude>
  </city>
  <city name="Bayak-Goliyn-Gol">
    <latitude>49.6666667</latitude>
    <longitude>107.0</longitude>
  </city>
  <city name="Bayan-Adraga">
    <latitude>48.55</latitude>
    <longitude>111.0833333</longitude>
  </city>
  <city name="Bayan Agta">
    <latitude>49.0502778</latitude>
    <longitude>102.0805556</longitude>
  </city>
  <city name="Bayan-agta somon">
    <latitude>49.0502778</latitude>
    <longitude>102.0805556</longitude>
  </city>
  <city name="Bayan Agta Suma">
    <latitude>49.0502778</latitude>
    <longitude>102.0805556</longitude>
  </city>
  <city name="Bayan Agta Sume">
    <latitude>49.0502778</latitude>
    <longitude>102.0805556</longitude>
  </city>
  <city name="Bayanagta sumu">
    <latitude>49.0502778</latitude>
    <longitude>102.0805556</longitude>
  </city>
  <city name="Bayan-Agt">
    <latitude>49.0502778</latitude>
    <longitude>102.0805556</longitude>
  </city>
  <city name="Bayan Baraata Suma">
    <latitude>46.8666667</latitude>
    <longitude>106.25</longitude>
  </city>
  <city name="Bayan Baraatayn">
    <latitude>46.8666667</latitude>
    <longitude>106.25</longitude>
  </city>
  <city name="Bayan Baraatayn Hiid">
    <latitude>46.7166667</latitude>
    <longitude>106.4833333</longitude>
  </city>
  <city name="Bayan Baraatayn Suma">
    <latitude>46.8666667</latitude>
    <longitude>106.25</longitude>
  </city>
  <city name="Bayanbaraat">
    <latitude>46.8666667</latitude>
    <longitude>106.25</longitude>
  </city>
  <city name="Bayan baraatu">
    <latitude>46.8666667</latitude>
    <longitude>106.25</longitude>
  </city>
  <city name="Bayan-Baratu">
    <latitude>46.8666667</latitude>
    <longitude>106.25</longitude>
  </city>
  <city name="Bayan Baratuin">
    <latitude>46.8666667</latitude>
    <longitude>106.25</longitude>
  </city>
  <city name="Bayan Baratuin Khid">
    <latitude>46.7166667</latitude>
    <longitude>106.4833333</longitude>
  </city>
  <city name="Bayan Baratuin Somon">
    <latitude>46.8666667</latitude>
    <longitude>106.25</longitude>
  </city>
  <city name="Bayan baratuyn khid">
    <latitude>46.7166667</latitude>
    <longitude>106.4833333</longitude>
  </city>
  <city name="Bayan Baratuyn Somon">
    <latitude>46.8666667</latitude>
    <longitude>106.25</longitude>
  </city>
  <city name="Bayan">
    <latitude>47.45</latitude>
    <longitude>103.15</longitude>
  </city>
  <city name="Bayan Belhi">
    <latitude>45.4</latitude>
    <longitude>106.75</longitude>
  </city>
  <city name="Bayan Belki">
    <latitude>45.4</latitude>
    <longitude>106.75</longitude>
  </city>
  <city name="Bayanbulag">
    <latitude>45.0</latitude>
    <longitude>98.9166667</longitude>
  </city>
  <city name="Bayan Bulag">
    <latitude>48.1166667</latitude>
    <longitude>114.3166667</longitude>
  </city>
  <city name="Bayan-Bulag-Hural">
    <latitude>46.6666667</latitude>
    <longitude>108.9166667</longitude>
  </city>
  <city name="Bayan Bulagiin Hural">
    <latitude>44.25</latitude>
    <longitude>106.8</longitude>
  </city>
  <city name="Bayan Bulagiin Suurin">
    <latitude>46.6666667</latitude>
    <longitude>108.9166667</longitude>
  </city>
  <city name="Bayan Bulagöin Khural">
    <latitude>44.25</latitude>
    <longitude>106.8</longitude>
  </city>
  <city name="Bayan Bulagoin Khural">
    <latitude>47.9833333</latitude>
    <longitude>107.5333333</longitude>
  </city>
  <city name="Bayan bulagöyn khural">
    <latitude>44.25</latitude>
    <longitude>106.8</longitude>
  </city>
  <city name="Bayan bulagöyn Khural">
    <latitude>47.9833333</latitude>
    <longitude>107.5333333</longitude>
  </city>
  <city name="Bayan Bulagöyn Surin">
    <latitude>46.6666667</latitude>
    <longitude>108.9166667</longitude>
  </city>
  <city name="Bayan Bulag Suma">
    <latitude>46.8</latitude>
    <longitude>98.1</longitude>
  </city>
  <city name="Bayan bulag sumu">
    <latitude>46.8</latitude>
    <longitude>98.1</longitude>
  </city>
  <city name="Bayan bulagyin khural">
    <latitude>44.25</latitude>
    <longitude>106.8</longitude>
  </city>
  <city name="Bayan bulagyin surin-khid">
    <latitude>46.6666667</latitude>
    <longitude>108.9166667</longitude>
  </city>
  <city name="Bayan Bulagyyn Khural">
    <latitude>44.25</latitude>
    <longitude>106.8</longitude>
  </city>
  <city name="Bayan bulagyyn khural">
    <latitude>47.9833333</latitude>
    <longitude>107.5333333</longitude>
  </city>
  <city name="Bayan-bulagyyn-surin">
    <latitude>46.6666667</latitude>
    <longitude>108.9166667</longitude>
  </city>
  <city name="Bayan Bulak">
    <latitude>46.8</latitude>
    <longitude>98.1</longitude>
  </city>
  <city name="Bayan Bulak Somon">
    <latitude>46.8</latitude>
    <longitude>98.1</longitude>
  </city>
  <city name="Bayan Burahik Khure">
    <latitude>45.8166667</latitude>
    <longitude>97.0</longitude>
  </city>
  <city name="Bayan Buraliik Khure">
    <latitude>45.8166667</latitude>
    <longitude>97.0</longitude>
  </city>
  <city name="Bayan Buraliin Huryce">
    <latitude>45.8166667</latitude>
    <longitude>97.0</longitude>
  </city>
  <city name="Bayan buraliin khure">
    <latitude>45.8166667</latitude>
    <longitude>97.0</longitude>
  </city>
  <city name="Bayanbürd">
    <latitude>46.3666667</latitude>
    <longitude>99.0333333</longitude>
  </city>
  <city name="Bayan Buuraliin Hüryee">
    <latitude>45.8166667</latitude>
    <longitude>97.0</longitude>
  </city>
  <city name="Bayanchandmani">
    <latitude>48.2333333</latitude>
    <longitude>106.2833333</longitude>
  </city>
  <city name="Bayan chzhisa">
    <latitude>45.0666667</latitude>
    <longitude>102.95</longitude>
  </city>
  <city name="Bayan Dalai Baishintu Khit">
    <latitude>43.49</latitude>
    <longitude>103.5244444</longitude>
  </city>
  <city name="Bayandalaï">
    <latitude>43.49</latitude>
    <longitude>103.5244444</longitude>
  </city>
  <city name="Bayandalay">
    <latitude>43.49</latitude>
    <longitude>103.5244444</longitude>
  </city>
  <city name="Bayandelger">
    <latitude>45.7166667</latitude>
    <longitude>112.35</longitude>
  </city>
  <city name="Bayan-Del'ger Somon">
    <latitude>47.7333333</latitude>
    <longitude>108.1166667</longitude>
  </city>
  <city name="Bayan Delger Suma">
    <latitude>45.7166667</latitude>
    <longitude>112.35</longitude>
  </city>
  <city name="Bayan Delger Sume">
    <latitude>47.7333333</latitude>
    <longitude>108.1166667</longitude>
  </city>
  <city name="Bayan delger sumu">
    <latitude>45.7166667</latitude>
    <longitude>112.35</longitude>
  </city>
  <city name="Bayan del'ger sumu">
    <latitude>47.7333333</latitude>
    <longitude>108.1166667</longitude>
  </city>
  <city name="Bayan Delgerüülegchi Süme">
    <latitude>46.85</latitude>
    <longitude>115.5333333</longitude>
  </city>
  <city name="Bayanderigeri">
    <latitude>47.7333333</latitude>
    <longitude>108.1166667</longitude>
  </city>
  <city name="Bayan Djurkhe Sume">
    <latitude>47.8166667</latitude>
    <longitude>107.1666667</longitude>
  </city>
  <city name="Bayan Dobo">
    <latitude>44.55</latitude>
    <longitude>107.2</longitude>
  </city>
  <city name="Bayan Dobo Somon">
    <latitude>44.55</latitude>
    <longitude>107.2</longitude>
  </city>
  <city name="Bayan Dobo Suma">
    <latitude>44.55</latitude>
    <longitude>107.2</longitude>
  </city>
  <city name="Bayan Don">
    <latitude>48.7333333</latitude>
    <longitude>114.55</longitude>
  </city>
  <city name="Bayan-Dov">
    <latitude>44.55</latitude>
    <longitude>107.2</longitude>
  </city>
  <city name="Bayan-dugan">
    <latitude>49.5166667</latitude>
    <longitude>103.6166667</longitude>
  </city>
  <city name="Bayan Dugang">
    <latitude>49.5166667</latitude>
    <longitude>103.6166667</longitude>
  </city>
  <city name="Bayandun">
    <latitude>49.2333333</latitude>
    <longitude>113.3666667</longitude>
  </city>
  <city name="Bayan-düng">
    <latitude>49.2333333</latitude>
    <longitude>113.3666667</longitude>
  </city>
  <city name="Bayan-Dung-Somon">
    <latitude>49.2333333</latitude>
    <longitude>113.3666667</longitude>
  </city>
  <city name="Bayan Düng Suma">
    <latitude>49.2333333</latitude>
    <longitude>113.3666667</longitude>
  </city>
  <city name="Bayan düng sumu">
    <latitude>49.2333333</latitude>
    <longitude>113.3666667</longitude>
  </city>
  <city name="Bayan Dun Suma">
    <latitude>49.2333333</latitude>
    <longitude>113.3666667</longitude>
  </city>
  <city name="Bayan-Dzhirukhe-Sumu">
    <latitude>47.8166667</latitude>
    <longitude>107.1666667</longitude>
  </city>
  <city name="Bayandzürh">
    <latitude>50.2111111</latitude>
    <longitude>98.9508333</longitude>
  </city>
  <city name="Bayan Dzürhe">
    <latitude>48.65</latitude>
    <longitude>103.7166667</longitude>
  </city>
  <city name="Bayan dzurihe">
    <latitude>46.3</latitude>
    <longitude>101.0</longitude>
  </city>
  <city name="Bayan dzürihe">
    <latitude>47.8166667</latitude>
    <longitude>107.1666667</longitude>
  </city>
  <city name="Bayan Dzürihe Suma">
    <latitude>46.3</latitude>
    <longitude>101.0</longitude>
  </city>
  <city name="Bayan dzürihe sumu">
    <latitude>48.9394444</latitude>
    <longitude>100.1513889</longitude>
  </city>
  <city name="Bayan dzurikhe sumu">
    <latitude>46.3</latitude>
    <longitude>101.0</longitude>
  </city>
  <city name="Bayandzürkh">
    <latitude>50.2111111</latitude>
    <longitude>98.9508333</longitude>
  </city>
  <city name="Bayan-Dzurkhe">
    <latitude>46.3</latitude>
    <longitude>101.0</longitude>
  </city>
  <city name="Bayan-Enger">
    <latitude>48.3833333</latitude>
    <longitude>90.8</longitude>
  </city>
  <city name="Bayangol">
    <latitude>45.5333333</latitude>
    <longitude>95.3166667</longitude>
  </city>
  <city name="Bayan Gol">
    <latitude>46.95</latitude>
    <longitude>93.8333333</longitude>
  </city>
  <city name="Bayan Gol Camp">
    <latitude>46.95</latitude>
    <longitude>93.8333333</longitude>
  </city>
  <city name="Bayan Goliin Den">
    <latitude>49.0333333</latitude>
    <longitude>106.1166667</longitude>
  </city>
  <city name="Bayan Goliin Dugang">
    <latitude>49.0666667</latitude>
    <longitude>106.15</longitude>
  </city>
  <city name="Bayan Goliin Oros">
    <latitude>49.6166667</latitude>
    <longitude>106.8833333</longitude>
  </city>
  <city name="Bayan Goliyn-Dugan">
    <latitude>49.0666667</latitude>
    <longitude>106.15</longitude>
  </city>
  <city name="Bayan-gol somon">
    <latitude>48.9116667</latitude>
    <longitude>106.0866667</longitude>
  </city>
  <city name="Bayan Gol Suma">
    <latitude>48.9116667</latitude>
    <longitude>106.0866667</longitude>
  </city>
  <city name="Bayangol Sume">
    <latitude>48.9116667</latitude>
    <longitude>106.0866667</longitude>
  </city>
  <city name="Bayan gol sumu">
    <latitude>48.9116667</latitude>
    <longitude>106.0866667</longitude>
  </city>
  <city name="Bayan golyin oros">
    <latitude>49.6166667</latitude>
    <longitude>106.8833333</longitude>
  </city>
  <city name="Bayan golyyn dugang">
    <latitude>49.0666667</latitude>
    <longitude>106.15</longitude>
  </city>
  <city name="Bayan-golyyn dugang">
    <latitude>48.0833333</latitude>
    <longitude>107.0833333</longitude>
  </city>
  <city name="Bayan golyyn oros">
    <latitude>49.6166667</latitude>
    <longitude>106.8833333</longitude>
  </city>
  <city name="Bayangovi">
    <latitude>44.7333333</latitude>
    <longitude>100.3666667</longitude>
  </city>
  <city name="Bayangow'">
    <latitude>44.7333333</latitude>
    <longitude>100.3666667</longitude>
  </city>
  <city name="Bayanhangay">
    <latitude>47.9333333</latitude>
    <longitude>105.55</longitude>
  </city>
  <city name="Bayan Hangor">
    <latitude>46.7166667</latitude>
    <longitude>100.1166667</longitude>
  </city>
  <city name="Bayan Hara">
    <latitude>49.915</latitude>
    <longitude>106.1866667</longitude>
  </city>
  <city name="Bayan Hayrhan">
    <latitude>48.1</latitude>
    <longitude>102.5</longitude>
  </city>
  <city name="Bayanhayrhan">
    <latitude>49.3</latitude>
    <longitude>96.3333333</longitude>
  </city>
  <city name="Bayan Hayrhan Suma">
    <latitude>49.3</latitude>
    <longitude>96.3333333</longitude>
  </city>
  <city name="Bayan hayrhan sumu">
    <latitude>49.3</latitude>
    <longitude>96.3333333</longitude>
  </city>
  <city name="Bayan Hiid">
    <latitude>44.9166667</latitude>
    <longitude>108.9166667</longitude>
  </city>
  <city name="Bayan Hoboriin Horshoo">
    <latitude>44.5333333</latitude>
    <longitude>100.1333333</longitude>
  </city>
  <city name="Bayanhongor">
    <latitude>46.1833333</latitude>
    <longitude>100.6333333</longitude>
  </city>
  <city name="Bayan Hongoriin">
    <latitude>46.5833333</latitude>
    <longitude>97.65</longitude>
  </city>
  <city name="Bayan Hongor Suma">
    <latitude>46.7166667</latitude>
    <longitude>100.1166667</longitude>
  </city>
  <city name="Bayan-hongoru">
    <latitude>46.7166667</latitude>
    <longitude>100.1166667</longitude>
  </city>
  <city name="Bayan honhor sumu">
    <latitude>46.7166667</latitude>
    <longitude>100.1166667</longitude>
  </city>
  <city name="Bayan Hudag">
    <latitude>47.1666667</latitude>
    <longitude>110.8166667</longitude>
  </city>
  <city name="Bayan Hujir">
    <latitude>48.25</latitude>
    <longitude>106.3333333</longitude>
  </city>
  <city name="Bayan Hural">
    <latitude>47.3333333</latitude>
    <longitude>109.0</longitude>
  </city>
  <city name="Bayanhushuu">
    <latitude>46.7166667</latitude>
    <longitude>100.1333333</longitude>
  </city>
  <city name="Bayan Hushuu">
    <latitude>45.6</latitude>
    <longitude>106.7666667</longitude>
  </city>
  <city name="Bayanhutag">
    <latitude>47.1666667</latitude>
    <longitude>110.8166667</longitude>
  </city>
  <city name="Bayanjargalan">
    <latitude>45.7666667</latitude>
    <longitude>107.9833333</longitude>
  </city>
  <city name="Bayan Jirgalanta Suma">
    <latitude>45.7666667</latitude>
    <longitude>107.9833333</longitude>
  </city>
  <city name="Bayan-jirugaran">
    <latitude>45.7666667</latitude>
    <longitude>107.9833333</longitude>
  </city>
  <city name="Bayan Jisa">
    <latitude>45.0666667</latitude>
    <longitude>102.95</longitude>
  </city>
  <city name="Bayan Khairkhan">
    <latitude>49.3</latitude>
    <longitude>96.3333333</longitude>
  </city>
  <city name="Bayan Khairkhan Sume">
    <latitude>49.3</latitude>
    <longitude>96.3333333</longitude>
  </city>
  <city name="Bayan Khashiatu">
    <latitude>49.5</latitude>
    <longitude>105.6166667</longitude>
  </city>
  <city name="Bayan khayran somon">
    <latitude>49.3</latitude>
    <longitude>96.3333333</longitude>
  </city>
  <city name="Bayan-Khayrkhan">
    <latitude>49.3</latitude>
    <longitude>96.3333333</longitude>
  </city>
  <city name="Bayan khoburin khorsho">
    <latitude>44.5333333</latitude>
    <longitude>100.1333333</longitude>
  </city>
  <city name="Bayan Khoburin yurt">
    <latitude>44.5333333</latitude>
    <longitude>100.1333333</longitude>
  </city>
  <city name="Bayan Khongor">
    <latitude>46.7166667</latitude>
    <longitude>100.1166667</longitude>
  </city>
  <city name="Bayan khongoriin">
    <latitude>46.5833333</latitude>
    <longitude>97.65</longitude>
  </city>
  <city name="Bayan Khongorin Camp">
    <latitude>46.5833333</latitude>
    <longitude>97.65</longitude>
  </city>
  <city name="Bayan Khongor Somon">
    <latitude>46.7166667</latitude>
    <longitude>100.1166667</longitude>
  </city>
  <city name="Bayan Khonkhor Sume">
    <latitude>46.7166667</latitude>
    <longitude>100.1166667</longitude>
  </city>
  <city name="Bayan Khural">
    <latitude>47.3333333</latitude>
    <longitude>109.0</longitude>
  </city>
  <city name="Bayankhutag">
    <latitude>47.1666667</latitude>
    <longitude>110.8166667</longitude>
  </city>
  <city name="Bayanleg">
    <latitude>44.55</latitude>
    <longitude>100.8333333</longitude>
  </city>
  <city name="Bayan Möhöiin Salboar">
    <latitude>46.7666667</latitude>
    <longitude>109.8333333</longitude>
  </city>
  <city name="Bayanmönh">
    <latitude>46.9</latitude>
    <longitude>109.75</longitude>
  </city>
  <city name="Bayan Mönhö">
    <latitude>45.0666667</latitude>
    <longitude>111.1333333</longitude>
  </city>
  <city name="Bayan Mönhö Hiid">
    <latitude>47.1</latitude>
    <longitude>109.7666667</longitude>
  </city>
  <city name="Bayan Mönhöiin Hiid">
    <latitude>45.2</latitude>
    <longitude>111.4666667</longitude>
  </city>
  <city name="Bayan Mönhöiin Salbar Horshoo">
    <latitude>46.7666667</latitude>
    <longitude>109.8333333</longitude>
  </city>
  <city name="Bayan Mönhoiin Shanda">
    <latitude>47.4</latitude>
    <longitude>110.6666667</longitude>
  </city>
  <city name="Bayan Mönhöiin Shandaiin Örtöö">
    <latitude>47.4</latitude>
    <longitude>110.6666667</longitude>
  </city>
  <city name="Bayan Mönhö Suma">
    <latitude>45.0666667</latitude>
    <longitude>111.1333333</longitude>
  </city>
  <city name="Bayan-mönhö-süm">
    <latitude>45.2833333</latitude>
    <longitude>111.2</longitude>
  </city>
  <city name="Bayan mönhö sumu">
    <latitude>45.0666667</latitude>
    <longitude>111.1333333</longitude>
  </city>
  <city name="Bayanmönkh">
    <latitude>46.9</latitude>
    <longitude>109.75</longitude>
  </city>
  <city name="Bayan Mönkö Sume">
    <latitude>45.0666667</latitude>
    <longitude>111.1333333</longitude>
  </city>
  <city name="Bayan Munkhu">
    <latitude>45.0666667</latitude>
    <longitude>111.1333333</longitude>
  </city>
  <city name="Bayan-munk somon">
    <latitude>45.0666667</latitude>
    <longitude>111.1333333</longitude>
  </city>
  <city name="Bayan Munku Somon">
    <latitude>46.9</latitude>
    <longitude>109.75</longitude>
  </city>
  <city name="Bayannuur">
    <latitude>48.9333333</latitude>
    <longitude>91.1333333</longitude>
  </city>
  <city name="Bayan Obo">
    <latitude>47.7833333</latitude>
    <longitude>112.1166667</longitude>
  </city>
  <city name="Bayan Obo Khid">
    <latitude>42.6666667</latitude>
    <longitude>109.9166667</longitude>
  </city>
  <city name="Bayan oboni bayshing">
    <latitude>46.7</latitude>
    <longitude>93.1</longitude>
  </city>
  <city name="Bayan-Oboo">
    <latitude>44.9666667</latitude>
    <longitude>107.1333333</longitude>
  </city>
  <city name="Bayan Oboo">
    <latitude>47.7833333</latitude>
    <longitude>112.1166667</longitude>
  </city>
  <city name="Bayan Oboo Hiid">
    <latitude>42.6666667</latitude>
    <longitude>109.9166667</longitude>
  </city>
  <city name="Bayan Oboonii Bayshing">
    <latitude>46.7</latitude>
    <longitude>93.1</longitude>
  </city>
  <city name="Bayan Oboo Suma">
    <latitude>47.7833333</latitude>
    <longitude>112.1166667</longitude>
  </city>
  <city name="Bayan oboo sumu">
    <latitude>47.7833333</latitude>
    <longitude>112.1166667</longitude>
  </city>
  <city name="Bayan-obo somon">
    <latitude>47.7833333</latitude>
    <longitude>112.1166667</longitude>
  </city>
  <city name="Bayan obo Somon">
    <latitude>42.9741667</latitude>
    <longitude>106.1269444</longitude>
  </city>
  <city name="Bayan-Öndör">
    <latitude>44.7833333</latitude>
    <longitude>98.65</longitude>
  </city>
  <city name="Bayan Öndör Suma">
    <latitude>44.7833333</latitude>
    <longitude>98.65</longitude>
  </city>
  <city name="Bayan-Önjüül">
    <latitude>46.8666667</latitude>
    <longitude>106.0</longitude>
  </city>
  <city name="Bayan-Ovoo">
    <latitude>46.2666667</latitude>
    <longitude>100.4666667</longitude>
  </city>
  <city name="Bayan Ovoo">
    <latitude>43.0166667</latitude>
    <longitude>105.5333333</longitude>
  </city>
  <city name="Bayan-Owoo">
    <latitude>46.2666667</latitude>
    <longitude>100.4666667</longitude>
  </city>
  <city name="Bayansayr">
    <latitude>45.55</latitude>
    <longitude>99.4166667</longitude>
  </city>
  <city name="Bayan Somon">
    <latitude>46.1</latitude>
    <longitude>95.6166667</longitude>
  </city>
  <city name="Bayan-Somon">
    <latitude>49.1333333</latitude>
    <longitude>111.8666667</longitude>
  </city>
  <city name="Bayan Suma">
    <latitude>46.1</latitude>
    <longitude>95.6166667</longitude>
  </city>
  <city name="Bayan Sume">
    <latitude>45.6</latitude>
    <longitude>110.9</longitude>
  </city>
  <city name="Bayan Sumu">
    <latitude>49.1333333</latitude>
    <longitude>111.8666667</longitude>
  </city>
  <city name="Bayanteeg">
    <latitude>45.6666667</latitude>
    <longitude>101.5</longitude>
  </city>
  <city name="Bayanterem">
    <latitude>47.1333333</latitude>
    <longitude>112.3833333</longitude>
  </city>
  <city name="Bayan-Terim">
    <latitude>47.1333333</latitude>
    <longitude>112.3833333</longitude>
  </city>
  <city name="Bayan Terme">
    <latitude>47.1333333</latitude>
    <longitude>112.3833333</longitude>
  </city>
  <city name="Bayan Terme Suma">
    <latitude>47.1333333</latitude>
    <longitude>112.3833333</longitude>
  </city>
  <city name="Bayan terme sumu">
    <latitude>47.1333333</latitude>
    <longitude>112.3833333</longitude>
  </city>
  <city name="Bayantes">
    <latitude>49.6833333</latitude>
    <longitude>96.3333333</longitude>
  </city>
  <city name="Bayantöhöm">
    <latitude>46.9166667</latitude>
    <longitude>105.05</longitude>
  </city>
  <city name="Bayantsagaan">
    <latitude>48.7316667</latitude>
    <longitude>100.76</longitude>
  </city>
  <city name="Bayan Tsagaan Suma">
    <latitude>45.0</latitude>
    <longitude>98.9166667</longitude>
  </city>
  <city name="Bayan Tsagaan Sumu">
    <latitude>46.8</latitude>
    <longitude>107.15</longitude>
  </city>
  <city name="Bayan Tsagan">
    <latitude>45.0</latitude>
    <longitude>98.9166667</longitude>
  </city>
  <city name="Bayan-Tsagan">
    <latitude>46.8</latitude>
    <longitude>107.15</longitude>
  </city>
  <city name="Bayan Tsagan Somon">
    <latitude>45.0</latitude>
    <longitude>98.9166667</longitude>
  </city>
  <city name="Bayantsogt">
    <latitude>47.9333333</latitude>
    <longitude>106.1833333</longitude>
  </city>
  <city name="Bayan Tsogto">
    <latitude>46.1666667</latitude>
    <longitude>109.0</longitude>
  </city>
  <city name="Bayan Tsogto Suma">
    <latitude>46.1666667</latitude>
    <longitude>109.0</longitude>
  </city>
  <city name="Bayan Tsogtu">
    <latitude>47.9333333</latitude>
    <longitude>106.1833333</longitude>
  </city>
  <city name="Bayan Tsogtu Somon">
    <latitude>47.9333333</latitude>
    <longitude>106.1833333</longitude>
  </city>
  <city name="Bayan tsogtu sumu">
    <latitude>47.9333333</latitude>
    <longitude>106.1833333</longitude>
  </city>
  <city name="Bayan-Tsoktu">
    <latitude>46.1666667</latitude>
    <longitude>109.0</longitude>
  </city>
  <city name="Bayan-tsokuto">
    <latitude>47.9333333</latitude>
    <longitude>106.1833333</longitude>
  </city>
  <city name="Bayan Tszurikhe Somon">
    <latitude>46.3</latitude>
    <longitude>101.0</longitude>
  </city>
  <city name="Bayan tszurikhe somon">
    <latitude>48.9394444</latitude>
    <longitude>100.1513889</longitude>
  </city>
  <city name="Bayan-Tszuri-Somon">
    <latitude>47.8166667</latitude>
    <longitude>107.1666667</longitude>
  </city>
  <city name="Bayantümen">
    <latitude>48.05</latitude>
    <longitude>114.3666667</longitude>
  </city>
  <city name="Bayan Tumen">
    <latitude>48.0666667</latitude>
    <longitude>114.5</longitude>
  </city>
  <city name="Bayantu-Ul'tseytu-Ula">
    <latitude>44.55</latitude>
    <longitude>107.2</longitude>
  </city>
  <city name="Bayan-Uhaa">
    <latitude>48.55</latitude>
    <longitude>98.6666667</longitude>
  </city>
  <city name="Bayan ulaan">
    <latitude>47.7166667</latitude>
    <longitude>101.85</longitude>
  </city>
  <city name="Bayan Ulaan">
    <latitude>47.5</latitude>
    <longitude>109.25</longitude>
  </city>
  <city name="Bayan-Ulaan">
    <latitude>46.5166667</latitude>
    <longitude>102.5833333</longitude>
  </city>
  <city name="Bayan Ulaan Suma">
    <latitude>47.7166667</latitude>
    <longitude>101.85</longitude>
  </city>
  <city name="Bayan Ulaan sumu">
    <latitude>47.7166667</latitude>
    <longitude>101.85</longitude>
  </city>
  <city name="Bayan ulaan sumu">
    <latitude>46.5166667</latitude>
    <longitude>102.5833333</longitude>
  </city>
  <city name="Bayan Ula">
    <latitude>49.15</latitude>
    <longitude>112.7333333</longitude>
  </city>
  <city name="Bayan-Ula">
    <latitude>49.6833333</latitude>
    <longitude>96.3333333</longitude>
  </city>
  <city name="Bayan Ulan">
    <latitude>47.7166667</latitude>
    <longitude>101.85</longitude>
  </city>
  <city name="Bayan-Ulan">
    <latitude>46.5166667</latitude>
    <longitude>102.5833333</longitude>
  </city>
  <city name="Bayan Ulan Somon">
    <latitude>47.7166667</latitude>
    <longitude>101.85</longitude>
  </city>
  <city name="Bayan-ula-Somon">
    <latitude>49.15</latitude>
    <longitude>112.7333333</longitude>
  </city>
  <city name="Bayan-Ula somon">
    <latitude>49.6833333</latitude>
    <longitude>96.3333333</longitude>
  </city>
  <city name="Bayan Ula Somon">
    <latitude>46.9833333</latitude>
    <longitude>95.1833333</longitude>
  </city>
  <city name="Bayan Ula Sume">
    <latitude>49.15</latitude>
    <longitude>112.7333333</longitude>
  </city>
  <city name="Bayan-Ula sumu">
    <latitude>49.6833333</latitude>
    <longitude>96.3333333</longitude>
  </city>
  <city name="Bayan ula sumu">
    <latitude>45.1666667</latitude>
    <longitude>101.4</longitude>
  </city>
  <city name="Bayan-Ulegey">
    <latitude>48.9333333</latitude>
    <longitude>89.95</longitude>
  </city>
  <city name="Bayan-Undur">
    <latitude>44.7833333</latitude>
    <longitude>98.65</longitude>
  </city>
  <city name="Bayan Undur Somon">
    <latitude>44.7833333</latitude>
    <longitude>98.65</longitude>
  </city>
  <city name="Bayan Undur Sume">
    <latitude>44.7833333</latitude>
    <longitude>98.65</longitude>
  </city>
  <city name="Bayan undur sumu">
    <latitude>44.7833333</latitude>
    <longitude>98.65</longitude>
  </city>
  <city name="Bayan-unduru">
    <latitude>46.4666667</latitude>
    <longitude>104.1</longitude>
  </city>
  <city name="Bayan ura">
    <latitude>49.15</latitude>
    <longitude>112.7333333</longitude>
  </city>
  <city name="Bayan-ura">
    <latitude>45.1666667</latitude>
    <longitude>101.4</longitude>
  </city>
  <city name="Bayan-uran">
    <latitude>46.5166667</latitude>
    <longitude>102.5833333</longitude>
  </city>
  <city name="Bayan uula">
    <latitude>49.15</latitude>
    <longitude>112.7333333</longitude>
  </city>
  <city name="Bayan Uula">
    <latitude>49.6833333</latitude>
    <longitude>96.3333333</longitude>
  </city>
  <city name="Bayan Uula Somon">
    <latitude>49.15</latitude>
    <longitude>112.7333333</longitude>
  </city>
  <city name="Bayan Uula Suma">
    <latitude>49.15</latitude>
    <longitude>112.7333333</longitude>
  </city>
  <city name="Bayan uula sumu">
    <latitude>49.15</latitude>
    <longitude>112.7333333</longitude>
  </city>
  <city name="Bayan Uula Sumu">
    <latitude>45.1666667</latitude>
    <longitude>101.4</longitude>
  </city>
  <city name="Bayan-Uul">
    <latitude>47.7166667</latitude>
    <longitude>101.85</longitude>
  </city>
  <city name="Bayan Uul">
    <latitude>48.9833333</latitude>
    <longitude>112.3833333</longitude>
  </city>
  <city name="Bayartayn Hiid">
    <latitude>47.7833333</latitude>
    <longitude>106.6166667</longitude>
  </city>
  <city name="Bayartayn-Hiyd">
    <latitude>47.7833333</latitude>
    <longitude>106.6166667</longitude>
  </city>
  <city name="Bayartuin Khid">
    <latitude>47.7833333</latitude>
    <longitude>106.6166667</longitude>
  </city>
  <city name="Bayartuyn Khid">
    <latitude>47.7833333</latitude>
    <longitude>106.6166667</longitude>
  </city>
  <city name="Bayasgalant">
    <latitude>46.9833333</latitude>
    <longitude>112.05</longitude>
  </city>
  <city name="Baydaragiin Hüryee">
    <latitude>47.0333333</latitude>
    <longitude>99.5</longitude>
  </city>
  <city name="Baydaragiin khure">
    <latitude>47.2833333</latitude>
    <longitude>99.6666667</longitude>
  </city>
  <city name="Baydarik">
    <latitude>47.2833333</latitude>
    <longitude>99.6666667</longitude>
  </city>
  <city name="Baydrag">
    <latitude>47.0333333</latitude>
    <longitude>99.5</longitude>
  </city>
  <city name="Bayn Del'gir Somon">
    <latitude>45.7166667</latitude>
    <longitude>112.35</longitude>
  </city>
  <city name="Bayn Dugan">
    <latitude>49.5166667</latitude>
    <longitude>103.6166667</longitude>
  </city>
  <city name="Bayne Terme Somon">
    <latitude>47.1333333</latitude>
    <longitude>112.3833333</longitude>
  </city>
  <city name="Bayn Jargalanta Somon">
    <latitude>45.7666667</latitude>
    <longitude>107.9833333</longitude>
  </city>
  <city name="Bayn Munkhöyn">
    <latitude>47.4</latitude>
    <longitude>110.6666667</longitude>
  </city>
  <city name="Bayn Munkhöyn Salbor Khorsho">
    <latitude>46.7666667</latitude>
    <longitude>109.8333333</longitude>
  </city>
  <city name="Bayn Munkhu Khid">
    <latitude>47.1</latitude>
    <longitude>109.7666667</longitude>
  </city>
  <city name="Bayn Munkhu Somon">
    <latitude>46.9</latitude>
    <longitude>109.75</longitude>
  </city>
  <city name="Bayn-munkhyyn-salbar-khorsho">
    <latitude>46.7666667</latitude>
    <longitude>109.8333333</longitude>
  </city>
  <city name="Bayn Munkin Khid">
    <latitude>45.2</latitude>
    <longitude>111.4666667</longitude>
  </city>
  <city name="Bayn Munku Somon">
    <latitude>45.0666667</latitude>
    <longitude>111.1333333</longitude>
  </city>
  <city name="Bayn Obo Somon">
    <latitude>47.7833333</latitude>
    <longitude>112.1166667</longitude>
  </city>
  <city name="Bayn Tsogto Somon">
    <latitude>46.1666667</latitude>
    <longitude>109.0</longitude>
  </city>
  <city name="Bayn-Tumen">
    <latitude>48.0666667</latitude>
    <longitude>114.5</longitude>
  </city>
  <city name="Bayn Ulan Somon">
    <latitude>47.5</latitude>
    <longitude>109.25</longitude>
  </city>
  <city name="Baysakhlin">
    <latitude>47.65</latitude>
    <longitude>102.5666667</longitude>
  </city>
  <city name="Baysakhlyn-khure">
    <latitude>47.65</latitude>
    <longitude>102.5666667</longitude>
  </city>
  <city name="Bayshinta">
    <latitude>43.49</latitude>
    <longitude>103.5244444</longitude>
  </city>
  <city name="Bayshinta Hiid">
    <latitude>43.49</latitude>
    <longitude>103.5244444</longitude>
  </city>
  <city name="Bayshinta Hüryee">
    <latitude>47.45</latitude>
    <longitude>105.05</longitude>
  </city>
  <city name="Bayshinta Süme">
    <latitude>45.7166667</latitude>
    <longitude>112.6666667</longitude>
  </city>
  <city name="Bayshint">
    <latitude>45.7166667</latitude>
    <longitude>112.6666667</longitude>
  </city>
  <city name="Bayshintu">
    <latitude>43.49</latitude>
    <longitude>103.5244444</longitude>
  </city>
  <city name="Bayshintu hiid">
    <latitude>43.49</latitude>
    <longitude>103.5244444</longitude>
  </city>
  <city name="Bayshintuin hiid">
    <latitude>43.49</latitude>
    <longitude>103.5244444</longitude>
  </city>
  <city name="Bayshintu khid">
    <latitude>43.49</latitude>
    <longitude>103.5244444</longitude>
  </city>
  <city name="Bayshintu Khure">
    <latitude>47.45</latitude>
    <longitude>105.05</longitude>
  </city>
  <city name="Bayshintu Sume">
    <latitude>45.7166667</latitude>
    <longitude>112.6666667</longitude>
  </city>
  <city name="Baytsaiin Hüryee">
    <latitude>47.8333333</latitude>
    <longitude>98.3333333</longitude>
  </city>
  <city name="Baytsain Khure">
    <latitude>47.8333333</latitude>
    <longitude>98.3333333</longitude>
  </city>
  <city name="Bazar Köl Suma">
    <latitude>46.8166667</latitude>
    <longitude>91.3833333</longitude>
  </city>
  <city name="Bazar Kul' Somon">
    <latitude>46.8166667</latitude>
    <longitude>91.3833333</longitude>
  </city>
  <city name="Bazar Kul Suma">
    <latitude>46.8166667</latitude>
    <longitude>91.3833333</longitude>
  </city>
  <city name="Beeseiin Hiid">
    <latitude>47.3666667</latitude>
    <longitude>101.2</longitude>
  </city>
  <city name="Beger">
    <latitude>45.7</latitude>
    <longitude>97.1666667</longitude>
  </city>
  <city name="Beger Somon">
    <latitude>45.7</latitude>
    <longitude>97.1666667</longitude>
  </city>
  <city name="Belchir">
    <latitude>49.75</latitude>
    <longitude>107.4666667</longitude>
  </city>
  <city name="Belchir Suma">
    <latitude>49.75</latitude>
    <longitude>107.4666667</longitude>
  </city>
  <city name="Bel'chir sumu">
    <latitude>49.75</latitude>
    <longitude>107.4666667</longitude>
  </city>
  <city name="Belen-Hüree-Hiyd">
    <latitude>46.6833333</latitude>
    <longitude>103.0</longitude>
  </city>
  <city name="Belen Hüryee Hiid">
    <latitude>46.6833333</latitude>
    <longitude>103.0</longitude>
  </city>
  <city name="Belen khure khid">
    <latitude>46.6833333</latitude>
    <longitude>103.0</longitude>
  </city>
  <city name="Beleu">
    <latitude>49.0666667</latitude>
    <longitude>89.4666667</longitude>
  </city>
  <city name="Belinte Haan Hiid">
    <latitude>46.6666667</latitude>
    <longitude>109.7833333</longitude>
  </city>
  <city name="Belinte-Haan-Hiyd">
    <latitude>46.6666667</latitude>
    <longitude>109.7833333</longitude>
  </city>
  <city name="Belinte Khan Khid">
    <latitude>46.6666667</latitude>
    <longitude>109.7833333</longitude>
  </city>
  <city name="Beltes Dugan">
    <latitude>50.2666667</latitude>
    <longitude>99.35</longitude>
  </city>
  <city name="Beltes Hüryee">
    <latitude>50.2666667</latitude>
    <longitude>99.35</longitude>
  </city>
  <city name="Beltesiin Dugang">
    <latitude>50.2666667</latitude>
    <longitude>99.35</longitude>
  </city>
  <city name="Beltes-khure">
    <latitude>50.2666667</latitude>
    <longitude>99.35</longitude>
  </city>
  <city name="Belu">
    <latitude>49.0666667</latitude>
    <longitude>89.4666667</longitude>
  </city>
  <city name="Bereu">
    <latitude>49.0666667</latitude>
    <longitude>89.4666667</longitude>
  </city>
  <city name="Berh">
    <latitude>47.7833333</latitude>
    <longitude>111.1666667</longitude>
  </city>
  <city name="Berheiin Hiid">
    <latitude>47.9333333</latitude>
    <longitude>104.7666667</longitude>
  </city>
  <city name="Berkh">
    <latitude>47.7833333</latitude>
    <longitude>111.1666667</longitude>
  </city>
  <city name="Berkhein Khid">
    <latitude>47.9333333</latitude>
    <longitude>104.7666667</longitude>
  </city>
  <city name="Berkheyn Khid">
    <latitude>47.9333333</latitude>
    <longitude>104.7666667</longitude>
  </city>
  <city name="Beruchiru">
    <latitude>49.75</latitude>
    <longitude>107.4666667</longitude>
  </city>
  <city name="Beydariku">
    <latitude>47.2833333</latitude>
    <longitude>99.6666667</longitude>
  </city>
  <city name="Beysein khid">
    <latitude>47.3666667</latitude>
    <longitude>101.2</longitude>
  </city>
  <city name="Beyseyn Khid">
    <latitude>47.3666667</latitude>
    <longitude>101.2</longitude>
  </city>
  <city name="Beysyn-Khure">
    <latitude>47.3666667</latitude>
    <longitude>101.2</longitude>
  </city>
  <city name="Biashintu sume">
    <latitude>45.7166667</latitude>
    <longitude>112.6666667</longitude>
  </city>
  <city name="Bichigt">
    <latitude>47.1</latitude>
    <longitude>95.0666667</longitude>
  </city>
  <city name="Biger">
    <latitude>45.7</latitude>
    <longitude>97.1666667</longitude>
  </city>
  <city name="Biger Suma">
    <latitude>45.7</latitude>
    <longitude>97.1666667</longitude>
  </city>
  <city name="Bigger">
    <latitude>45.7</latitude>
    <longitude>97.1666667</longitude>
  </city>
  <city name="Bigger sumu">
    <latitude>45.7</latitude>
    <longitude>97.1666667</longitude>
  </city>
  <city name="Bij-Altaï">
    <latitude>45.55</latitude>
    <longitude>93.75</longitude>
  </city>
  <city name="Bij-Altay">
    <latitude>45.55</latitude>
    <longitude>93.75</longitude>
  </city>
  <city name="Bilchir">
    <latitude>49.75</latitude>
    <longitude>107.4666667</longitude>
  </city>
  <city name="Biliin Jisa Hiid">
    <latitude>46.4</latitude>
    <longitude>106.7</longitude>
  </city>
  <city name="Bilöyn chzhisa khid">
    <latitude>46.4</latitude>
    <longitude>106.7</longitude>
  </city>
  <city name="Bilsigi Hüryee">
    <latitude>49.5</latitude>
    <longitude>103.3166667</longitude>
  </city>
  <city name="Bil'sigo Khure">
    <latitude>49.5</latitude>
    <longitude>103.3166667</longitude>
  </city>
  <city name="Bil'sigy-khure">
    <latitude>49.5</latitude>
    <longitude>103.3166667</longitude>
  </city>
  <city name="Bilüü">
    <latitude>49.0333333</latitude>
    <longitude>89.3833333</longitude>
  </city>
  <city name="Bilüünii Hural">
    <latitude>44.4666667</latitude>
    <longitude>105.8666667</longitude>
  </city>
  <city name="Bilüüt">
    <latitude>46.3166667</latitude>
    <longitude>105.25</longitude>
  </city>
  <city name="Bilüüteyn Goliin Hiid">
    <latitude>47.0666667</latitude>
    <longitude>98.3</longitude>
  </city>
  <city name="Bilyunay Khural">
    <latitude>44.4666667</latitude>
    <longitude>105.8666667</longitude>
  </city>
  <city name="Bilyunöy khural">
    <latitude>44.4666667</latitude>
    <longitude>105.8666667</longitude>
  </city>
  <city name="Bilyunyy khural">
    <latitude>44.4666667</latitude>
    <longitude>105.8666667</longitude>
  </city>
  <city name="Bilyutuin goliin khid">
    <latitude>47.0666667</latitude>
    <longitude>98.3</longitude>
  </city>
  <city name="Bilyutuyn Goliin Khid">
    <latitude>47.0666667</latitude>
    <longitude>98.3</longitude>
  </city>
  <city name="Bilyyn chzhisa khid">
    <latitude>46.4</latitude>
    <longitude>106.7</longitude>
  </city>
  <city name="Binder">
    <latitude>48.6166667</latitude>
    <longitude>110.6</longitude>
  </city>
  <city name="Bindiryaa">
    <latitude>48.6166667</latitude>
    <longitude>110.6</longitude>
  </city>
  <city name="Bindiryaa Suma">
    <latitude>48.6166667</latitude>
    <longitude>110.6</longitude>
  </city>
  <city name="Bindur somon">
    <latitude>48.6166667</latitude>
    <longitude>110.6</longitude>
  </city>
  <city name="Bindurya">
    <latitude>48.6166667</latitude>
    <longitude>110.6</longitude>
  </city>
  <city name="Bindurya-Somon">
    <latitude>48.6166667</latitude>
    <longitude>110.6</longitude>
  </city>
  <city name="Bindur'ya sumu">
    <latitude>48.6166667</latitude>
    <longitude>110.6</longitude>
  </city>
  <city name="Biruta">
    <latitude>46.5</latitude>
    <longitude>115.1666667</longitude>
  </city>
  <city name="Biruuta">
    <latitude>46.5</latitude>
    <longitude>115.1666667</longitude>
  </city>
  <city name="Bizuta">
    <latitude>46.5</latitude>
    <longitude>115.1666667</longitude>
  </city>
  <city name="Bodi">
    <latitude>45.4</latitude>
    <longitude>100.5666667</longitude>
  </city>
  <city name="Bodol Süme">
    <latitude>46.45</latitude>
    <longitude>92.45</longitude>
  </city>
  <city name="Bodonchi">
    <latitude>45.7666667</latitude>
    <longitude>92.1833333</longitude>
  </city>
  <city name="Bodonchiin hürie">
    <latitude>45.7666667</latitude>
    <longitude>92.1833333</longitude>
  </city>
  <city name="Bodonchiin Hüryee">
    <latitude>45.7666667</latitude>
    <longitude>92.1833333</longitude>
  </city>
  <city name="Bodonchiin khure">
    <latitude>45.7666667</latitude>
    <longitude>92.1833333</longitude>
  </city>
  <city name="Bodonchin Khure">
    <latitude>45.7666667</latitude>
    <longitude>92.1833333</longitude>
  </city>
  <city name="Bodonchiyn-Hüree">
    <latitude>45.7666667</latitude>
    <longitude>92.1833333</longitude>
  </city>
  <city name="Boendosumu">
    <latitude>46.25</latitude>
    <longitude>110.8333333</longitude>
  </city>
  <city name="Bogdain Khid">
    <latitude>47.8333333</latitude>
    <longitude>107.0</longitude>
  </city>
  <city name="Bogda ula somon">
    <latitude>45.2</latitude>
    <longitude>100.7666667</longitude>
  </city>
  <city name="Bogda ula sumu">
    <latitude>45.2</latitude>
    <longitude>100.7666667</longitude>
  </city>
  <city name="Bogda Uula">
    <latitude>45.2</latitude>
    <longitude>100.7666667</longitude>
  </city>
  <city name="Bogd">
    <latitude>45.2</latitude>
    <longitude>100.7666667</longitude>
  </city>
  <city name="Bogdoiin Hiid">
    <latitude>47.8333333</latitude>
    <longitude>107.0</longitude>
  </city>
  <city name="Bogdo-Ula">
    <latitude>45.2</latitude>
    <longitude>100.7666667</longitude>
  </city>
  <city name="Bogdo Ula Sume">
    <latitude>45.2</latitude>
    <longitude>100.7666667</longitude>
  </city>
  <city name="Bogdo Uula Suma">
    <latitude>45.2</latitude>
    <longitude>100.7666667</longitude>
  </city>
  <city name="Bogudo-kara">
    <latitude>45.2</latitude>
    <longitude>100.7666667</longitude>
  </city>
  <city name="Böhmörön">
    <latitude>49.6666667</latitude>
    <longitude>90.2833333</longitude>
  </city>
  <city name="Böhöt">
    <latitude>45.25</latitude>
    <longitude>108.2833333</longitude>
  </city>
  <city name="Boin-Khid">
    <latitude>44.9166667</latitude>
    <longitude>108.9166667</longitude>
  </city>
  <city name="Bökhmörön">
    <latitude>49.6666667</latitude>
    <longitude>90.2833333</longitude>
  </city>
  <city name="Bologon">
    <latitude>48.05</latitude>
    <longitude>113.4833333</longitude>
  </city>
  <city name="Bologon-Somon">
    <latitude>48.05</latitude>
    <longitude>113.4833333</longitude>
  </city>
  <city name="Bömböger sumu">
    <latitude>46.1833333</latitude>
    <longitude>99.5666667</longitude>
  </city>
  <city name="Bömbögör">
    <latitude>46.1833333</latitude>
    <longitude>99.5666667</longitude>
  </city>
  <city name="Bömbögör Suma">
    <latitude>46.1833333</latitude>
    <longitude>99.5666667</longitude>
  </city>
  <city name="Bonga">
    <latitude>50.0</latitude>
    <longitude>105.6666667</longitude>
  </city>
  <city name="Bööngiin Hiid">
    <latitude>46.8333333</latitude>
    <longitude>112.6333333</longitude>
  </city>
  <city name="Boongöyn Khid">
    <latitude>46.8333333</latitude>
    <longitude>112.6333333</longitude>
  </city>
  <city name="Boongyyn khid">
    <latitude>46.8333333</latitude>
    <longitude>112.6333333</longitude>
  </city>
  <city name="Böörgu hangay sumu">
    <latitude>48.2333333</latitude>
    <longitude>103.95</longitude>
  </city>
  <city name="Bor Burgasi">
    <latitude>49.2</latitude>
    <longitude>89.2</longitude>
  </city>
  <city name="Bor Burgazi">
    <latitude>49.2</latitude>
    <longitude>89.2</longitude>
  </city>
  <city name="Bor Burgazy">
    <latitude>49.2</latitude>
    <longitude>89.2</longitude>
  </city>
  <city name="Borcho">
    <latitude>47.6</latitude>
    <longitude>96.4</longitude>
  </city>
  <city name="Borchunsuma">
    <latitude>47.25</latitude>
    <longitude>107.5333333</longitude>
  </city>
  <city name="Borchzhiin Urto">
    <latitude>46.65</latitude>
    <longitude>92.8333333</longitude>
  </city>
  <city name="Borchzhin urto">
    <latitude>46.65</latitude>
    <longitude>92.8333333</longitude>
  </city>
  <city name="Borchzhin Yurts">
    <latitude>46.65</latitude>
    <longitude>92.8333333</longitude>
  </city>
  <city name="Borho">
    <latitude>47.6</latitude>
    <longitude>96.4</longitude>
  </city>
  <city name="Borhoyn Tal">
    <latitude>43.75</latitude>
    <longitude>111.9166667</longitude>
  </city>
  <city name="Borjin Örtöö">
    <latitude>46.65</latitude>
    <longitude>92.8333333</longitude>
  </city>
  <city name="Borkhein khid">
    <latitude>47.9333333</latitude>
    <longitude>104.7666667</longitude>
  </city>
  <city name="Borkho">
    <latitude>47.6</latitude>
    <longitude>96.4</longitude>
