<?xml version="1.0" encoding="UTF-8"?>
<country code="mw" name="Malawi">
  <city name="Aaron">
    <latitude>-12.75</latitude>
    <longitude>34.2166667</longitude>
  </city>
  <city name="Abel Chunga">
    <latitude>-12.1666667</latitude>
    <longitude>33.4833333</longitude>
  </city>
  <city name="Abele">
    <latitude>-14.1333333</latitude>
    <longitude>33.6666667</longitude>
  </city>
  <city name="Abindanjoke">
    <latitude>-13.4</latitude>
    <longitude>33.9</longitude>
  </city>
  <city name="Abisai">
    <latitude>-13.7833333</latitude>
    <longitude>34.4666667</longitude>
  </city>
  <city name="Abraham">
    <latitude>-13.65</latitude>
    <longitude>33.1666667</longitude>
  </city>
  <city name="Abute">
    <latitude>-13.75</latitude>
    <longitude>33.1</longitude>
  </city>
  <city name="Adam">
    <latitude>-9.5166667</latitude>
    <longitude>33.2166667</longitude>
  </city>
  <city name="Agabu">
    <latitude>-14.6</latitude>
    <longitude>34.7666667</longitude>
  </city>
  <city name="Agamonje">
    <latitude>-13.5166667</latitude>
    <longitude>33.8666667</longitude>
  </city>
  <city name="Agrippa Jere">
    <latitude>-11.4333333</latitude>
    <longitude>33.35</longitude>
  </city>
  <city name="Akoyo">
    <latitude>-11.0166667</latitude>
    <longitude>33.9166667</longitude>
  </city>
  <city name="Akubilila">
    <latitude>-14.75</latitude>
    <longitude>34.8166667</longitude>
  </city>
  <city name="Alamu">
    <latitude>-12.5666667</latitude>
    <longitude>33.45</longitude>
  </city>
  <city name="Alexander Liti">
    <latitude>-15.3333333</latitude>
    <longitude>35.4166667</longitude>
  </city>
  <city name="Alick Chisi">
    <latitude>-11.9333333</latitude>
    <longitude>33.6</longitude>
  </city>
  <city name="Alick Cisi">
    <latitude>-11.9333333</latitude>
    <longitude>33.6</longitude>
  </city>
  <city name="Alick Ndawandawa">
    <latitude>-11.9333333</latitude>
    <longitude>33.55</longitude>
  </city>
  <city name="Alifandaka">
    <latitude>-17.0666667</latitude>
    <longitude>35.0833333</longitude>
  </city>
  <city name="Ali Kanyenda">
    <latitude>-12.9666667</latitude>
    <longitude>34.2666667</longitude>
  </city>
  <city name="Alikishani">
    <latitude>-12.6833333</latitude>
    <longitude>33.6666667</longitude>
  </city>
  <city name="Alimenda">
    <latitude>-16.2166667</latitude>
    <longitude>34.6666667</longitude>
  </city>
  <city name="Alufasi">
    <latitude>-16.4666667</latitude>
    <longitude>34.95</longitude>
  </city>
  <city name="Alumenda">
    <latitude>-16.2</latitude>
    <longitude>34.7166667</longitude>
  </city>
  <city name="Amadzi">
    <latitude>-14.0333333</latitude>
    <longitude>33.4666667</longitude>
  </city>
  <city name="Amazi">
    <latitude>-12.7666667</latitude>
    <longitude>33.3666667</longitude>
  </city>
  <city name="Ambale Phaso">
    <latitude>-12.5833333</latitude>
    <longitude>34.1666667</longitude>
  </city>
  <city name="Amenta">
    <latitude>-14.2</latitude>
    <longitude>33.9833333</longitude>
  </city>
  <city name="Amon">
    <latitude>-13.3666667</latitude>
    <longitude>33.8666667</longitude>
  </city>
  <city name="Amoni">
    <latitude>-12.2</latitude>
    <longitude>33.9166667</longitude>
  </city>
  <city name="Amonis">
    <latitude>-13.1833333</latitude>
    <longitude>33.5833333</longitude>
  </city>
  <city name="Amon Munthali">
    <latitude>-11.35</latitude>
    <longitude>33.5</longitude>
  </city>
  <city name="Amos Zakocera">
    <latitude>-13.1166667</latitude>
    <longitude>33.4666667</longitude>
  </city>
  <city name="Amozi">
    <latitude>-13.6833333</latitude>
    <longitude>33.0833333</longitude>
  </city>
  <city name="Andama">
    <latitude>-13.6666667</latitude>
    <longitude>33.2333333</longitude>
  </city>
  <city name="Andreya">
    <latitude>-14.4333333</latitude>
    <longitude>34.1</longitude>
  </city>
  <city name="Anoki Mkhere">
    <latitude>-11.85</latitude>
    <longitude>33.6833333</longitude>
  </city>
  <city name="Antonio">
    <latitude>-13.85</latitude>
    <longitude>33.2333333</longitude>
  </city>
  <city name="Arfairyu">
    <latitude>-9.6166667</latitude>
    <longitude>33.3333333</longitude>
  </city>
  <city name="Asembe">
    <latitude>-13.6833333</latitude>
    <longitude>33.7333333</longitude>
  </city>
  <city name="Augustino">
    <latitude>-13.0833333</latitude>
    <longitude>34.3166667</longitude>
  </city>
  <city name="Austeni">
    <latitude>-14.7666667</latitude>
    <longitude>34.9166667</longitude>
  </city>
  <city name="Azimbare">
    <latitude>-14.25</latitude>
    <longitude>33.7</longitude>
  </city>
  <city name="Azyuda">
    <latitude>-16.1666667</latitude>
    <longitude>34.75</longitude>
  </city>
  <city name="Baghaya">
    <latitude>-11.0</latitude>
    <longitude>33.9166667</longitude>
  </city>
  <city name="Bakali">
    <latitude>-14.6666667</latitude>
    <longitude>35.4166667</longitude>
  </city>
  <city name="Bakhili">
    <latitude>-14.6833333</latitude>
    <longitude>35.8166667</longitude>
  </city>
  <city name="Bakile">
    <latitude>-13.9833333</latitude>
    <longitude>35.1666667</longitude>
  </city>
  <city name="Balaka">
    <latitude>-14.9833333</latitude>
    <longitude>34.95</longitude>
  </city>
  <city name="Balakas">
    <latitude>-14.9166667</latitude>
    <longitude>34.8333333</longitude>
  </city>
  <city name="Balakasi">
    <latitude>-15.4833333</latitude>
    <longitude>35.35</longitude>
  </city>
  <city name="Balala">
    <latitude>-16.45</latitude>
    <longitude>34.95</longitude>
  </city>
  <city name="Bana">
    <latitude>-12.4</latitude>
    <longitude>34.1166667</longitude>
  </city>
  <city name="Banda">
    <latitude>-12.6333333</latitude>
    <longitude>33.6666667</longitude>
  </city>
  <city name="Bandawe">
    <latitude>-11.95</latitude>
    <longitude>34.1666667</longitude>
  </city>
  <city name="Bande">
    <latitude>-13.45</latitude>
    <longitude>33.95</longitude>
  </city>
  <city name="Bangani">
    <latitude>-14.2333333</latitude>
    <longitude>34.6166667</longitude>
  </city>
  <city name="Bang">
    <latitude>-13.2166667</latitude>
    <longitude>34.2833333</longitude>
  </city>
  <city name="Bango">
    <latitude>-14.35</latitude>
    <longitude>34.0333333</longitude>
  </city>
  <city name="Bani">
    <latitude>-14.4166667</latitude>
    <longitude>34.1333333</longitude>
  </city>
  <city name="Banja">
    <latitude>-14.6666667</latitude>
    <longitude>35.7333333</longitude>
  </city>
  <city name="Bano">
    <latitude>-13.1166667</latitude>
    <longitude>33.5333333</longitude>
  </city>
  <city name="Baquira">
    <latitude>-13.9</latitude>
    <longitude>35.1833333</longitude>
  </city>
  <city name="Barton Jere">
    <latitude>-11.2166667</latitude>
    <longitude>33.8833333</longitude>
  </city>
  <city name="Barton Mzima">
    <latitude>-11.2166667</latitude>
    <longitude>33.8166667</longitude>
  </city>
  <city name="Bartumeyo Tembo">
    <latitude>-12.15</latitude>
    <longitude>33.4</longitude>
  </city>
  <city name="Basikolo">
    <latitude>-12.15</latitude>
    <longitude>33.6166667</longitude>
  </city>
  <city name="Basopo Lungu">
    <latitude>-11.7666667</latitude>
    <longitude>33.4333333</longitude>
  </city>
  <city name="Batamu Hande">
    <latitude>-11.35</latitude>
    <longitude>33.4166667</longitude>
  </city>
  <city name="Bawa Banda">
    <latitude>-12.15</latitude>
    <longitude>33.3333333</longitude>
  </city>
  <city name="Bechani">
    <latitude>-12.55</latitude>
    <longitude>33.3833333</longitude>
  </city>
  <city name="Belekia">
    <latitude>-12.1666667</latitude>
    <longitude>33.8166667</longitude>
  </city>
  <city name="Bemberi">
    <latitude>-13.7666667</latitude>
    <longitude>33.5333333</longitude>
  </city>
  <city name="Ben">
    <latitude>-14.3833333</latitude>
    <longitude>33.7333333</longitude>
  </city>
  <city name="Benga">
    <latitude>-13.3666667</latitude>
    <longitude>34.2833333</longitude>
  </city>
  <city name="Beni">
    <latitude>-13.6833333</latitude>
    <longitude>33.25</longitude>
  </city>
  <city name="Benula">
    <latitude>-12.75</latitude>
    <longitude>33.55</longitude>
  </city>
  <city name="Besera">
    <latitude>-13.65</latitude>
    <longitude>33.8833333</longitude>
  </city>
  <city name="Biambiri Mramu">
    <latitude>-11.4666667</latitude>
    <longitude>33.7166667</longitude>
  </city>
  <city name="Bibi">
    <latitude>-13.6166667</latitude>
    <longitude>34.5333333</longitude>
  </city>
  <city name="Bikivai">
    <latitude>-13.5166667</latitude>
    <longitude>33.2</longitude>
  </city>
  <city name="Bilale">
    <latitude>-13.05</latitude>
    <longitude>33.3833333</longitude>
  </city>
  <city name="Bile">
    <latitude>-16.4166667</latitude>
    <longitude>34.8666667</longitude>
  </city>
  <city name="Billiate">
    <latitude>-15.05</latitude>
    <longitude>34.6</longitude>
  </city>
  <city name="Billiati">
    <latitude>-15.05</latitude>
    <longitude>34.6</longitude>
  </city>
  <city name="Bimbi">
    <latitude>-15.3</latitude>
    <longitude>35.4833333</longitude>
  </city>
  <city name="Bimpi">
    <latitude>-13.6333333</latitude>
    <longitude>34.0</longitude>
  </city>
  <city name="Bingo">
    <latitude>-13.7666667</latitude>
    <longitude>34.4166667</longitude>
  </city>
  <city name="Bisa">
    <latitude>-12.45</latitude>
    <longitude>33.85</longitude>
  </city>
  <city name="Bisai">
    <latitude>-14.2</latitude>
    <longitude>33.95</longitude>
  </city>
  <city name="Bisenti">
    <latitude>-16.9833333</latitude>
    <longitude>35.3</longitude>
  </city>
  <city name="Bitchilipa">
    <latitude>-14.7166667</latitude>
    <longitude>34.9333333</longitude>
  </city>
  <city name="Biti Kalanje">
    <latitude>-14.2833333</latitude>
    <longitude>35.25</longitude>
  </city>
  <city name="Bitoni Karuwa">
    <latitude>-12.1333333</latitude>
    <longitude>33.4</longitude>
  </city>
  <city name="Biwi">
    <latitude>-14.1833333</latitude>
    <longitude>33.9666667</longitude>
  </city>
  <city name="Biwi Mazamba">
    <latitude>-14.1333333</latitude>
    <longitude>33.7333333</longitude>
  </city>
  <city name="Biwi Mzamba">
    <latitude>-14.1333333</latitude>
    <longitude>33.7333333</longitude>
  </city>
  <city name="Biza">
    <latitude>-15.5333333</latitude>
    <longitude>35.2166667</longitude>
  </city>
  <city name="Blair">
    <latitude>-16.0833333</latitude>
    <longitude>35.1</longitude>
  </city>
  <city name="Blantyre">
    <latitude>-15.7833333</latitude>
    <longitude>35.0</longitude>
  </city>
  <city name="Boghoyo">
    <latitude>-11.1</latitude>
    <longitude>34.2333333</longitude>
  </city>
  <city name="Bokosi">
    <latitude>-12.6</latitude>
    <longitude>33.4</longitude>
  </city>
  <city name="Bokosi Dindi">
    <latitude>-11.9333333</latitude>
    <longitude>33.5</longitude>
  </city>
  <city name="Bokosi Kunga">
    <latitude>-11.9666667</latitude>
    <longitude>33.6666667</longitude>
  </city>
  <city name="Bolero">
    <latitude>-10.9833333</latitude>
    <longitude>33.75</longitude>
  </city>
  <city name="Bomombo">
    <latitude>-12.7333333</latitude>
    <longitude>33.65</longitude>
  </city>
  <city name="Bonda">
    <latitude>-13.65</latitude>
    <longitude>33.3333333</longitude>
  </city>
  <city name="Bondo">
    <latitude>-12.9</latitude>
    <longitude>33.7833333</longitude>
  </city>
  <city name="Bonga">
    <latitude>-14.6</latitude>
    <longitude>34.55</longitude>
  </city>
  <city name="Bongera">
    <latitude>-13.7666667</latitude>
    <longitude>33.05</longitude>
  </city>
  <city name="Bongoya">
    <latitude>-12.1666667</latitude>
    <longitude>33.4</longitude>
  </city>
  <city name="Bongwe">
    <latitude>-15.45</latitude>
    <longitude>35.4166667</longitude>
  </city>
  <city name="Boni">
    <latitude>-12.5</latitude>
    <longitude>33.5166667</longitude>
  </city>
  <city name="Bonongwe">
    <latitude>-15.9833333</latitude>
    <longitude>35.2</longitude>
  </city>
  <city name="Bota">
    <latitude>-11.2666667</latitude>
    <longitude>33.4</longitude>
  </city>
  <city name="Boti">
    <latitude>-11.6166667</latitude>
    <longitude>33.5</longitude>
  </city>
  <city name="Boti Kumwenda">
    <latitude>-11.55</latitude>
    <longitude>33.4833333</longitude>
  </city>
  <city name="Bowa">
    <latitude>-13.7833333</latitude>
    <longitude>33.75</longitude>
  </city>
  <city name="Bowmande">
    <latitude>-13.7333333</latitude>
    <longitude>33.6833333</longitude>
  </city>
  <city name="Budu">
    <latitude>-14.5</latitude>
    <longitude>35.6</longitude>
  </city>
  <city name="Buku">
    <latitude>-12.8</latitude>
    <longitude>33.3833333</longitude>
  </city>
  <city name="Bula">
    <latitude>-14.8666667</latitude>
    <longitude>34.7666667</longitude>
  </city>
  <city name="Bulala">
    <latitude>-11.6666667</latitude>
    <longitude>33.4166667</longitude>
  </city>
  <city name="Buluzi">
    <latitude>-14.0666667</latitude>
    <longitude>33.7833333</longitude>
  </city>
  <city name="Bumba">
    <latitude>-11.0166667</latitude>
    <longitude>33.8333333</longitude>
  </city>
  <city name="Bumphola">
    <latitude>-13.1333333</latitude>
    <longitude>33.9166667</longitude>
  </city>
  <city name="Bunganiro">
    <latitude>-10.3166667</latitude>
    <longitude>34.0333333</longitude>
  </city>
  <city name="Bunyenga">
    <latitude>-14.7833333</latitude>
    <longitude>34.7666667</longitude>
  </city>
  <city name="Burnett">
    <latitude>-15.3</latitude>
    <longitude>35.8166667</longitude>
  </city>
  <city name="Butani">
    <latitude>-11.3666667</latitude>
    <longitude>34.2666667</longitude>
  </city>
  <city name="Butani Nyirenda">
    <latitude>-11.1666667</latitude>
    <longitude>33.5833333</longitude>
  </city>
  <city name="Butari">
    <latitude>-11.1833333</latitude>
    <longitude>34.2</longitude>
  </city>
  <city name="Bwala">
    <latitude>-13.3166667</latitude>
    <longitude>34.1166667</longitude>
  </city>
  <city name="Bwamba">
    <latitude>-14.0166667</latitude>
    <longitude>33.75</longitude>
  </city>
  <city name="Bwanaisa">
    <latitude>-15.8166667</latitude>
    <longitude>35.6333333</longitude>
  </city>
  <city name="Bwanali">
    <latitude>-13.1166667</latitude>
    <longitude>33.5</longitude>
  </city>
  <city name="Bwanasompho">
    <latitude>-15.8</latitude>
    <longitude>34.9166667</longitude>
  </city>
  <city name="Bwanthuwa">
    <latitude>-11.4833333</latitude>
    <longitude>34.2</longitude>
  </city>
  <city name="Bwatalika">
    <latitude>-13.9833333</latitude>
    <longitude>33.5666667</longitude>
  </city>
  <city name="Bwemba">
    <latitude>-16.4166667</latitude>
    <longitude>34.9166667</longitude>
  </city>
  <city name="Bwengu">
    <latitude>-11.0666667</latitude>
    <longitude>33.9166667</longitude>
  </city>
  <city name="Bweteka">
    <latitude>-11.2666667</latitude>
    <longitude>34.2166667</longitude>
  </city>
  <city name="Bweteka Village">
    <latitude>-11.2666667</latitude>
    <longitude>34.2166667</longitude>
  </city>
  <city name="Bwetweha">
    <latitude>-11.2666667</latitude>
    <longitude>34.2166667</longitude>
  </city>
  <city name="Bweya">
    <latitude>-13.25</latitude>
    <longitude>33.6166667</longitude>
  </city>
  <city name="Bwikito">
    <latitude>-11.4333333</latitude>
    <longitude>34.2666667</longitude>
  </city>
  <city name="Cabvula">
    <latitude>-13.4333333</latitude>
    <longitude>33.2833333</longitude>
  </city>
  <city name="Cabwedzeka">
    <latitude>-16.1166667</latitude>
    <longitude>34.6</longitude>
  </city>
  <city name="Cacecedza">
    <latitude>-14.3833333</latitude>
    <longitude>34.1833333</longitude>
  </city>
  <city name="Cadzowa">
    <latitude>-13.8333333</latitude>
    <longitude>33.5166667</longitude>
  </city>
  <city name="Caera">
    <latitude>-15.7</latitude>
    <longitude>35.4</longitude>
  </city>
  <city name="Cafwamba">
    <latitude>-12.8833333</latitude>
    <longitude>33.3166667</longitude>
  </city>
  <city name="Cagweluka">
    <latitude>-12.95</latitude>
    <longitude>33.5166667</longitude>
  </city>
  <city name="Cakulembera">
    <latitude>-15.3</latitude>
    <longitude>34.6</longitude>
  </city>
  <city name="Cakutola">
    <latitude>-12.8666667</latitude>
    <longitude>33.9333333</longitude>
  </city>
  <city name="Cakuzizwa">
    <latitude>-12.55</latitude>
    <longitude>33.5166667</longitude>
  </city>
  <city name="Cakwanika">
    <latitude>-12.5</latitude>
    <longitude>33.6166667</longitude>
  </city>
  <city name="Cakwawa">
    <latitude>-12.7666667</latitude>
    <longitude>33.4</longitude>
  </city>
  <city name="Cakwila">
    <latitude>-12.6</latitude>
    <longitude>33.3</longitude>
  </city>
  <city name="Camama">
    <latitude>-12.9</latitude>
    <longitude>33.55</longitude>
  </city>
  <city name="Camau">
    <latitude>-14.5833333</latitude>
    <longitude>34.5333333</longitude>
  </city>
  <city name="Cambalekani">
    <latitude>-12.5666667</latitude>
    <longitude>33.35</longitude>
  </city>
  <city name="Caola">
    <latitude>-12.7666667</latitude>
    <longitude>33.3833333</longitude>
  </city>
  <city name="Capamba">
    <latitude>-12.8333333</latitude>
    <longitude>33.8</longitude>
  </city>
  <city name="Cape Maclear">
    <latitude>-14.0166667</latitude>
    <longitude>34.85</longitude>
  </city>
  <city name="Caphuka">
    <latitude>-12.5833333</latitude>
    <longitude>33.3</longitude>
  </city>
  <city name="Capuhkwa">
    <latitude>-14.3833333</latitude>
    <longitude>33.9</longitude>
  </city>
  <city name="Capuka">
    <latitude>-14.7</latitude>
    <longitude>35.55</longitude>
  </city>
  <city name="Capwawa">
    <latitude>-12.7</latitude>
    <longitude>33.6</longitude>
  </city>
  <city name="Cardi">
    <latitude>-9.6166667</latitude>
    <longitude>33.5666667</longitude>
  </city>
  <city name="Casamwalala">
    <latitude>-13.65</latitude>
    <longitude>34.3333333</longitude>
  </city>
  <city name="Cassapa">
    <latitude>-15.6333333</latitude>
    <longitude>34.6166667</longitude>
  </city>
  <city name="Casuka">
    <latitude>-14.0333333</latitude>
    <longitude>33.3166667</longitude>
  </city>
  <city name="Cavunguma">
    <latitude>-12.8166667</latitude>
    <longitude>33.35</longitude>
  </city>
  <city name="Cavura">
    <latitude>-12.7333333</latitude>
    <longitude>33.4666667</longitude>
  </city>
  <city name="Cavwelema">
    <latitude>-12.8</latitude>
    <longitude>33.6833333</longitude>
  </city>
  <city name="Cawala">
    <latitude>-13.5833333</latitude>
    <longitude>32.95</longitude>
  </city>
  <city name="Cawanje">
    <latitude>-14.65</latitude>
    <longitude>34.8333333</longitude>
  </city>
  <city name="Cawola">
    <latitude>-12.7333333</latitude>
    <longitude>33.4</longitude>
  </city>
  <city name="Celemu">
    <latitude>-14.8</latitude>
    <longitude>35.0</longitude>
  </city>
  <city name="Cendesula">
    <latitude>-12.3166667</latitude>
    <longitude>33.9833333</longitude>
  </city>
  <city name="Cesalino">
    <latitude>-13.7</latitude>
    <longitude>34.2833333</longitude>
  </city>
  <city name="Chabuka">
    <latitude>-13.4</latitude>
    <longitude>33.8666667</longitude>
  </city>
  <city name="Chabwela">
    <latitude>-14.95</latitude>
    <longitude>35.4333333</longitude>
  </city>
  <city name="Chabwera">
    <latitude>-13.8833333</latitude>
    <longitude>33.0333333</longitude>
  </city>
  <city name="Chadagha">
    <latitude>-11.4833333</latitude>
    <longitude>34.2666667</longitude>
  </city>
  <city name="Chadika">
    <latitude>-14.3</latitude>
    <longitude>33.8833333</longitude>
  </city>
  <city name="Chadza">
    <latitude>-13.7333333</latitude>
    <longitude>33.8833333</longitude>
  </city>
  <city name="Chadza Mkwenda">
    <latitude>-14.1833333</latitude>
    <longitude>33.8333333</longitude>
  </city>
  <city name="Chadza Nkhwenda">
    <latitude>-14.1833333</latitude>
    <longitude>33.8333333</longitude>
  </city>
  <city name="Chadzuka">
    <latitude>-14.0333333</latitude>
    <longitude>33.3166667</longitude>
  </city>
  <city name="Chafudzika">
    <latitude>-16.1333333</latitude>
    <longitude>34.65</longitude>
  </city>
  <city name="Chafukira">
    <latitude>-12.7833333</latitude>
    <longitude>33.5</longitude>
  </city>
  <city name="Chafumbwa">
    <latitude>-14.3833333</latitude>
    <longitude>33.9</longitude>
  </city>
  <city name="Chafumukwa">
    <latitude>-13.5166667</latitude>
    <longitude>33.0833333</longitude>
  </city>
  <city name="Chagambatuka">
    <latitude>-16.1166667</latitude>
    <longitude>34.8833333</longitude>
  </city>
  <city name="Chagocha">
    <latitude>-13.6333333</latitude>
    <longitude>33.1333333</longitude>
  </city>
  <city name="Chagogo">
    <latitude>-14.0666667</latitude>
    <longitude>33.8333333</longitude>
  </city>
  <city name="Chaguza">
    <latitude>-13.5666667</latitude>
    <longitude>33.8666667</longitude>
  </city>
  <city name="Chagwalugwa">
    <latitude>-14.45</latitude>
    <longitude>34.0833333</longitude>
  </city>
  <city name="Chagwambala">
    <latitude>-10.25</latitude>
    <longitude>33.6666667</longitude>
  </city>
  <city name="Chaima">
    <latitude>-13.3166667</latitude>
    <longitude>33.4833333</longitude>
  </city>
  <city name="Chaiso Ndhlovu">
    <latitude>-11.7333333</latitude>
    <longitude>33.3833333</longitude>
  </city>
  <city name="Chakalira">
    <latitude>-13.6666667</latitude>
    <longitude>33.2666667</longitude>
  </city>
  <city name="Chakanza">
    <latitude>-16.3</latitude>
    <longitude>35.0666667</longitude>
  </city>
  <city name="Chakapama">
    <latitude>-13.6166667</latitude>
    <longitude>33.15</longitude>
  </city>
  <city name="Chakasa">
    <latitude>-13.4333333</latitude>
    <longitude>33.6333333</longitude>
  </city>
  <city name="Chakazika">
    <latitude>-13.5333333</latitude>
    <longitude>33.4833333</longitude>
  </city>
  <city name="Chakhala">
    <latitude>-13.3166667</latitude>
    <longitude>33.5</longitude>
  </city>
  <city name="Chakhala II">
    <latitude>-13.3166667</latitude>
    <longitude>33.3333333</longitude>
  </city>
  <city name="Chakhame">
    <latitude>-14.9666667</latitude>
    <longitude>35.8666667</longitude>
  </city>
  <city name="Chakhaza">
    <latitude>-13.65</latitude>
    <longitude>33.7333333</longitude>
  </city>
  <city name="Chakhumbira">
    <latitude>-16.2833333</latitude>
    <longitude>34.9333333</longitude>
  </city>
  <city name="Chakongwa">
    <latitude>-13.1833333</latitude>
    <longitude>33.6666667</longitude>
  </city>
  <city name="Chakuma">
    <latitude>-13.65</latitude>
    <longitude>33.9833333</longitude>
  </city>
  <city name="Chakupompha">
    <latitude>-11.7333333</latitude>
    <longitude>33.9666667</longitude>
  </city>
  <city name="Chakuwara">
    <latitude>-13.7166667</latitude>
    <longitude>33.15</longitude>
  </city>
  <city name="Chakuzamutu">
    <latitude>-14.0666667</latitude>
    <longitude>33.3666667</longitude>
  </city>
  <city name="Chakwanila">
    <latitude>-14.05</latitude>
    <longitude>33.7666667</longitude>
  </city>
  <city name="Chakwawa">
    <latitude>-13.55</latitude>
    <longitude>33.5833333</longitude>
  </city>
  <city name="Chale">
    <latitude>-13.4</latitude>
    <longitude>33.8166667</longitude>
  </city>
  <city name="Chalendewa">
    <latitude>-14.1</latitude>
    <longitude>33.7833333</longitude>
  </city>
  <city name="Chalera">
    <latitude>-14.25</latitude>
    <longitude>34.0833333</longitude>
  </city>
  <city name="Chaletuwa">
    <latitude>-16.5833333</latitude>
    <longitude>34.9</longitude>
  </city>
  <city name="Chali">
    <latitude>-15.7333333</latitude>
    <longitude>34.4</longitude>
  </city>
  <city name="Chalilima">
    <latitude>-13.8333333</latitude>
    <longitude>33.0166667</longitude>
  </city>
  <city name="Chalilo">
    <latitude>-14.0666667</latitude>
    <longitude>33.9833333</longitude>
  </city>
  <city name="Chalotwa">
    <latitude>-12.2166667</latitude>
    <longitude>33.3333333</longitude>
  </city>
  <city name="Chalunda">
    <latitude>-13.8166667</latitude>
    <longitude>34.4666667</longitude>
  </city>
  <city name="Chamadenga">
    <latitude>-14.1666667</latitude>
    <longitude>33.9</longitude>
  </city>
  <city name="Chamaka">
    <latitude>-16.8666667</latitude>
    <longitude>35.2833333</longitude>
  </city>
  <city name="Chamakala">
    <latitude>-12.75</latitude>
    <longitude>33.4666667</longitude>
  </city>
  <city name="Chamama">
    <latitude>-12.9333333</latitude>
    <longitude>33.8</longitude>
  </city>
  <city name="Chamande">
    <latitude>-15.4</latitude>
    <longitude>35.3833333</longitude>
  </city>
  <city name="Chamanga">
    <latitude>-16.3833333</latitude>
    <longitude>34.7166667</longitude>
  </city>
  <city name="Chamara">
    <latitude>-16.1</latitude>
    <longitude>34.6</longitude>
  </city>
  <city name="Chamatete">
    <latitude>-10.9166667</latitude>
    <longitude>33.4833333</longitude>
  </city>
  <city name="Chamawoya">
    <latitude>-11.5333333</latitude>
    <longitude>34.1</longitude>
  </city>
  <city name="Chamba">
    <latitude>-15.9</latitude>
    <longitude>34.9166667</longitude>
  </city>
  <city name="Chambala">
    <latitude>-13.6666667</latitude>
    <longitude>33.4333333</longitude>
  </city>
  <city name="Chambamkuya">
    <latitude>-13.4</latitude>
    <longitude>34.0666667</longitude>
  </city>
  <city name="Chambukira">
    <latitude>-13.9833333</latitude>
    <longitude>33.7333333</longitude>
  </city>
  <city name="Chambuluka">
    <latitude>-16.4666667</latitude>
    <longitude>34.7666667</longitude>
  </city>
  <city name="Chambwe">
    <latitude>-13.6666667</latitude>
    <longitude>33.7666667</longitude>
  </city>
  <city name="Chamera">
    <latitude>-16.1</latitude>
    <longitude>34.6</longitude>
  </city>
  <city name="Chamkoma">
    <latitude>-13.65</latitude>
    <longitude>34.0</longitude>
  </city>
  <city name="Chamonsi">
    <latitude>-13.9666667</latitude>
    <longitude>33.9166667</longitude>
  </city>
  <city name="Champira">
    <latitude>-12.3333333</latitude>
    <longitude>33.6166667</longitude>
  </city>
  <city name="Champongo">
    <latitude>-14.4666667</latitude>
    <longitude>34.0666667</longitude>
  </city>
  <city name="Chamuhanya Gondwe">
    <latitude>-11.4333333</latitude>
    <longitude>33.6</longitude>
  </city>
  <city name="Chamvu">
    <latitude>-13.6</latitude>
    <longitude>33.9833333</longitude>
  </city>
  <city name="Chamyeka">
    <latitude>-13.8333333</latitude>
    <longitude>32.95</longitude>
  </city>
  <city name="Chana">
    <latitude>-13.8666667</latitude>
    <longitude>34.4833333</longitude>
  </city>
  <city name="Chanasa">
    <latitude>-15.8333333</latitude>
    <longitude>35.55</longitude>
  </city>
  <city name="Chandamana Mwandira">
    <latitude>-11.6333333</latitude>
    <longitude>33.4833333</longitude>
  </city>
  <city name="Chande">
    <latitude>-15.4833333</latitude>
    <longitude>35.4666667</longitude>
  </city>
  <city name="Chandiwira Moyo">
    <latitude>-11.0666667</latitude>
    <longitude>33.9166667</longitude>
  </city>
  <city name="Chandiwu">
    <latitude>-13.45</latitude>
    <longitude>33.6166667</longitude>
  </city>
  <city name="Changali">
    <latitude>-14.7166667</latitude>
    <longitude>35.1666667</longitude>
  </city>
  <city name="Changalis Village">
    <latitude>-14.7166667</latitude>
    <longitude>35.1666667</longitude>
  </city>
  <city name="Changaluwa">
    <latitude>-13.2166667</latitude>
    <longitude>33.35</longitude>
  </city>
  <city name="Chanika">
    <latitude>-12.9333333</latitude>
    <longitude>34.1833333</longitude>
  </city>
  <city name="Chankakhala">
    <latitude>-13.6333333</latitude>
    <longitude>33.5166667</longitude>
  </city>
  <city name="Chankhamatete">
    <latitude>-11.8333333</latitude>
    <longitude>34.0166667</longitude>
  </city>
  <city name="Chanunkha Shawa">
    <latitude>-11.8833333</latitude>
    <longitude>33.55</longitude>
  </city>
  <city name="Chanza">
    <latitude>-15.8333333</latitude>
    <longitude>35.55</longitude>
  </city>
  <city name="Chaola">
    <latitude>-13.65</latitude>
    <longitude>34.0666667</longitude>
  </city>
  <city name="Chaolamokanda">
    <latitude>-13.4333333</latitude>
    <longitude>33.8666667</longitude>
  </city>
  <city name="Chaonanjiwa">
    <latitude>-16.4166667</latitude>
    <longitude>34.7666667</longitude>
  </city>
  <city name="Chaowa">
    <latitude>-13.7166667</latitude>
    <longitude>33.85</longitude>
  </city>
  <city name="Chapalapula">
    <latitude>-13.3</latitude>
    <longitude>33.9833333</longitude>
  </city>
  <city name="Chapanza">
    <latitude>-13.7</latitude>
    <longitude>33.8166667</longitude>
  </city>
  <city name="Chapanzi">
    <latitude>-13.75</latitude>
    <longitude>32.85</longitude>
  </city>
  <city name="Chapasuka">
    <latitude>-12.2833333</latitude>
    <longitude>33.95</longitude>
  </city>
  <city name="Chapata">
    <latitude>-14.0666667</latitude>
    <longitude>33.8</longitude>
  </city>
  <city name="Chapendeha">
    <latitude>-14.1333333</latitude>
    <longitude>33.7166667</longitude>
  </city>
  <city name="Chapewa">
    <latitude>-13.9666667</latitude>
    <longitude>33.2166667</longitude>
  </city>
  <city name="Chapita">
    <latitude>-13.6833333</latitude>
    <longitude>33.2333333</longitude>
  </city>
  <city name="Chapola">
    <latitude>-14.2666667</latitude>
    <longitude>35.2333333</longitude>
  </city>
  <city name="Chapsinja">
    <latitude>-14.1666667</latitude>
    <longitude>33.7</longitude>
  </city>
  <city name="Chapu">
    <latitude>-17.0</latitude>
    <longitude>35.2833333</longitude>
  </city>
  <city name="Chapuma">
    <latitude>-13.4166667</latitude>
    <longitude>33.6</longitude>
  </city>
  <city name="Chapumbwa">
    <latitude>-11.6166667</latitude>
    <longitude>34.25</longitude>
  </city>
  <city name="Chapuwala">
    <latitude>-13.3166667</latitude>
    <longitude>33.55</longitude>
  </city>
  <city name="Chapwaitika">
    <latitude>-14.0833333</latitude>
    <longitude>33.8333333</longitude>
  </city>
  <city name="Charenga">
    <latitude>-13.9666667</latitude>
    <longitude>33.65</longitude>
  </city>
  <city name="Charinda">
    <latitude>-13.6166667</latitude>
    <longitude>33.3</longitude>
  </city>
  <city name="Chaseta">
    <latitude>-13.3</latitude>
    <longitude>33.9166667</longitude>
  </city>
  <city name="Chasowa">
    <latitude>-14.2</latitude>
    <longitude>33.6</longitude>
  </city>
  <city name="Chasuka">
    <latitude>-16.85</latitude>
    <longitude>35.3</longitude>
  </city>
  <city name="Chataghara Munthari">
    <latitude>-11.0166667</latitude>
    <longitude>34.1166667</longitude>
  </city>
  <city name="Chataika">
    <latitude>-16.9166667</latitude>
    <longitude>35.2666667</longitude>
  </city>
  <city name="Chatalala">
    <latitude>-13.3166667</latitude>
    <longitude>33.4833333</longitude>
  </city>
  <city name="Chatama">
    <latitude>-13.3333333</latitude>
    <longitude>33.7333333</longitude>
  </city>
  <city name="Chatambalala">
    <latitude>-13.6666667</latitude>
    <longitude>34.0166667</longitude>
  </city>
  <city name="Chatanga">
    <latitude>-13.65</latitude>
    <longitude>33.5166667</longitude>
  </city>
  <city name="Chateka Chipamphale">
    <latitude>-13.7666667</latitude>
    <longitude>33.35</longitude>
  </city>
  <city name="Chatewa">
    <latitude>-13.4</latitude>
    <longitude>33.7333333</longitude>
  </city>
  <city name="Chatile">
    <latitude>-13.4166667</latitude>
    <longitude>34.1</longitude>
  </city>
  <city name="Chatupa">
    <latitude>-11.85</latitude>
    <longitude>34.1666667</longitude>
  </city>
  <city name="Chautela">
    <latitude>-10.6666667</latitude>
    <longitude>34.0833333</longitude>
  </city>
  <city name="Chauwa">
    <latitude>-13.7333333</latitude>
    <longitude>33.9</longitude>
  </city>
  <city name="Chavara">
    <latitude>-15.8333333</latitude>
    <longitude>34.8333333</longitude>
  </city>
  <city name="Chavina">
    <latitude>-13.55</latitude>
    <longitude>33.3833333</longitude>
  </city>
  <city name="Chavukuka">
    <latitude>-11.65</latitude>
    <longitude>34.2166667</longitude>
  </city>
  <city name="Chavura">
    <latitude>-12.8166667</latitude>
    <longitude>33.6333333</longitude>
  </city>
  <city name="Chawala">
    <latitude>-14.2666667</latitude>
    <longitude>33.9</longitude>
  </city>
  <city name="Chawa Mvula">
    <latitude>-11.1833333</latitude>
    <longitude>33.5166667</longitude>
  </city>
  <city name="Chawanda">
    <latitude>-13.4333333</latitude>
    <longitude>33.9166667</longitude>
  </city>
  <city name="Chawanta">
    <latitude>-14.1166667</latitude>
    <longitude>33.35</longitude>
  </city>
  <city name="Chawesa">
    <latitude>-15.5333333</latitude>
    <longitude>35.5833333</longitude>
  </city>
  <city name="Chawosa">
    <latitude>-15.5333333</latitude>
    <longitude>35.5833333</longitude>
  </city>
  <city name="Chawuluma Jere">
    <latitude>-11.4833333</latitude>
    <longitude>33.7166667</longitude>
  </city>
  <city name="Chawuwa">
    <latitude>-16.2333333</latitude>
    <longitude>34.6666667</longitude>
  </city>
  <city name="Chazama">
    <latitude>-13.5666667</latitude>
    <longitude>33.9</longitude>
  </city>
  <city name="Chaziya">
    <latitude>-13.7166667</latitude>
    <longitude>33.55</longitude>
  </city>
  <city name="Chazuka">
    <latitude>-12.45</latitude>
    <longitude>34.1833333</longitude>
  </city>
  <city name="Checufikene">
    <latitude>-14.4</latitude>
    <longitude>34.2833333</longitude>
  </city>
  <city name="Checufikeni">
    <latitude>-14.4</latitude>
    <longitude>34.2833333</longitude>
  </city>
  <city name="Chelonga">
    <latitude>-10.45</latitude>
    <longitude>34.1666667</longitude>
  </city>
  <city name="Chembe">
    <latitude>-14.0166667</latitude>
    <longitude>34.85</longitude>
  </city>
  <city name="Chemlima">
    <latitude>-13.7666667</latitude>
    <longitude>34.4</longitude>
  </city>
  <city name="Chendo">
    <latitude>-9.8666667</latitude>
    <longitude>33.4</longitude>
  </city>
  <city name="Chenje">
    <latitude>-13.2</latitude>
    <longitude>33.7</longitude>
  </city>
  <city name="Chenyentha">
    <latitude>-11.8</latitude>
    <longitude>34.2</longitude>
  </city>
  <city name="Cherinda">
    <latitude>-13.7166667</latitude>
    <longitude>35.0833333</longitude>
  </city>
  <city name="Chesen">
    <latitude>-13.4333333</latitude>
    <longitude>33.7166667</longitude>
  </city>
  <city name="Chesenda">
    <latitude>-15.35</latitude>
    <longitude>35.4666667</longitude>
  </city>
  <city name="Chewe">
    <latitude>-9.5333333</latitude>
    <longitude>33.35</longitude>
  </city>
  <city name="Chewesa">
    <latitude>-13.25</latitude>
    <longitude>33.7833333</longitude>
  </city>
  <city name="Cheza">
    <latitude>-14.9333333</latitude>
    <longitude>34.8</longitude>
  </city>
  <city name="Chia">
    <latitude>-12.5333333</latitude>
    <longitude>34.1833333</longitude>
  </city>
  <city name="Chiam">
    <latitude>-14.3</latitude>
    <longitude>33.8333333</longitude>
  </city>
  <city name="Chibaka">
    <latitude>-11.65</latitude>
    <longitude>34.25</longitude>
  </city>
  <city name="Chibako">
    <latitude>-11.9666667</latitude>
    <longitude>34.0833333</longitude>
  </city>
  <city name="Chibamba">
    <latitude>-12.35</latitude>
    <longitude>33.6333333</longitude>
  </city>
  <city name="Chibara">
    <latitude>-12.0</latitude>
    <longitude>34.0666667</longitude>
  </city>
  <city name="Chibene">
    <latitude>-13.3833333</latitude>
    <longitude>33.9166667</longitude>
  </city>
  <city name="Chibeni">
    <latitude>-14.0333333</latitude>
    <longitude>33.85</longitude>
  </city>
  <city name="Chibisa">
    <latitude>-12.9833333</latitude>
    <longitude>33.45</longitude>
  </city>
  <city name="Chibisa Chirwa">
    <latitude>-11.6666667</latitude>
    <longitude>33.3166667</longitude>
  </city>
  <city name="Chiboko">
    <latitude>-12.8166667</latitude>
    <longitude>34.25</longitude>
  </city>
  <city name="Chibotero">
    <latitude>-13.2666667</latitude>
    <longitude>34.2833333</longitude>
  </city>
  <city name="Chibuli">
    <latitude>-17.1166667</latitude>
    <longitude>35.15</longitude>
  </city>
  <city name="Chibungo">
    <latitude>-13.7333333</latitude>
    <longitude>33.1166667</longitude>
  </city>
  <city name="Chibungu">
    <latitude>-13.9666667</latitude>
    <longitude>33.45</longitude>
  </city>
  <city name="Chibunyu">
    <latitude>-13.1333333</latitude>
    <longitude>33.45</longitude>
  </city>
  <city name="Chibwana">
    <latitude>-12.1666667</latitude>
    <longitude>33.6833333</longitude>
  </city>
  <city name="Chibwana Mgemezulu">
    <latitude>-11.9666667</latitude>
    <longitude>33.7166667</longitude>
  </city>
  <city name="Chibwana Mukhalipi">
    <latitude>-11.7166667</latitude>
    <longitude>33.3333333</longitude>
  </city>
  <city name="Chibwana Nyangu">
    <latitude>-11.6833333</latitude>
    <longitude>33.7333333</longitude>
  </city>
  <city name="Chibwanateka">
    <latitude>-13.25</latitude>
    <longitude>33.8</longitude>
  </city>
  <city name="Chibwinja">
    <latitude>-13.9333333</latitude>
    <longitude>33.9</longitude>
  </city>
  <city name="Chichiri">
    <latitude>-15.8</latitude>
    <longitude>35.05</longitude>
  </city>
  <city name="Chichitike">
    <latitude>-13.7</latitude>
    <longitude>33.3333333</longitude>
  </city>
  <city name="Chickalamba">
    <latitude>-11.0166667</latitude>
    <longitude>33.85</longitude>
  </city>
  <city name="Chickumbeni">
    <latitude>-15.4333333</latitude>
    <longitude>35.3</longitude>
  </city>
  <city name="Chico">
    <latitude>-13.4666667</latitude>
    <longitude>34.0166667</longitude>
  </city>
  <city name="Chicoleca">
    <latitude>-15.6666667</latitude>
    <longitude>34.4166667</longitude>
  </city>
  <city name="Chiculungueni">
    <latitude>-14.4666667</latitude>
    <longitude>34.0333333</longitude>
  </city>
  <city name="Chidakwende">
    <latitude>-13.3166667</latitude>
    <longitude>33.7166667</longitude>
  </city>
  <city name="Chidambo">
    <latitude>-13.3833333</latitude>
    <longitude>33.9833333</longitude>
  </city>
  <city name="Chidatha">
    <latitude>-13.35</latitude>
    <longitude>33.8333333</longitude>
  </city>
  <city name="Chiderezi">
    <latitude>-13.3</latitude>
    <longitude>33.2333333</longitude>
  </city>
  <city name="Chideru">
    <latitude>-11.5</latitude>
    <longitude>34.15</longitude>
  </city>
  <city name="Chidikha">
    <latitude>-16.9</latitude>
    <longitude>35.1833333</longitude>
  </city>
  <city name="Chidiwo">
    <latitude>-10.6666667</latitude>
    <longitude>34.0833333</longitude>
  </city>
  <city name="Chidote">
    <latitude>-15.4666667</latitude>
    <longitude>35.2833333</longitude>
  </city>
  <city name="Chidothe">
    <latitude>-15.4333333</latitude>
    <longitude>35.2833333</longitude>
  </city>
  <city name="Chidothi">
    <latitude>-13.6666667</latitude>
    <longitude>34.1333333</longitude>
  </city>
  <city name="Chidumayo">
    <latitude>-11.5333333</latitude>
    <longitude>33.5666667</longitude>
  </city>
  <city name="Chidumayo Lusale">
    <latitude>-11.75</latitude>
    <longitude>33.7</longitude>
  </city>
  <city name="Chidumayo Nguruwe">
    <latitude>-11.5</latitude>
    <longitude>33.5666667</longitude>
  </city>
  <city name="Chidyaonga">
    <latitude>-15.4833333</latitude>
    <longitude>35.3166667</longitude>
  </city>
  <city name="Chidzunda">
    <latitude>-13.7166667</latitude>
    <longitude>33.55</longitude>
  </city>
  <city name="Chiembekeza">
    <latitude>-15.3166667</latitude>
    <longitude>34.6</longitude>
  </city>
  <city name="Chiendausiku">
    <latitude>-15.0166667</latitude>
    <longitude>35.0666667</longitude>
  </city>
  <city name="Chifipo">
    <latitude>-13.35</latitude>
    <longitude>33.1333333</longitude>
  </city>
  <city name="Chifisa">
    <latitude>-13.1666667</latitude>
    <longitude>33.85</longitude>
  </city>
  <city name="Chifomboti">
    <latitude>-13.55</latitude>
    <longitude>33.2333333</longitude>
  </city>
  <city name="Chifuwa">
    <latitude>-11.2833333</latitude>
    <longitude>33.7666667</longitude>
  </city>
  <city name="Chifya Kandulu Chibere">
    <latitude>-11.7</latitude>
    <longitude>34.3166667</longitude>
  </city>
  <city name="Chigadula">
    <latitude>-12.2833333</latitude>
    <longitude>34.0333333</longitude>
  </city>
  <city name="Chigamba">
    <latitude>-13.5833333</latitude>
    <longitude>34.0333333</longitude>
  </city>
  <city name="Chiganda">
    <latitude>-13.55</latitude>
    <longitude>33.9333333</longitude>
  </city>
  <city name="Chigaru">
    <latitude>-15.3666667</latitude>
    <longitude>34.9333333</longitude>
  </city>
  <city name="Chigaule">
    <latitude>-12.2166667</latitude>
    <longitude>33.55</longitude>
  </city>
  <city name="Chigawa">
    <latitude>-13.7</latitude>
    <longitude>33.8833333</longitude>
  </city>
  <city name="Chighachangombe">
    <latitude>-11.6</latitude>
    <longitude>34.25</longitude>
  </city>
  <city name="Chigoma">
    <latitude>-13.4166667</latitude>
    <longitude>33.5666667</longitude>
  </city>
  <city name="Chigoneka">
    <latitude>-13.95</latitude>
    <longitude>33.75</longitude>
  </city>
  <city name="Chigude">
    <latitude>-12.2666667</latitude>
    <longitude>33.5833333</longitude>
  </city>
  <city name="Chiguluwindi">
    <latitude>-12.1</latitude>
    <longitude>34.7333333</longitude>
  </city>
  <city name="Chigwata">
    <latitude>-16.0166667</latitude>
    <longitude>34.5</longitude>
  </city>
  <city name="Chigwere">
    <latitude>-11.3666667</latitude>
    <longitude>34.0833333</longitude>
  </city>
  <city name="Chijere">
    <latitude>-11.5333333</latitude>
    <longitude>34.1166667</longitude>
  </city>
  <city name="Chikabwereza">
    <latitude>-15.3833333</latitude>
    <longitude>35.4166667</longitude>
  </city>
  <city name="Chika">
    <latitude>-13.2833333</latitude>
    <longitude>33.55</longitude>
  </city>
  <city name="Chikadya">
    <latitude>-14.6333333</latitude>
    <longitude>34.7833333</longitude>
  </city>
  <city name="Chikalema">
    <latitude>-15.4333333</latitude>
    <longitude>34.5666667</longitude>
  </city>
  <city name="Chikalipo">
    <latitude>-13.15</latitude>
    <longitude>33.65</longitude>
  </city>
  <city name="Chikanda">
    <latitude>-13.1166667</latitude>
    <longitude>33.7333333</longitude>
  </city>
  <city name="Chikandira">
    <latitude>-14.3333333</latitude>
    <longitude>33.85</longitude>
  </city>
  <city name="Chikanga">
    <latitude>-11.0333333</latitude>
    <longitude>34.0166667</longitude>
  </city>
  <city name="Chikangawa">
    <latitude>-11.8333333</latitude>
    <longitude>33.8</longitude>
  </city>
  <city name="Chikanje">
    <latitude>-12.4833333</latitude>
    <longitude>34.0833333</longitude>
  </city>
  <city name="Chikao">
    <latitude>-16.7666667</latitude>
    <longitude>35.2833333</longitude>
  </city>
  <city name="Chikaola">
    <latitude>-13.65</latitude>
    <longitude>34.3166667</longitude>
  </city>
  <city name="Chikapu Moyo">
    <latitude>-11.8333333</latitude>
    <longitude>33.35</longitude>
  </city>
  <city name="Chikasauka">
    <latitude>-13.4166667</latitude>
    <longitude>33.7166667</longitude>
  </city>
  <city name="Chikaso">
    <latitude>-13.7</latitude>
    <longitude>33.05</longitude>
  </city>
  <city name="Chikhadwe">
    <latitude>-13.75</latitude>
    <longitude>33.8166667</longitude>
  </city>
  <city name="Chikhangombe">
    <latitude>-12.9</latitude>
    <longitude>33.85</longitude>
  </city>
  <city name="Chikhawo">
    <latitude>-16.7666667</latitude>
    <longitude>35.2833333</longitude>
  </city>
  <city name="Chikho">
    <latitude>-13.3833333</latitude>
    <longitude>34.0833333</longitude>
  </city>
  <city name="Chikhoko">
    <latitude>-11.9</latitude>
    <longitude>34.1666667</longitude>
  </city>
  <city name="Chikhu">
    <latitude>-13.5333333</latitude>
    <longitude>34.3833333</longitude>
  </city>
  <city name="Chikhumbi">
    <latitude>-12.35</latitude>
    <longitude>33.6833333</longitude>
  </city>
  <city name="Chikhungwa">
    <latitude>-13.4</latitude>
    <longitude>33.85</longitude>
  </city>
  <city name="Chikhuta">
    <latitude>-13.7333333</latitude>
    <longitude>33.6666667</longitude>
  </city>
  <city name="Chikhwakhwa">
    <latitude>-13.4</latitude>
    <longitude>33.8</longitude>
  </city>
  <city name="Chikiwowe">
    <latitude>-13.1333333</latitude>
    <longitude>34.2833333</longitude>
  </city>
  <city name="Chikobwi">
    <latitude>-13.4</latitude>
    <longitude>33.7</longitude>
  </city>
  <city name="Chikojo">
    <latitude>-14.7166667</latitude>
    <longitude>35.6166667</longitude>
  </city>
  <city name="Chikoko">
    <latitude>-13.4833333</latitude>
    <longitude>33.4</longitude>
  </city>
  <city name="Chikoli">
    <latitude>-12.0666667</latitude>
    <longitude>34.7333333</longitude>
  </city>
  <city name="Chikomakuka">
    <latitude>-13.4333333</latitude>
    <longitude>33.6833333</longitude>
  </city>
  <city name="Chikoma Nyanjala">
    <latitude>-11.3333333</latitude>
    <longitude>33.4166667</longitude>
  </city>
  <city name="Chikombe">
    <latitude>-12.8333333</latitude>
    <longitude>34.2166667</longitude>
  </city>
  <city name="Chikombwe">
    <latitude>-9.6166667</latitude>
    <longitude>33.4</longitude>
  </city>
  <city name="Chikombwi">
    <latitude>-9.6166667</latitude>
    <longitude>33.4</longitude>
  </city>
  <city name="Chikomeni Thore">
    <latitude>-12.0666667</latitude>
    <longitude>33.55</longitude>
  </city>
  <city name="Chikondawanga">
    <latitude>-11.5333333</latitude>
    <longitude>34.1333333</longitude>
  </city>
  <city name="Chikondawanga Lusale">
    <latitude>-12.0</latitude>
    <longitude>33.5833333</longitude>
  </city>
  <city name="Chikonde">
    <latitude>-13.75</latitude>
    <longitude>33.7333333</longitude>
  </city>
  <city name="Chikoti">
    <latitude>-13.5333333</latitude>
    <longitude>33.2</longitude>
  </city>
  <city name="Chikowanje">
    <latitude>-14.6</latitude>
    <longitude>35.4666667</longitude>
  </city>
  <city name="Chikowi">
    <latitude>-15.4166667</latitude>
    <longitude>35.3</longitude>
  </city>
  <city name="Chikudzu">
    <latitude>-13.45</latitude>
    <longitude>33.6333333</longitude>
  </city>
  <city name="Chikulu">
    <latitude>-13.2666667</latitude>
    <longitude>33.7</longitude>
  </city>
  <city name="Chikuluma">
    <latitude>-14.7333333</latitude>
    <longitude>35.3333333</longitude>
  </city>
  <city name="Chikumba">
    <latitude>-14.7666667</latitude>
    <longitude>35.8166667</longitude>
  </city>
  <city name="Chikumbu">
    <latitude>-15.4666667</latitude>
    <longitude>35.35</longitude>
  </city>
  <city name="Chikungu">
    <latitude>-16.1</latitude>
    <longitude>34.5666667</longitude>
  </city>
  <city name="Chikunguntheni">
    <latitude>-12.9</latitude>
    <longitude>33.8333333</longitude>
  </city>
  <city name="Chikuni">
    <latitude>-12.1166667</latitude>
    <longitude>33.8833333</longitude>
  </city>
  <city name="Chikunumbu">
    <latitude>-13.3166667</latitude>
    <longitude>34.1</longitude>
  </city>
  <city name="Chikusa">
    <latitude>-13.8666667</latitude>
    <longitude>33.3666667</longitude>
  </city>
  <city name="Chikuta">
    <latitude>-13.8833333</latitude>
    <longitude>33.1333333</longitude>
  </city>
  <city name="Chikute">
    <latitude>-13.5666667</latitude>
    <longitude>32.8166667</longitude>
  </city>
  <city name="Chikuwangoma">
    <latitude>-11.2833333</latitude>
    <longitude>34.2166667</longitude>
  </city>
  <city name="Chikuwita">
    <latitude>-14.8666667</latitude>
    <longitude>35.6666667</longitude>
  </city>
  <city name="Chikuzulira">
    <latitude>-13.95</latitude>
    <longitude>33.3666667</longitude>
  </city>
  <city name="Chikuzulire">
    <latitude>-13.9666667</latitude>
    <longitude>33.4</longitude>
  </city>
  <city name="Chikwakwa">
    <latitude>-13.1666667</latitude>
    <longitude>33.7</longitude>
  </city>
  <city name="Chikwawa">
    <latitude>-16.05</latitude>
    <longitude>34.8</longitude>
  </city>
  <city name="Chikwawe">
    <latitude>-13.4833333</latitude>
    <longitude>33.95</longitude>
  </city>
  <city name="Chikwawi">
    <latitude>-13.4333333</latitude>
    <longitude>33.6</longitude>
  </city>
  <city name="Chikweo">
    <latitude>-14.7666667</latitude>
    <longitude>35.65</longitude>
  </city>
  <city name="Chikwewo">
    <latitude>-14.7666667</latitude>
    <longitude>35.65</longitude>
  </city>
  <city name="Chikweze">
    <latitude>-12.7666667</latitude>
    <longitude>33.5166667</longitude>
  </city>
  <city name="Chikwina">
    <latitude>-11.4</latitude>
    <longitude>34.1666667</longitude>
  </city>
  <city name="Chiladzulo">
    <latitude>-14.9166667</latitude>
    <longitude>34.9666667</longitude>
  </city>
  <city name="Chilala">
    <latitude>-14.9166667</latitude>
    <longitude>35.5333333</longitude>
  </city>
  <city name="Chilambe">
    <latitude>-15.2833333</latitude>
    <longitude>35.4333333</longitude>
  </city>
  <city name="Chilando">
    <latitude>-13.7</latitude>
    <longitude>33.7666667</longitude>
  </city>
  <city name="Chilanga">
    <latitude>-13.0166667</latitude>
    <longitude>33.5</longitude>
  </city>
  <city name="Chilasa">
    <latitude>-13.3</latitude>
    <longitude>33.8833333</longitude>
  </city>
  <city name="Chilawa">
    <latitude>-13.4666667</latitude>
    <longitude>33.6333333</longitude>
  </city>
  <city name="Chilawo Banda">
    <latitude>-12.4</latitude>
    <longitude>33.7666667</longitude>
  </city>
  <city name="Chilawo">
    <latitude>-12.35</latitude>
    <longitude>33.6666667</longitude>
  </city>
  <city name="Chileka">
    <latitude>-15.9833333</latitude>
    <longitude>34.4333333</longitude>
  </city>
  <city name="Chilemba">
    <latitude>-14.75</latitude>
    <longitude>35.3333333</longitude>
  </city>
  <city name="Chilembwe">
    <latitude>-14.1666667</latitude>
    <longitude>33.9</longitude>
  </city>
  <city name="Chilemele">
    <latitude>-15.4</latitude>
    <longitude>35.3333333</longitude>
  </city>
  <city name="Chilenga">
    <latitude>-13.85</latitude>
    <longitude>33.2333333</longitude>
  </city>
  <city name="Chilibuno">
    <latitude>-12.8666667</latitude>
    <longitude>34.2166667</longitude>
  </city>
  <city name="Chilikumwendo">
    <latitude>-14.2166667</latitude>
    <longitude>33.95</longitude>
  </city>
  <city name="Chilima">
    <latitude>-13.8</latitude>
    <longitude>34.1166667</longitude>
  </city>
  <city name="Chilimang'ombe">
    <latitude>-14.05</latitude>
    <longitude>33.9666667</longitude>
  </city>
  <city name="Chilimani">
    <latitude>-15.35</latitude>
    <longitude>35.45</longitude>
  </city>
  <city name="Chilimba">
    <latitude>-15.35</latitude>
    <longitude>35.3833333</longitude>
  </city>
  <city name="Chilinde">
    <latitude>-13.9833333</latitude>
    <longitude>33.8</longitude>
  </city>
  <city name="Chilindira">
    <latitude>-13.1166667</latitude>
    <longitude>33.6</longitude>
  </city>
  <city name="Chilingi">
    <latitude>-9.55</latitude>
    <longitude>33.0333333</longitude>
  </city>
  <city name="Chilinkoli">
    <latitude>-13.3333333</latitude>
    <longitude>33.4666667</longitude>
  </city>
  <city name="Chilipa">
    <latitude>-14.7</latitude>
    <longitude>34.9666667</longitude>
  </city>
  <city name="Chiloa">
    <latitude>-13.1</latitude>
    <longitude>33.5</longitude>
  </city>
  <city name="Chiloa Matambe">
    <latitude>-13.0833333</latitude>
    <longitude>33.5166667</longitude>
  </city>
  <city name="Chiloa Nyilonga">
    <latitude>-13.1</latitude>
    <longitude>33.5</longitude>
  </city>
  <city name="Chilolo">
    <latitude>-13.4166667</latitude>
    <longitude>33.5833333</longitude>
  </city>
  <city name="Chilombo">
    <latitude>-15.4833333</latitude>
    <longitude>35.3333333</longitude>
  </city>
  <city name="Chilonga">
    <latitude>-13.6666667</latitude>
    <longitude>33.5166667</longitude>
  </city>
  <city name="Chilonja">
    <latitude>-13.7166667</latitude>
    <longitude>33.05</longitude>
  </city>
  <city name="Chilonje">
    <latitude>-13.3333333</latitude>
    <longitude>33.85</longitude>
  </city>
  <city name="Chilooka">
    <latitude>-13.2666667</latitude>
    <longitude>33.8833333</longitude>
  </city>
  <city name="Chilooku">
    <latitude>-13.15</latitude>
    <longitude>33.8333333</longitude>
  </city>
  <city name="Chilopola">
    <latitude>-13.4166667</latitude>
    <longitude>33.95</longitude>
  </city>
  <city name="Chilowa">
    <latitude>-14.1666667</latitude>
    <longitude>33.8</longitude>
  </city>
  <city name="Chilumba">
    <latitude>-10.45</latitude>
    <longitude>34.2666667</longitude>
  </city>
  <city name="Chilundu">
    <latitude>-13.9</latitude>
    <longitude>33.1666667</longitude>
  </city>
  <city name="Chilunga">
    <latitude>-15.4333333</latitude>
    <longitude>35.4666667</longitude>
  </city>
  <city name="Chilungu">
    <latitude>-13.9</latitude>
    <longitude>33.1666667</longitude>
  </city>
  <city name="Chilusi">
    <latitude>-13.6833333</latitude>
    <longitude>33.7833333</longitude>
  </city>
  <city name="Chiluvya">
    <latitude>-12.3333333</latitude>
    <longitude>34.05</longitude>
  </city>
  <city name="Chima">
    <latitude>-13.1166667</latitude>
    <longitude>33.7166667</longitude>
  </city>
  <city name="Chimala">
    <latitude>-14.7</latitude>
    <longitude>35.6</longitude>
  </city>
  <city name="Chimamba">
    <latitude>-13.3666667</latitude>
    <longitude>33.5833333</longitude>
  </city>
  <city name="Chimambo">
    <latitude>-13.65</latitude>
    <longitude>33.4666667</longitude>
  </city>
  <city name="Chimanda">
    <latitude>-14.6833333</latitude>
    <longitude>35.85</longitude>
  </city>
  <city name="Chimango">
    <latitude>-14.1666667</latitude>
    <longitude>33.9666667</longitude>
  </city>
  <city name="Chimbadzo">
    <latitude>-13.8166667</latitude>
    <longitude>33.0</longitude>
  </city>
  <city name="Chimbaka">
    <latitude>-13.6333333</latitude>
    <longitude>33.3</longitude>
  </city>
  <city name="Chimbala">
    <latitude>-13.7</latitude>
    <longitude>34.3166667</longitude>
  </city>
  <city name="Chimbalanga">
    <latitude>-13.3166667</latitude>
    <longitude>34.0833333</longitude>
  </city>
  <city name="Chimbalenga">
    <latitude>-15.55</latitude>
    <longitude>35.7833333</longitude>
  </city>
  <city name="Chimbalu">
    <latitude>-13.7</latitude>
    <longitude>33.6</longitude>
  </city>
  <city name="Chimbano">
    <latitude>-11.9166667</latitude>
    <longitude>34.1666667</longitude>
  </city>
  <city name="Chimbaru">
    <latitude>-12.4833333</latitude>
    <longitude>33.9666667</longitude>
  </city>
  <city name="Chimbembe">
    <latitude>-16.45</latitude>
    <longitude>34.8833333</longitude>
  </city>
  <city name="Chimbete">
    <latitude>-13.5666667</latitude>
    <longitude>34.0166667</longitude>
  </city>
  <city name="Chimbia">
    <latitude>-15.0833333</latitude>
    <longitude>34.5833333</longitude>
  </city>
  <city name="Chimbila">
    <latitude>-14.6166667</latitude>
    <longitude>35.8166667</longitude>
  </city>
  <city name="Chimbindu">
    <latitude>-13.3666667</latitude>
    <longitude>34.1166667</longitude>
  </city>
  <city name="Chimbobo">
    <latitude>-13.6166667</latitude>
    <longitude>33.35</longitude>
  </city>
  <city name="Chimbonga">
    <latitude>-13.0333333</latitude>
    <longitude>33.7833333</longitude>
  </city>
  <city name="Chimboyera">
    <latitude>-11.4666667</latitude>
    <longitude>33.8</longitude>
  </city>
  <city name="Chimbuli">
    <latitude>-13.6333333</latitude>
    <longitude>33.6166667</longitude>
  </city>
  <city name="Chimbumbuka">
    <latitude>-12.6</latitude>
    <longitude>34.1666667</longitude>
  </city>
  <city name="Chimbumbuli">
    <latitude>-14.3666667</latitude>
    <longitude>35.5</longitude>
  </city>
  <city name="Chimbuto">
    <latitude>-12.9333333</latitude>
    <longitude>34.2166667</longitude>
  </city>
  <city name="Chimbwanda">
    <latitude>-13.3333333</latitude>
    <longitude>33.9333333</longitude>
  </city>
  <city name="Chimbwanya">
    <latitude>-14.9833333</latitude>
    <longitude>35.5833333</longitude>
  </city>
  <city name="Chimbwinda">
    <latitude>-15.7166667</latitude>
    <longitude>34.5</longitude>
  </city>
  <city name="Chimdima Mhango">
    <latitude>-11.3833333</latitude>
    <longitude>33.6833333</longitude>
  </city>
  <city name="Chimelango">
    <latitude>-15.65</latitude>
    <longitude>34.4333333</longitude>
  </city>
  <city name="Chimelela">
    <latitude>-13.2833333</latitude>
    <longitude>33.35</longitude>
  </city>
  <city name="Chimenya">
    <latitude>-12.4333333</latitude>
    <longitude>33.5333333</longitude>
  </city>
  <city name="Chimesya">
    <latitude>-14.75</latitude>
    <longitude>35.3666667</longitude>
  </city>
  <city name="Chimgonda">
    <latitude>-12.2166667</latitude>
    <longitude>34.0</longitude>
  </city>
  <city name="Chimimba">
    <latitude>-13.7166667</latitude>
    <longitude>33.4</longitude>
  </city>
  <city name="Chimji">
    <latitude>-13.8</latitude>
    <longitude>32.9</longitude>
  </city>
  <city name="Chimkoka">
    <latitude>-12.9</latitude>
    <longitude>33.7</longitude>
  </city>
  <city name="Chimkoko">
    <latitude>-13.7</latitude>
    <longitude>33.6</longitude>
  </city>
  <city name="Chimkusa">
    <latitude>-12.25</latitude>
    <longitude>33.5333333</longitude>
  </city>
  <city name="Chimndulu">
    <latitude>-13.1333333</latitude>
    <longitude>33.6333333</longitude>
  </city>
  <city name="Chimombi">
    <latitude>-16.9166667</latitude>
    <longitude>35.2666667</longitude>
  </city>
  <city name="Chimombo">
    <latitude>-13.55</latitude>
    <longitude>33.8833333</longitude>
  </city>
  <city name="Chimono">
    <latitude>-13.9333333</latitude>
    <longitude>33.35</longitude>
  </city>
  <city name="Chimozimozi Banda">
    <latitude>-11.5833333</latitude>
    <longitude>33.4666667</longitude>
  </city>
  <city name="Chimpala">
    <latitude>-13.6833333</latitude>
    <longitude>34.0333333</longitude>
  </city>
  <city name="Chimpamba">
    <latitude>-13.0666667</latitude>
    <longitude>33.5833333</longitude>
  </city>
  <city name="Chimpambana">
    <latitude>-16.4666667</latitude>
    <longitude>34.9</longitude>
  </city>
  <city name="Chimpando">
    <latitude>-14.2</latitude>
    <longitude>34.2833333</longitude>
  </city>
  <city name="Chimpangu">
    <latitude>-14.1166667</latitude>
    <longitude>33.4833333</longitude>
  </city>
  <city name="Chimpanzi">
    <latitude>-15.4833333</latitude>
    <longitude>34.6333333</longitude>
  </city>
  <city name="Chimpeni">
    <latitude>-13.9333333</latitude>
    <longitude>33.4333333</longitude>
  </city>
  <city name="Chimpere">
    <latitude>-13.15</latitude>
    <longitude>33.8833333</longitude>
  </city>
  <city name="Chimphanga">
    <latitude>-13.5</latitude>
    <longitude>34.3333333</longitude>
  </city>
  <city name="Chimphepo">
    <latitude>-13.05</latitude>
    <longitude>33.6833333</longitude>
  </city>
  <city name="Chimphithi">
    <latitude>-13.1833333</latitude>
    <longitude>33.6833333</longitude>
  </city>
  <city name="Chimpipo">
    <latitude>-13.3166667</latitude>
    <longitude>33.8</longitude>
  </city>
  <city name="Chimponda">
    <latitude>-13.2</latitude>
    <longitude>33.7666667</longitude>
  </city>
  <city name="Chimptsolo">
    <latitude>-13.65</latitude>
    <longitude>33.5333333</longitude>
  </city>
  <city name="Chimsewenzo">
    <latitude>-12.1166667</latitude>
    <longitude>33.3833333</longitude>
  </city>
  <city name="Chimsoro Jere">
    <latitude>-12.3</latitude>
    <longitude>33.5333333</longitude>
  </city>
  <city name="Chimtembo">
    <latitude>-12.1666667</latitude>
    <longitude>33.8166667</longitude>
  </city>
  <city name="Chimubve">
    <latitude>-13.7666667</latitude>
    <longitude>34.3666667</longitude>
  </city>
  <city name="Chimura">
    <latitude>-12.4833333</latitude>
    <longitude>33.9666667</longitude>
  </city>
  <city name="Chimute">
    <latitude>-13.8</latitude>
    <longitude>32.95</longitude>
  </city>
  <city name="Chimutha">
    <latitude>-12.8833333</latitude>
    <longitude>33.8333333</longitude>
  </city>
  <city name="Chimuti">
    <latitude>-13.7333333</latitude>
    <longitude>33.05</longitude>
  </city>
  <city name="Chimutu">
    <latitude>-13.85</latitude>
    <longitude>33.9166667</longitude>
  </city>
  <city name="Chimwala">
    <latitude>-13.6666667</latitude>
    <longitude>33.8166667</longitude>
  </city>
  <city name="Chimwara">
    <latitude>-13.3</latitude>
    <longitude>33.4833333</longitude>
  </city>
  <city name="Chimwaye">
    <latitude>-13.1666667</latitude>
    <longitude>33.5666667</longitude>
  </city>
  <city name="Chimwembe">
    <latitude>-13.4666667</latitude>
    <longitude>32.85</longitude>
  </city>
  <city name="Chimwendo">
    <latitude>-12.9333333</latitude>
    <longitude>33.4833333</longitude>
  </city>
  <city name="Chimwere">
    <latitude>-13.6833333</latitude>
    <longitude>33.85</longitude>
  </city>
  <city name="Chimwesya">
    <latitude>-14.75</latitude>
    <longitude>35.3666667</longitude>
  </city>
  <city name="Chimweyo">
    <latitude>-12.25</latitude>
    <longitude>34.0166667</longitude>
  </city>
  <city name="Chimzinga">
    <latitude>-12.55</latitude>
    <longitude>33.4166667</longitude>
  </city>
  <city name="Chimzu">
    <latitude>-13.7</latitude>
    <longitude>33.4666667</longitude>
  </city>
  <city name="China">
    <latitude>-12.5666667</latitude>
    <longitude>33.3166667</longitude>
  </city>
  <city name="Chinamule">
    <latitude>-13.3166667</latitude>
    <longitude>33.4333333</longitude>
  </city>
  <city name="Chinavinga">
    <latitude>-13.65</latitude>
    <longitude>33.6</longitude>
  </city>
  <city name="Chinchere">
    <latitude>-14.15</latitude>
    <longitude>33.9833333</longitude>
  </city>
  <city name="Chindamba">
    <latitude>-14.85</latitude>
    <longitude>35.6</longitude>
  </city>
  <city name="Chindambo">
    <latitude>-15.4666667</latitude>
    <longitude>35.2833333</longitude>
  </city>
  <city name="Chindano Village">
    <latitude>-11.9166667</latitude>
    <longitude>34.1666667</longitude>
  </city>
  <city name="Chinde">
    <latitude>-11.45</latitude>
    <longitude>33.4166667</longitude>
  </city>
  <city name="Chindevu">
    <latitude>-11.6</latitude>
    <longitude>34.0666667</longitude>
  </city>
  <city name="Chindi Jere">
    <latitude>-11.45</latitude>
    <longitude>33.4166667</longitude>
  </city>
  <city name="Chindoka">
    <latitude>-12.2833333</latitude>
    <longitude>33.5666667</longitude>
  </city>
  <city name="Chindozwa">
    <latitude>-11.6</latitude>
    <longitude>34.3</longitude>
  </city>
  <city name="Chindungwa">
    <latitude>-13.8166667</latitude>
    <longitude>34.4833333</longitude>
  </city>
  <city name="Chindura">
    <latitude>-13.65</latitude>
    <longitude>33.9333333</longitude>
  </city>
  <city name="Chinduta">
    <latitude>-13.2333333</latitude>
    <longitude>33.55</longitude>
  </city>
  <city name="Chinduwe">
    <latitude>-13.1166667</latitude>
    <longitude>33.4666667</longitude>
  </city>
  <city name="Chinemba">
    <latitude>-13.05</latitude>
    <longitude>33.6666667</longitude>
  </city>
  <city name="Chineusa">
    <latitude>-13.85</latitude>
    <longitude>33.0166667</longitude>
  </city>
  <city name="Chineusi">
    <latitude>-13.85</latitude>
    <longitude>33.0166667</longitude>
  </city>
  <city name="Chingalande">
    <latitude>-13.7166667</latitude>
    <longitude>33.5166667</longitude>
  </city>
  <city name="Chingalanganda">
    <latitude>-15.4166667</latitude>
    <longitude>35.3</longitude>
  </city>
  <city name="Chingali">
    <latitude>-13.6833333</latitude>
    <longitude>33.7666667</longitude>
  </city>
  <city name="Chingaliwa">
    <latitude>-11.6833333</latitude>
    <longitude>34.3166667</longitude>
  </city>
  <city name="Chin'gamba">
    <latitude>-14.6166667</latitude>
    <longitude>34.75</longitude>
  </city>
  <city name="Chingamba">
    <latitude>-13.1333333</latitude>
    <longitude>33.9333333</longitude>
  </city>
  <city name="Chinganga">
    <latitude>-13.8166667</latitude>
    <longitude>33.3333333</longitude>
  </city>
  <city name="Chinganya">
    <latitude>-11.7</latitude>
    <longitude>34.2666667</longitude>
  </city>
  <city name="Chinganyama">
    <latitude>-13.6666667</latitude>
    <longitude>33.6333333</longitude>
  </city>
  <city name="Chingazi">
    <latitude>-16.1833333</latitude>
    <longitude>35.1</longitude>
  </city>
  <city name="Chingelezi Mithi">
    <latitude>-11.1333333</latitude>
    <longitude>33.8666667</longitude>
  </city>
  <city name="Chingeni">
    <latitude>-14.95</latitude>
    <longitude>34.9</longitude>
  </city>
  <city name="Chingila">
    <latitude>-13.9666667</latitude>
    <longitude>33.9</longitude>
  </city>
  <city name="Chingole">
    <latitude>-13.1833333</latitude>
    <longitude>34.3333333</longitude>
  </city>
  <city name="Chingoma">
    <latitude>-13.4166667</latitude>
    <longitude>33.7</longitude>
  </city>
  <city name="Ching'oma">
    <latitude>-14.9166667</latitude>
    <longitude>35.5833333</longitude>
  </city>
  <city name="Chingombe">
    <latitude>-13.6</latitude>
    <longitude>33.9</longitude>
  </city>
  <city name="Chinguo">
    <latitude>-13.4166667</latitude>
    <longitude>33.6666667</longitude>
  </city>
  <city name="Chinguwi">
    <latitude>-13.7166667</latitude>
    <longitude>33.3666667</longitude>
  </city>
  <city name="Chinguwo">
    <latitude>-14.0833333</latitude>
    <longitude>34.0166667</longitude>
  </city>
  <city name="Chinguza">
    <latitude>-14.9666667</latitude>
    <longitude>35.85</longitude>
  </city>
  <city name="Chinjoka">
    <latitude>-12.1333333</latitude>
    <longitude>33.6333333</longitude>
  </city>
  <city name="Chinkala">
    <latitude>-13.3833333</latitude>
    <longitude>33.7666667</longitude>
  </city>
  <city name="Chinkande">
    <latitude>-13.4</latitude>
    <longitude>33.9333333</longitude>
  </city>
  <city name="Chinkata">
    <latitude>-13.65</latitude>
    <longitude>33.9</longitude>
  </city>
  <city name="Chinkhoma">
    <latitude>-13.2166667</latitude>
    <longitude>33.5166667</longitude>
  </city>
  <city name="Chinkhota">
    <latitude>-13.65</latitude>
    <longitude>33.9</longitude>
  </city>
  <city name="Chinkhowoli">
    <latitude>-11.15</latitude>
    <longitude>34.1833333</longitude>
  </city>
  <city name="Chinkhwazara">
    <latitude>-11.05</latitude>
    <longitude>34.2166667</longitude>
  </city>
  <city name="Chinkoole">
    <latitude>-11.15</latitude>
    <longitude>34.2166667</longitude>
  </city>
  <city name="Chinkota">
    <latitude>-13.75</latitude>
    <longitude>33.7666667</longitude>
  </city>
  <city name="Chinku">
    <latitude>-14.3833333</latitude>
    <longitude>34.0166667</longitude>
  </city>
  <city name="Chinkunda">
    <latitude>-14.0333333</latitude>
    <longitude>33.4833333</longitude>
  </city>
  <city name="Chinkuyu">
    <latitude>-14.0666667</latitude>
    <longitude>33.4166667</longitude>
  </city>
  <city name="Chinkwangula">
    <latitude>-13.3833333</latitude>
    <longitude>33.5666667</longitude>
  </city>
  <city name="Chinkwiri">
    <latitude>-13.3666667</latitude>
    <longitude>33.75</longitude>
  </city>
  <city name="Chinkwita">
    <latitude>-14.3</latitude>
    <longitude>34.4166667</longitude>
  </city>
  <city name="Chinombo Chaya">
    <latitude>-11.95</latitude>
    <longitude>33.6</longitude>
  </city>
  <city name="Chinombo">
    <latitude>-11.3333333</latitude>
    <longitude>33.85</longitude>
  </city>
  <city name="Chinombo Shonga">
    <latitude>-11.3166667</latitude>
    <longitude>33.8833333</longitude>
  </city>
  <city name="Chinsamba">
    <latitude>-14.0166667</latitude>
    <longitude>33.8</longitude>
  </city>
  <city name="Chinsasa">
    <latitude>-13.5333333</latitude>
    <longitude>33.4666667</longitude>
  </city>
  <city name="Chinsowa">
    <latitude>-13.0666667</latitude>
    <longitude>33.6333333</longitude>
  </city>
  <city name="Chinsunche">
    <latitude>-13.7</latitude>
    <longitude>33.4666667</longitude>
  </city>
  <city name="Chintamtumba">
    <latitude>-13.3166667</latitude>
    <longitude>33.7833333</longitude>
  </city>
  <city name="Chintanzi">
    <latitude>-13.7333333</latitude>
    <longitude>32.9666667</longitude>
  </city>
  <city name="Chinteche">
    <latitude>-11.8333333</latitude>
    <longitude>34.1666667</longitude>
  </city>
  <city name="Chintechi">
    <latitude>-11.8333333</latitude>
    <longitude>34.1666667</longitude>
  </city>
  <city name="Chinteji">
    <latitude>-11.8333333</latitude>
    <longitude>34.1666667</longitude>
  </city>
  <city name="Chinthankhwa">
    <latitude>-14.3</latitude>
    <longitude>33.9166667</longitude>
  </city>
  <city name="Chintheche">
    <latitude>-11.8333333</latitude>
    <longitude>34.1666667</longitude>
  </city>
  <city name="Chinthuta">
    <latitude>-13.7</latitude>
    <longitude>33.4166667</longitude>
  </city>
  <city name="Chintoto">
    <latitude>-13.6666667</latitude>
    <longitude>33.35</longitude>
  </city>
  <city name="Chintumbila">
    <latitude>-13.7166667</latitude>
    <longitude>33.1333333</longitude>
  </city>
  <city name="Chintuntha">
    <latitude>-14.1666667</latitude>
    <longitude>33.7</longitude>
  </city>
  <city name="Chinunda">
    <latitude>-13.6666667</latitude>
    <longitude>32.9166667</longitude>
  </city>
  <city name="Chinunka">
    <latitude>-9.65</latitude>
    <longitude>33.3666667</longitude>
  </city>
  <city name="Chinvama">
    <latitude>-13.7</latitude>
    <longitude>33.8166667</longitude>
  </city>
  <city name="Chinweza">
    <latitude>-13.4666667</latitude>
    <longitude>33.9166667</longitude>
  </city>
  <city name="Chinyakula">
    <latitude>-11.6333333</latitude>
    <longitude>34.1166667</longitude>
  </city>
  <city name="Chinyama">
    <latitude>-13.7166667</latitude>
    <longitude>33.7166667</longitude>
  </city>
  <city name="Chinyamanyamo">
    <latitude>-13.8</latitude>
    <longitude>34.4666667</longitude>
  </city>
  <city name="Chinyamunyamu">
    <latitude>-13.0666667</latitude>
    <longitude>33.4333333</longitude>
  </city>
  <city name="Chinyanga">
    <latitude>-13.2833333</latitude>
    <longitude>33.9833333</longitude>
  </city>
  <city name="Chinyanya">
    <latitude>-12.05</latitude>
    <longitude>34.75</longitude>
  </city>
  <city name="Chinyawa">
    <latitude>-13.6333333</latitude>
    <longitude>33.3666667</longitude>
  </city>
  <city name="Chinyenta">
    <latitude>-11.8</latitude>
    <longitude>34.2</longitude>
  </city>
  <city name="Chinziri">
    <latitude>-15.6166667</latitude>
    <longitude>35.75</longitude>
  </city>
  <city name="Chinzu">
    <latitude>-13.7333333</latitude>
    <longitude>33.45</longitude>
  </city>
  <city name="Chiombe">
    <latitude>-13.2333333</latitude>
    <longitude>33.7833333</longitude>
  </city>
  <city name="Chionjeza">
    <latitude>-13.4833333</latitude>
    <longitude>34.3</longitude>
  </city>
  <city name="Chipaika">
    <latitude>-11.4166667</latitude>
    <longitude>34.1833333</longitude>
  </city>
  <city name="Chipalamawamba">
    <latitude>-14.5</latitude>
    <longitude>35.25</longitude>
  </city>
  <city name="Chipalanje">
    <latitude>-15.4</latitude>
    <longitude>34.9333333</longitude>
  </city>
  <city name="Chipalawe">
    <latitude>-13.3</latitude>
    <longitude>33.7166667</longitude>
  </city>
  <city name="Chipamba">
    <latitude>-14.2333333</latitude>
    <longitude>34.0833333</longitude>
  </city>
  <city name="Chipanda">
    <latitude>-13.7</latitude>
    <longitude>32.9833333</longitude>
  </city>
  <city name="Chipande">
    <latitude>-13.7</latitude>
    <longitude>32.9833333</longitude>
  </city>
  <city name="Chipanza">
    <latitude>-13.7166667</latitude>
    <longitude>34.2666667</longitude>
  </city>
  <city name="Chipapi">
    <latitude>-13.6166667</latitude>
    <longitude>34.05</longitude>
  </city>
  <city name="Chipapika">
    <latitude>-12.6666667</latitude>
    <longitude>33.9</longitude>
  </city>
  <city name="Chipasi">
    <latitude>-14.2833333</latitude>
    <longitude>34.2833333</longitude>
  </city>
  <city name="Chipaso">
    <latitude>-13.0666667</latitude>
    <longitude>33.5166667</longitude>
  </city>
  <city name="Chipasula">
    <latitude>-14.0166667</latitude>
    <longitude>33.8</longitude>
  </city>
  <city name="Chipe">
    <latitude>-14.2833333</latitude>
    <longitude>34.3</longitude>
  </city>
  <city name="Chipeka">
    <latitude>-11.75</latitude>
    <longitude>34.2333333</longitude>
  </city>
  <city name="Chipekwe">
    <latitude>-13.1166667</latitude>
    <longitude>33.4666667</longitude>
  </city>
  <city name="Chipembere">
    <latitude>-13.0333333</latitude>
    <longitude>33.5166667</longitude>
  </city>
  <city name="Chipendo">
    <latitude>-16.2333333</latitude>
    <longitude>34.5333333</longitude>
  </city>
  <city name="Chipeni">
    <latitude>-14.2166667</latitude>
    <longitude>33.85</longitude>
  </city>
  <city name="Chipenyenye">
    <latitude>-11.1166667</latitude>
    <longitude>34.2166667</longitude>
  </city>
  <city name="Chipepola">
    <latitude>-15.4166667</latitude>
    <longitude>35.3</longitude>
  </city>
  <city name="Chipeta">
    <latitude>-15.45</latitude>
    <longitude>35.2833333</longitude>
  </city>
  <city name="Chipezi">
    <latitude>-13.5666667</latitude>
    <longitude>33.2666667</longitude>
  </city>
  <city name="Chiphapi">
    <latitude>-13.2166667</latitude>
    <longitude>33.5166667</longitude>
  </city>
  <city name="Chiphazi">
    <latitude>-11.5833333</latitude>
    <longitude>34.2666667</longitude>
  </city>
  <city name="Chiphwembwe">
    <latitude>-16.9166667</latitude>
    <longitude>35.25</longitude>
  </city>
  <city name="Chipimbininga">
    <latitude>-11.5166667</latitude>
    <longitude>34.0833333</longitude>
  </city>
  <city name="Chipita">
    <latitude>-9.7166667</latitude>
    <longitude>33.2666667</longitude>
  </city>
  <city name="Chipitite">
    <latitude>-13.6833333</latitude>
    <longitude>33.8</longitude>
  </city>
  <city name="Chipoka">
    <latitude>-14.3666667</latitude>
    <longitude>35.1833333</longitude>
  </city>
  <city name="Chipokolo">
    <latitude>-13.2166667</latitude>
    <longitude>33.5333333</longitude>
  </city>
  <city name="Chipokora">
    <latitude>-13.3833333</latitude>
    <longitude>33.1333333</longitude>
  </city>
  <city name="Chipokosa">
    <latitude>-13.3833333</latitude>
    <longitude>33.8333333</longitude>
  </city>
  <city name="Chipole">
    <latitude>-14.5833333</latitude>
    <longitude>35.3333333</longitude>
  </city>
  <city name="Chipolonga">
    <latitude>-14.85</latitude>
    <longitude>35.6833333</longitude>
  </city>
  <city name="Chipolopolo">
    <latitude>-16.3833333</latitude>
    <longitude>35.1333333</longitude>
  </city>
  <city name="Chipolwa">
    <latitude>-13.2666667</latitude>
    <longitude>33.75</longitude>
  </city>
  <city name="Chiponda">
    <latitude>-13.65</latitude>
    <longitude>33.6333333</longitude>
  </city>
  <city name="Chiponde">
    <latitude>-13.0833333</latitude>
    <longitude>33.4333333</longitude>
  </city>
  <city name="Chipoza">
    <latitude>-13.4333333</latitude>
    <longitude>33.3833333</longitude>
  </city>
  <city name="Chipudo">
    <latitude>-13.6</latitude>
    <longitude>33.9833333</longitude>
  </city>
  <city name="Chipuka">
    <latitude>-13.3833333</latitude>
    <longitude>33.8833333</longitude>
  </city>
  <city name="Chipumi">
    <latitude>-13.6166667</latitude>
    <longitude>33.0833333</longitude>
  </city>
  <city name="Chipusile">
    <latitude>-14.8166667</latitude>
    <longitude>34.5833333</longitude>
  </city>
  <city name="Chiputa">
    <latitude>-13.7333333</latitude>
    <longitude>33.35</longitude>
  </city>
  <city name="Chiputula">
    <latitude>-12.9833333</latitude>
    <longitude>34.3166667</longitude>
  </city>
  <city name="Chipwaila">
    <latitude>-16.4</latitude>
    <longitude>34.7833333</longitude>
  </city>
  <city name="Chipwanya">
    <latitude>-14.1</latitude>
    <longitude>33.4</longitude>
  </city>
  <city name="Chipwanya II">
    <latitude>-14.1333333</latitude>
    <longitude>33.45</longitude>
  </city>
  <city name="Chipwayila">
    <latitude>-13.6833333</latitude>
    <longitude>33.7333333</longitude>
  </city>
  <city name="Chipwembwe">
    <latitude>-16.9166667</latitude>
    <longitude>35.25</longitude>
  </city>
  <city name="Chipyela">
    <latitude>-12.0666667</latitude>
    <longitude>34.7333333</longitude>
  </city>
  <city name="Chiradzulu Boma">
    <latitude>-15.7</latitude>
    <longitude>35.1833333</longitude>
  </city>
  <city name="Chiradzulu">
    <latitude>-15.7</latitude>
    <longitude>35.1833333</longitude>
  </city>
  <city name="Chirambo">
    <latitude>-11.0333333</latitude>
    <longitude>33.75</longitude>
  </city>
  <city name="Chirambo Mzoda">
    <latitude>-11.0166667</latitude>
    <longitude>33.75</longitude>
  </city>
  <city name="Chirando">
    <latitude>-13.7166667</latitude>
    <longitude>35.0833333</longitude>
  </city>
  <city name="Chirerawana">
    <latitude>-11.6333333</latitude>
    <longitude>34.2666667</longitude>
  </city>
  <city name="Chirinza">
    <latitude>-14.0166667</latitude>
    <longitude>33.6333333</longitude>
  </city>
  <city name="Chiriwiya">
    <latitude>-13.4166667</latitude>
    <longitude>33.9833333</longitude>
  </city>
  <city name="Chiromangala">
    <latitude>-13.1833333</latitude>
    <longitude>34.3</longitude>
  </city>
  <city name="Chirombo">
    <latitude>-14.1166667</latitude>
    <longitude>34.8333333</longitude>
  </city>
  <city name="Chiromo">
    <latitude>-16.55</latitude>
    <longitude>35.1333333</longitude>
  </city>
  <city name="Chirongo Mkandawire">
    <latitude>-11.6333333</latitude>
    <longitude>33.3166667</longitude>
  </city>
  <city name="Chirumba">
    <latitude>-10.45</latitude>
    <longitude>34.2666667</longitude>
  </city>
  <city name="Chiruwe">
    <latitude>-13.5333333</latitude>
    <longitude>33.2</longitude>
  </city>
  <city name="Chirwa">
    <latitude>-12.65</latitude>
    <longitude>33.5166667</longitude>
  </city>
  <city name="Chisa">
    <latitude>-13.05</latitude>
    <longitude>33.65</longitude>
  </city>
  <city name="Chisamba">
    <latitude>-13.7833333</latitude>
    <longitude>34.4</longitude>
  </city>
  <city name="Chisambi">
    <latitude>-13.4666667</latitude>
    <longitude>33.9666667</longitude>
  </city>
  <city name="Chisambilo">
    <latitude>-13.1</latitude>
    <longitude>33.4333333</longitude>
  </city>
  <city name="Chisanga">
    <latitude>-12.0833333</latitude>
    <longitude>34.75</longitude>
  </city>
  <city name="Chisani">
    <latitude>-13.6833333</latitude>
    <longitude>33.55</longitude>
  </city>
  <city name="Chisasa">
    <latitude>-13.4</latitude>
    <longitude>33.1333333</longitude>
  </city>
  <city name="Chisau Mkandawire">
    <latitude>-11.1666667</latitude>
    <longitude>33.5</longitude>
  </city>
  <city name="Chisavya">
    <latitude>-10.7666667</latitude>
    <longitude>33.75</longitude>
  </city>
  <city name="Chisawa">
    <latitude>-14.75</latitude>
    <longitude>35.6166667</longitude>
  </city>
  <city name="Chiseko">
    <latitude>-13.2833333</latitude>
    <longitude>33.55</longitude>
  </city>
  <city name="Chiselema">
    <latitude>-13.8833333</latitude>
    <longitude>34.3166667</longitude>
  </city>
  <city name="Chisema">
    <latitude>-13.3333333</latitude>
    <longitude>33.7666667</longitude>
  </city>
  <city name="Chisempere">
    <latitude>-12.6166667</latitude>
    <longitude>33.5166667</longitude>
  </city>
  <city name="Chisemphere">
    <latitude>-12.6166667</latitude>
    <longitude>33.5166667</longitude>
  </city>
  <city name="Chisenga">
    <latitude>-9.9333333</latitude>
    <longitude>33.4333333</longitude>
  </city>
  <city name="Chisepo">
    <latitude>-13.1666667</latitude>
    <longitude>33.5666667</longitude>
  </city>
  <city name="Chisepo II">
    <latitude>-13.1166667</latitude>
    <longitude>33.75</longitude>
  </city>
  <city name="Chishimu">
    <latitude>-9.5666667</latitude>
    <longitude>33.2833333</longitude>
  </city>
  <city name="Chisikwa">
    <latitude>-14.0</latitude>
    <longitude>33.4833333</longitude>
  </city>
  <city name="Chisikwa II">
    <latitude>-13.9666667</latitude>
    <longitude>33.3666667</longitude>
  </city>
  <city name="Chisindi">
    <latitude>-11.4333333</latitude>
    <longitude>34.1833333</longitude>
  </city>
  <city name="Chisiza">
    <latitude>-14.6666667</latitude>
    <longitude>35.6</longitude>
  </city>
  <city name="Chisokowo">
    <latitude>-10.8833333</latitude>
    <longitude>34.0333333</longitude>
  </city>
  <city name="Chisoso">
    <latitude>-13.3166667</latitude>
    <longitude>33.6666667</longitude>
  </city>
  <city name="Chisumba">
    <latitude>-13.75</latitude>
    <longitude>33.85</longitude>
  </city>
  <city name="Chisumu">
    <latitude>-13.65</latitude>
    <longitude>33.2166667</longitude>
  </city>
  <city name="Chisumulu">
    <latitude>-12.0333333</latitude>
    <longitude>34.6166667</longitude>
  </city>
  <city name="Chisuse">
    <latitude>-14.95</latitude>
    <longitude>35.5666667</longitude>
  </city>
  <city name="Chisuvi">
    <latitude>-14.7833333</latitude>
    <longitude>35.4166667</longitude>
  </city>
  <city name="Chisuwi">
    <latitude>-14.9666667</latitude>
    <longitude>35.45</longitude>
  </city>
  <city name="Chiswamphila">
    <latitude>-11.7333333</latitude>
    <longitude>34.0666667</longitude>
  </city>
  <city name="Chiswamphira">
    <latitude>-11.7333333</latitude>
    <longitude>34.0666667</longitude>
  </city>
  <city name="Chiswa Mumba">
    <latitude>-11.9666667</latitude>
    <longitude>33.3833333</longitude>
  </city>
  <city name="Chitala">
    <latitude>-13.6666667</latitude>
    <longitude>34.2666667</longitude>
  </city>
  <city name="Chitango">
    <latitude>-10.9333333</latitude>
    <longitude>33.65</longitude>
  </city>
  <city name="Chitanje">
    <latitude>-13.7333333</latitude>
    <longitude>33.9333333</longitude>
  </city>
  <city name="Chitanta">
    <latitude>-13.6833333</latitude>
    <longitude>33.8</longitude>
  </city>
  <city name="Chitapa Moyo">
    <latitude>-11.7666667</latitude>
    <longitude>33.5</longitude>
  </city>
  <city name="Chitawala">
    <latitude>-13.4833333</latitude>
    <longitude>33.65</longitude>
  </city>
  <city name="Chitedze">
    <latitude>-14.2333333</latitude>
    <longitude>33.6666667</longitude>
  </city>
  <city name="Chitedzi">
    <latitude>-13.6833333</latitude>
    <longitude>33.7333333</longitude>
  </city>
  <city name="Chitele">
    <latitude>-13.85</latitude>
    <longitude>35.2</longitude>
  </city>
  <city name="Chitengo">
    <latitude>-14.3666667</latitude>
    <longitude>33.7833333</longitude>
  </city>
  <city name="Chitenjere">
    <latitude>-15.2</latitude>
    <longitude>35.3833333</longitude>
  </city>
  <city name="Chitete">
    <latitude>-9.65</latitude>
    <longitude>33.5833333</longitude>
  </city>
  <city name="Chiteyeye">
    <latitude>-13.05</latitude>
    <longitude>33.5</longitude>
  </city>
  <city name="Chithasa">
    <latitude>-14.4666667</latitude>
    <longitude>34.0333333</longitude>
  </city>
  <city name="Chithumba">
    <latitude>-12.8333333</latitude>
    <longitude>33.7833333</longitude>
  </city>
  <city name="Chiti">
    <latitude>-13.65</latitude>
    <longitude>33.0166667</longitude>
  </city>
  <city name="Chitimba">
    <latitude>-10.6</latitude>
    <longitude>34.2</longitude>
  </city>
  <city name="Chitipa">
    <latitude>-9.7166667</latitude>
    <longitude>33.2666667</longitude>
  </city>
  <city name="Chitomeni">
    <latitude>-17.1166667</latitude>
    <longitude>35.25</longitude>
  </city>
  <city name="Chitoru">
    <latitude>-13.3</latitude>
    <longitude>33.6333333</longitude>
  </city>
  <city name="Chitsa">
    <latitude>-17.0333333</latitude>
    <longitude>35.2833333</longitude>
  </city>
  <city name="Chitseko">
    <latitude>-16.4333333</latitude>
    <longitude>35.1833333</longitude>
  </city>
  <city name="Chitsulo">
    <latitude>-13.15</latitude>
    <longitude>33.7</longitude>
  </city>
  <city name="Chitsulu">
    <latitude>-12.9833333</latitude>
    <longitude>33.8</longitude>
  </city>
  <city name="Chitsumba">
    <latitude>-16.3166667</latitude>
    <longitude>34.7</longitude>
  </city>
  <city name="Chitukula">
    <latitude>-13.7833333</latitude>
    <longitude>33.7666667</longitude>
  </city>
  <city name="Chitumba">
    <latitude>-13.7666667</latitude>
    <longitude>33.0166667</longitude>
  </city>
  <city name="Chitumbwe">
    <latitude>-15.5333333</latitude>
    <longitude>34.5</longitude>
  </city>
  <city name="Chitundu">
    <latitude>-12.55</latitude>
    <longitude>34.1333333</longitude>
  </city>
  <city name="Chituwe">
    <latitude>-13.95</latitude>
    <longitude>33.5</longitude>
  </city>
  <city name="Chituzu">
    <latitude>-12.1333333</latitude>
    <longitude>33.3666667</longitude>
  </city>
  <city name="Chiuja">
    <latitude>-14.8</latitude>
    <longitude>35.55</longitude>
  </city>
  <city name="Chiula">
    <latitude>-13.4666667</latitude>
    <longitude>33.6</longitude>
  </city>
  <city name="Chiunda">
    <latitude>-14.7666667</latitude>
    <longitude>35.3666667</longitude>
  </city>
  <city name="Chiunjika">
    <latitude>-10.8166667</latitude>
    <longitude>34.2166667</longitude>
  </city>
  <city name="Chiunjisa">
    <latitude>-13.3166667</latitude>
    <longitude>33.8666667</longitude>
  </city>
  <city name="Chiunjiza">
    <latitude>-13.5</latitude>
    <longitude>34.3</longitude>
  </city>
  <city name="Chiutsi">
    <latitude>-13.1833333</latitude>
    <longitude>33.5833333</longitude>
  </city>
  <city name="Chiutula">
    <latitude>-14.55</latitude>
    <longitude>35.3333333</longitude>
  </city>
  <city name="Chivala">
    <latitude>-13.3</latitude>
    <longitude>33.85</longitude>
  </city>
  <city name="Chivimya">
    <latitude>-13.1833333</latitude>
    <longitude>33.5166667</longitude>
  </city>
  <city name="Chivina">
    <latitude>-11.0666667</latitude>
    <longitude>34.2166667</longitude>
  </city>
  <city name="Chivuta">
    <latitude>-12.05</latitude>
    <longitude>34.05</longitude>
  </city>
  <city name="Chivuti">
    <latitude>-11.4</latitude>
    <longitude>34.1666667</longitude>
  </city>
  <city name="Chivwamila">
    <latitude>-12.95</latitude>
    <longitude>33.8833333</longitude>
  </city>
  <city name="Chivwara">
    <latitude>-11.1166667</latitude>
    <longitude>33.5333333</longitude>
  </city>
  <city name="Chiwala">
    <latitude>-13.75</latitude>
    <longitude>33.45</longitude>
  </city>
  <city name="Chiwale">
    <latitude>-14.2166667</latitude>
    <longitude>33.65</longitude>
  </city>
  <city name="Chiwaliwali">
    <latitude>-13.3833333</latitude>
    <longitude>33.85</longitude>
  </city>
  <city name="Chiwalo">
    <latitude>-14.7333333</latitude>
    <longitude>35.5333333</longitude>
  </city>
  <city name="Chiwalu">
    <latitude>-15.5666667</latitude>
    <longitude>35.7833333</longitude>
  </city>
  <city name="Chiwamba">
    <latitude>-14.1666667</latitude>
    <longitude>34.3666667</longitude>
  </city>
  <city name="Chiwambo">
    <latitude>-14.8166667</latitude>
    <longitude>35.3</longitude>
  </city>
  <city name="Chiwanda">
    <latitude>-9.7166667</latitude>
    <longitude>33.4833333</longitude>
  </city>
  <city name="Chiwanga">
    <latitude>-13.6666667</latitude>
    <longitude>33.2333333</longitude>
  </city>
  <city name="Chiwanganya">
    <latitude>-15.45</latitude>
    <longitude>35.5</longitude>
  </city>
  <city name="Chiwara Nkhambule">
    <latitude>-11.35</latitude>
    <longitude>33.85</longitude>
  </city>
  <city name="Chiwara Tembo">
    <latitude>-11.45</latitude>
    <longitude>33.75</longitude>
  </city>
  <city name="Chiwasa">
    <latitude>-13.6166667</latitude>
    <longitude>33.15</longitude>
  </city>
  <city name="Chiwato Jere">
    <latitude>-11.1666667</latitude>
    <longitude>33.85</longitude>
  </city>
  <city name="Chiwaula">
    <latitude>-13.9166667</latitude>
    <longitude>33.0166667</longitude>
  </city>
  <city name="Chiwawani Nyambose">
    <latitude>-11.15</latitude>
    <longitude>33.85</longitude>
  </city>
  <city name="Chiwengo">
    <latitude>-13.1166667</latitude>
    <longitude>33.5333333</longitude>
  </city>
  <city name="Chiwere">
    <latitude>-13.7666667</latitude>
    <longitude>34.1333333</longitude>
  </city>
  <city name="Chiwerera">
    <latitude>-13.0333333</latitude>
    <longitude>33.5333333</longitude>
  </city>
  <city name="Chiwere's">
    <latitude>-13.7666667</latitude>
    <longitude>34.1333333</longitude>
  </city>
  <city name="Chiwerewere">
    <latitude>-10.7333333</latitude>
    <longitude>34.05</longitude>
  </city>
  <city name="Chiweta">
    <latitude>-10.7</latitude>
    <longitude>34.1833333</longitude>
  </city>
  <city name="Chiweto">
    <latitude>-10.7</latitude>
    <longitude>34.1833333</longitude>
  </city>
  <city name="Chiweyo">
    <latitude>-11.9333333</latitude>
    <longitude>34.1333333</longitude>
  </city>
  <city name="Chiweyo Village">
    <latitude>-11.9333333</latitude>
    <longitude>34.1333333</longitude>
  </city>
  <city name="Chiweyu">
    <latitude>-11.9333333</latitude>
    <longitude>34.1333333</longitude>
  </city>
  <city name="Chiweza">
    <latitude>-13.4666667</latitude>
    <longitude>33.85</longitude>
  </city>
  <city name="Chiweze">
    <latitude>-13.7333333</latitude>
    <longitude>33.65</longitude>
  </city>
  <city name="Chiwilira">
    <latitude>-13.4666667</latitude>
    <longitude>33.85</longitude>
  </city>
  <city name="Chiwinga">
    <latitude>-13.15</latitude>
    <longitude>33.7833333</longitude>
  </city>
  <city name="Chiwiza">
    <latitude>-14.6666667</latitude>
    <longitude>34.8333333</longitude>
  </city>
  <city name="Chiwoko">
    <latitude>-13.9833333</latitude>
    <longitude>33.8166667</longitude>
  </city>
  <city name="Chiwosa">
    <latitude>-14.0666667</latitude>
    <longitude>33.9833333</longitude>
  </city>
  <city name="Chiwotha">
    <latitude>-12.9833333</latitude>
    <longitude>34.3166667</longitude>
  </city>
  <city name="Chiwoza">
    <latitude>-13.7166667</latitude>
    <longitude>33.5833333</longitude>
  </city>
  <city name="Chiwundasi">
    <latitude>-11.8</latitude>
    <longitude>34.1833333</longitude>
  </city>
  <city name="Chiwuri Kachari">
    <latitude>-11.3666667</latitude>
    <longitude>33.3833333</longitude>
  </city>
  <city name="Chiyankhu Chimaliro">
    <latitude>-11.3333333</latitude>
    <longitude>33.9833333</longitude>
  </city>
  <city name="Chizangwe">
    <latitude>-13.2</latitude>
    <longitude>34.3166667</longitude>
  </city>
  <city name="Chizani">
    <latitude>-12.4333333</latitude>
    <longitude>33.7166667</longitude>
  </city>
  <city name="Chizenga">
    <latitude>-16.4333333</latitude>
    <longitude>34.7833333</longitude>
  </city>
  <city name="Chiziko">
    <latitude>-13.3166667</latitude>
    <longitude>33.9666667</longitude>
  </city>
  <city name="Chiziwachapwa">
    <latitude>-10.8833333</latitude>
    <longitude>34.2333333</longitude>
  </city>
  <city name="Chiziwa">
    <latitude>-11.1333333</latitude>
    <longitude>34.2333333</longitude>
  </city>
  <city name="Chizumba">
    <latitude>-11.5333333</latitude>
    <longitude>34.2666667</longitude>
  </city>
  <city name="Chokolokotha">
    <latitude>-13.7666667</latitude>
    <longitude>33.7333333</longitude>
  </city>
  <city name="Chokora Mzima">
    <latitude>-11.5166667</latitude>
    <longitude>33.3333333</longitude>
  </city>
  <city name="Chokwe">
    <latitude>-13.4166667</latitude>
    <longitude>33.8833333</longitude>
  </city>
  <city name="Choloamakande">
    <latitude>-13.9333333</latitude>
    <longitude>33.9</longitude>
  </city>
  <city name="Cholo">
    <latitude>-16.0666667</latitude>
    <longitude>35.1333333</longitude>
  </city>
  <city name="Chomba">
    <latitude>-13.0</latitude>
    <longitude>34.3166667</longitude>
  </city>
  <city name="Chombe">
    <latitude>-15.8333333</latitude>
    <longitude>35.5333333</longitude>
  </city>
  <city name="Chombo">
    <latitude>-12.8833333</latitude>
    <longitude>34.2666667</longitude>
  </city>
  <city name="Chomola">
    <latitude>-13.3333333</latitude>
    <longitude>33.3666667</longitude>
  </city>
  <city name="Chomosa">
    <latitude>-14.3333333</latitude>
    <longitude>34.2833333</longitude>
  </city>
  <city name="Chonde">
    <latitude>-16.0</latitude>
    <longitude>35.3166667</longitude>
  </city>
  <city name="Chopi">
    <latitude>-15.35</latitude>
    <longitude>35.4</longitude>
  </city>
  <city name="Chorwe">
    <latitude>-13.4166667</latitude>
    <longitude>33.8833333</longitude>
  </city>
  <city name="Choto">
    <latitude>-12.9666667</latitude>
    <longitude>34.3</longitude>
  </city>
  <city name="Chulu">
    <latitude>-13.6833333</latitude>
    <longitude>33.6666667</longitude>
  </city>
  <city name="Chumbela">
    <latitude>-13.75</latitude>
    <longitude>32.95</longitude>
  </city>
  <city name="Chumbela Kombe">
    <latitude>-13.75</latitude>
    <longitude>33.0</longitude>
  </city>
  <city name="Chumbiro">
    <latitude>-13.75</latitude>
    <longitude>32.95</longitude>
  </city>
  <city name="Chunga">
    <latitude>-13.7</latitude>
    <longitude>33.2833333</longitude>
  </city>
  <city name="Chunganiro">
    <latitude>-13.3333333</latitude>
    <longitude>33.9166667</longitude>
  </city>
  <city name="Chungu">
    <latitude>-13.3</latitude>
    <longitude>33.5166667</longitude>
  </city>
  <city name="Chuosa">
    <latitude>-14.2833333</latitude>
    <longitude>34.2833333</longitude>
  </city>
  <city name="Chuwuya Nkhata">
    <latitude>-11.95</latitude>
    <longitude>33.35</longitude>
  </city>
  <city name="Chuzu">
    <latitude>-13.3333333</latitude>
    <longitude>33.4</longitude>
  </city>
  <city name="Cibalala">
    <latitude>-14.8333333</latitude>
    <longitude>34.9</longitude>
  </city>
  <city name="Cibojora">
    <latitude>-12.5333333</latitude>
    <longitude>33.5333333</longitude>
  </city>
  <city name="Ciboko">
    <latitude>-12.8166667</latitude>
    <longitude>34.25</longitude>
  </city>
  <city name="Cibuga">
    <latitude>-13.9666667</latitude>
    <longitude>33.45</longitude>
  </city>
  <city name="Cibwata">
    <latitude>-14.1166667</latitude>
    <longitude>34.05</longitude>
  </city>
  <city name="Cidalanda">
    <latitude>-13.7666667</latitude>
    <longitude>33.6333333</longitude>
  </city>
  <city name="Cidewge">
    <latitude>-14.3333333</latitude>
    <longitude>33.9833333</longitude>
  </city>
  <city name="Cidya">
    <latitude>-14.0</latitude>
    <longitude>33.5</longitude>
  </city>
  <city name="Ciekwete">
    <latitude>-12.6166667</latitude>
    <longitude>33.3333333</longitude>
  </city>
  <city name="Cigadula">
    <latitude>-12.7166667</latitude>
    <longitude>33.35</longitude>
  </city>
  <city name="Cigunda">
    <latitude>-14.0</latitude>
    <longitude>33.3166667</longitude>
  </city>
  <city name="Cihepa">
