<?xml version="1.0" encoding="UTF-8"?>
<country code="mz" name="Mozambique">
  <city name="25 de Junho A">
    <latitude>-25.9002778</latitude>
    <longitude>32.5555556</longitude>
  </city>
  <city name="25 de Junho B">
    <latitude>-25.9011111</latitude>
    <longitude>32.5775</longitude>
  </city>
  <city name="3 de Fevereiro">
    <latitude>-25.8897222</latitude>
    <longitude>32.6222222</longitude>
  </city>
  <city name="7 de Abril">
    <latitude>-15.1438889</latitude>
    <longitude>39.7052778</longitude>
  </city>
  <city name="Abacar">
    <latitude>-17.1780556</latitude>
    <longitude>37.8333333</longitude>
  </city>
  <city name="Aba Cuturia">
    <latitude>-16.2688889</latitude>
    <longitude>37.1961111</longitude>
  </city>
  <city name="Abasulo">
    <latitude>-12.1875</latitude>
    <longitude>34.7075</longitude>
  </city>
  <city name="Abdala">
    <latitude>-11.4266667</latitude>
    <longitude>39.7177778</longitude>
  </city>
  <city name="Abdata">
    <latitude>-11.4266667</latitude>
    <longitude>39.7177778</longitude>
  </city>
  <city name="Abdul">
    <latitude>-24.4688889</latitude>
    <longitude>33.1519444</longitude>
  </city>
  <city name="Abdulaímo">
    <latitude>-13.605</latitude>
    <longitude>39.1636111</longitude>
  </city>
  <city name="Abedula">
    <latitude>-24.2630556</latitude>
    <longitude>35.0675</longitude>
  </city>
  <city name="Abel">
    <latitude>-22.5219444</latitude>
    <longitude>32.6255556</longitude>
  </city>
  <city name="Abeliua">
    <latitude>-17.1080556</latitude>
    <longitude>38.0247222</longitude>
  </city>
  <city name="Abel Maueua">
    <latitude>-24.3675</latitude>
    <longitude>34.7788889</longitude>
  </city>
  <city name="Abianai">
    <latitude>-11.9230556</latitude>
    <longitude>39.5125</longitude>
  </city>
  <city name="Abibo">
    <latitude>-12.4555556</latitude>
    <longitude>39.8969444</longitude>
  </city>
  <city name="Abílio">
    <latitude>-24.4702778</latitude>
    <longitude>33.3461111</longitude>
  </city>
  <city name="Abilo">
    <latitude>-12.3863889</latitude>
    <longitude>34.9641667</longitude>
  </city>
  <city name="Abima">
    <latitude>-13.7786111</latitude>
    <longitude>37.3341667</longitude>
  </city>
  <city name="Abimo">
    <latitude>-13.7786111</latitude>
    <longitude>37.3341667</longitude>
  </city>
  <city name="Abinda">
    <latitude>-14.1769444</latitude>
    <longitude>40.425</longitude>
  </city>
  <city name="Abissa">
    <latitude>-13.0186111</latitude>
    <longitude>38.6963889</longitude>
  </city>
  <city name="Abobelane">
    <latitude>-22.4883333</latitude>
    <longitude>35.1808333</longitude>
  </city>
  <city name="Aboobacar">
    <latitude>-17.3616667</latitude>
    <longitude>35.4858333</longitude>
  </city>
  <city name="Abreu">
    <latitude>-15.5302778</latitude>
    <longitude>40.3802778</longitude>
  </city>
  <city name="Abudala">
    <latitude>-12.3072222</latitude>
    <longitude>40.1202778</longitude>
  </city>
  <city name="Abude">
    <latitude>-14.0288889</latitude>
    <longitude>40.6058333</longitude>
  </city>
  <city name="Abudo">
    <latitude>-11.745</latitude>
    <longitude>39.4905556</longitude>
  </city>
  <city name="Aburene">
    <latitude>-16.9522222</latitude>
    <longitude>38.0994444</longitude>
  </city>
  <city name="Abutda">
    <latitude>-13.0663889</latitude>
    <longitude>38.4336111</longitude>
  </city>
  <city name="Abúti">
    <latitude>-15.85</latitude>
    <longitude>39.75</longitude>
  </city>
  <city name="Acache">
    <latitude>-12.8730556</latitude>
    <longitude>40.4672222</longitude>
  </city>
  <city name="Acalama">
    <latitude>-11.4186111</latitude>
    <longitude>39.4091667</longitude>
  </city>
  <city name="Acalavana">
    <latitude>-14.6541667</latitude>
    <longitude>39.615</longitude>
  </city>
  <city name="Acampamento">
    <latitude>-14.9416667</latitude>
    <longitude>40.3052778</longitude>
  </city>
  <city name="Acampamento Chá Moçambique">
    <latitude>-16.1966667</latitude>
    <longitude>37.3425</longitude>
  </city>
  <city name="Acampamento Sena Sugar">
    <latitude>-16.4261111</latitude>
    <longitude>37.5383333</longitude>
  </city>
  <city name="Acamp Montegiro">
    <latitude>-16.1386111</latitude>
    <longitude>38.3861111</longitude>
  </city>
  <city name="Acana">
    <latitude>-24.8191667</latitude>
    <longitude>32.4680556</longitude>
  </city>
  <city name="Acate">
    <latitude>-24.7869444</latitude>
    <longitude>33.4744444</longitude>
  </city>
  <city name="Achane">
    <latitude>-14.8563889</latitude>
    <longitude>40.2422222</longitude>
  </city>
  <city name="Achuche">
    <latitude>-11.7591667</latitude>
    <longitude>39.7941667</longitude>
  </city>
  <city name="Achuchinhânzi">
    <latitude>-14.8383333</latitude>
    <longitude>34.2019444</longitude>
  </city>
  <city name="Achuia">
    <latitude>-11.9366667</latitude>
    <longitude>40.1994444</longitude>
  </city>
  <city name="Aciate">
    <latitude>-17.7991667</latitude>
    <longitude>36.4927778</longitude>
  </city>
  <city name="Acombangüè">
    <latitude>-11.3338889</latitude>
    <longitude>39.8452778</longitude>
  </city>
  <city name="Acombanquè">
    <latitude>-11.3338889</latitude>
    <longitude>39.8452778</longitude>
  </city>
  <city name="Acomutéro">
    <latitude>-15.2655556</latitude>
    <longitude>33.8408333</longitude>
  </city>
  <city name="A.C. Tsocane">
    <latitude>-24.0805556</latitude>
    <longitude>32.6605556</longitude>
  </city>
  <city name="Acua">
    <latitude>-14.1355556</latitude>
    <longitude>40.0947222</longitude>
  </city>
  <city name="Acualahata">
    <latitude>-11.4752778</latitude>
    <longitude>39.67</longitude>
  </city>
  <city name="Acuata">
    <latitude>-15.4244444</latitude>
    <longitude>39.5508333</longitude>
  </city>
  <city name="Acuchinhanzi">
    <latitude>-14.8383333</latitude>
    <longitude>34.2019444</longitude>
  </city>
  <city name="Acudanguela">
    <latitude>-11.285</latitude>
    <longitude>39.9938889</longitude>
  </city>
  <city name="Acudanquela">
    <latitude>-11.285</latitude>
    <longitude>39.9938889</longitude>
  </city>
  <city name="Acuirindi">
    <latitude>-12.9608333</latitude>
    <longitude>34.8138889</longitude>
  </city>
  <city name="Acujo">
    <latitude>-13.2041667</latitude>
    <longitude>37.51</longitude>
  </city>
  <city name="Aculahata">
    <latitude>-11.4966667</latitude>
    <longitude>39.7244444</longitude>
  </city>
  <city name="Acumulanga">
    <latitude>-14.65</latitude>
    <longitude>34.1563889</longitude>
  </city>
  <city name="Acupo">
    <latitude>-13.7875</latitude>
    <longitude>40.3630556</longitude>
  </city>
  <city name="Acurrá">
    <latitude>-15.1638889</latitude>
    <longitude>39.0069444</longitude>
  </city>
  <city name="Acutipuane">
    <latitude>-12.0780556</latitude>
    <longitude>39.7727778</longitude>
  </city>
  <city name="Adacuana">
    <latitude>-17.5808333</latitude>
    <longitude>36.9216667</longitude>
  </city>
  <city name="Adala">
    <latitude>-10.8658333</latitude>
    <longitude>40.2388889</longitude>
  </city>
  <city name="Adâmegi">
    <latitude>-14.5011111</latitude>
    <longitude>40.6969444</longitude>
  </city>
  <city name="Adamo">
    <latitude>-11.4763889</latitude>
    <longitude>39.3455556</longitude>
  </city>
  <city name="Adeia">
    <latitude>-12.1105556</latitude>
    <longitude>34.8044444</longitude>
  </city>
  <city name="Adelina">
    <latitude>-14.8741667</latitude>
    <longitude>37.3647222</longitude>
  </city>
  <city name="Adia">
    <latitude>-14.4013889</latitude>
    <longitude>40.3080556</longitude>
  </city>
  <city name="Adiba">
    <latitude>-17.1041667</latitude>
    <longitude>37.5816667</longitude>
  </city>
  <city name="Adibo">
    <latitude>-16.4297222</latitude>
    <longitude>39.5625</longitude>
  </city>
  <city name="Adira">
    <latitude>-17.4880556</latitude>
    <longitude>37.3941667</longitude>
  </city>
  <city name="Adiuia">
    <latitude>-16.4108333</latitude>
    <longitude>39.5955556</longitude>
  </city>
  <city name="Adolfo">
    <latitude>-15.4269444</latitude>
    <longitude>37.6683333</longitude>
  </city>
  <city name="Adremane">
    <latitude>-11.1047222</latitude>
    <longitude>39.4625</longitude>
  </city>
  <city name="Adriano">
    <latitude>-15.1561111</latitude>
    <longitude>39.0963889</longitude>
  </city>
  <city name="Adulumbuique">
    <latitude>-11.5927778</latitude>
    <longitude>39.6377778</longitude>
  </city>
  <city name="Aeroporto A">
    <latitude>-25.9380556</latitude>
    <longitude>32.5711111</longitude>
  </city>
  <city name="Aeroporto B">
    <latitude>-25.9327778</latitude>
    <longitude>32.5619444</longitude>
  </city>
  <city name="Afaina">
    <latitude>-13.0711111</latitude>
    <longitude>36.4805556</longitude>
  </city>
  <city name="Afo">
    <latitude>-21.6213889</latitude>
    <longitude>34.5463889</longitude>
  </city>
  <city name="Afonso">
    <latitude>-21.3338889</latitude>
    <longitude>34.8508333</longitude>
  </city>
  <city name="Afonso Guihole">
    <latitude>-24.5736111</latitude>
    <longitude>34.2491667</longitude>
  </city>
  <city name="Afonso Matsinhe">
    <latitude>-24.7155556</latitude>
    <longitude>34.0922222</longitude>
  </city>
  <city name="Afonso Maúnge">
    <latitude>-24.6936111</latitude>
    <longitude>34.0436111</longitude>
  </city>
  <city name="Afrêda">
    <latitude>-16.6658333</latitude>
    <longitude>37.1091667</longitude>
  </city>
  <city name="Agadibo">
    <latitude>-17.3416667</latitude>
    <longitude>37.2261111</longitude>
  </city>
  <city name="Agamira">
    <latitude>-12.4547222</latitude>
    <longitude>34.9863889</longitude>
  </city>
  <city name="Agemeda">
    <latitude>-21.4869444</latitude>
    <longitude>35.0361111</longitude>
  </city>
  <city name="Agi">
    <latitude>-14.6333333</latitude>
    <longitude>40.75</longitude>
  </city>
  <city name="Agostinho">
    <latitude>-21.9347222</latitude>
    <longitude>34.7413889</longitude>
  </city>
  <city name="Aguacheiro">
    <latitude>-17.5302778</latitude>
    <longitude>36.0611111</longitude>
  </city>
  <city name="Agualva">
    <latitude>-18.4</latitude>
    <longitude>36.0666667</longitude>
  </city>
  <city name="Agua Quente">
    <latitude>-16.8072222</latitude>
    <longitude>38.3888889</longitude>
  </city>
  <city name="Águas Quentes">
    <latitude>-17.4166667</latitude>
    <longitude>35.35</longitude>
  </city>
  <city name="Ahema">
    <latitude>-11.3588889</latitude>
    <longitude>39.8547222</longitude>
  </city>
  <city name="Aiai">
    <latitude>-26.2333333</latitude>
    <longitude>32.8833333</longitude>
  </city>
  <city name="Aide">
    <latitude>-12.0483333</latitude>
    <longitude>34.9791667</longitude>
  </city>
  <city name="Aideja">
    <latitude>-20.1797222</latitude>
    <longitude>34.1805556</longitude>
  </city>
  <city name="Aienda">
    <latitude>-10.8797222</latitude>
    <longitude>40.2922222</longitude>
  </city>
  <city name="Aímo">
    <latitude>-13.4508333</latitude>
    <longitude>38.6658333</longitude>
  </city>
  <city name="Ainhecio">
    <latitude>-16.1344444</latitude>
    <longitude>38.1408333</longitude>
  </city>
  <city name="Aiorrucula">
    <latitude>-14.0261111</latitude>
    <longitude>39.1188889</longitude>
  </city>
  <city name="Airo">
    <latitude>-12.6897222</latitude>
    <longitude>40.2044444</longitude>
  </city>
  <city name="Aissa">
    <latitude>-12.5141667</latitude>
    <longitude>35.1891667</longitude>
  </city>
  <city name="Aìtare">
    <latitude>-12.4966667</latitude>
    <longitude>40.3505556</longitude>
  </city>
  <city name="Aite">
    <latitude>-14.5491667</latitude>
    <longitude>36.9758333</longitude>
  </city>
  <city name="Aiuba">
    <latitude>-11.2791667</latitude>
    <longitude>40.2516667</longitude>
  </city>
  <city name="Aiuda">
    <latitude>-13.3227778</latitude>
    <longitude>35.5694444</longitude>
  </city>
  <city name="Aíupa">
    <latitude>-13.395</latitude>
    <longitude>39.4608333</longitude>
  </city>
  <city name="Aiupa">
    <latitude>-14.2694444</latitude>
    <longitude>39.2775</longitude>
  </city>
  <city name="Ajabo">
    <latitude>-13.3466667</latitude>
    <longitude>35.8952778</longitude>
  </city>
  <city name="Ajera">
    <latitude>-13.33</latitude>
    <longitude>40.3405556</longitude>
  </city>
  <city name="Ajona">
    <latitude>-14.8833333</latitude>
    <longitude>30.7666667</longitude>
  </city>
  <city name="Ajuda">
    <latitude>-12.6116667</latitude>
    <longitude>34.8780556</longitude>
  </city>
  <city name="Alaina">
    <latitude>-12.4647222</latitude>
    <longitude>40.1636111</longitude>
  </city>
  <city name="Alama">
    <latitude>-15.6827778</latitude>
    <longitude>39.0097222</longitude>
  </city>
  <city name="Alamane">
    <latitude>-25.4419444</latitude>
    <longitude>32.9683333</longitude>
  </city>
  <city name="Alamba">
    <latitude>-17.3511111</latitude>
    <longitude>37.0633333</longitude>
  </city>
  <city name="Alamua">
    <latitude>-14.1786111</latitude>
    <longitude>39.0591667</longitude>
  </city>
  <city name="Alaneque">
    <latitude>-14.8658333</latitude>
    <longitude>38.9969444</longitude>
  </city>
  <city name="Alavalieque">
    <latitude>-14.4569444</latitude>
    <longitude>39.4361111</longitude>
  </city>
  <city name="Alave">
    <latitude>-15.6444444</latitude>
    <longitude>40.1622222</longitude>
  </city>
  <city name="Albano">
    <latitude>-21.4958333</latitude>
    <longitude>35.1786111</longitude>
  </city>
  <city name="Albasini">
    <latitude>-25.8455556</latitude>
    <longitude>32.6338889</longitude>
  </city>
  <city name="Albazin">
    <latitude>-25.8411111</latitude>
    <longitude>32.6436111</longitude>
  </city>
  <city name="Albazine">
    <latitude>-25.8455556</latitude>
    <longitude>32.6338889</longitude>
  </city>
  <city name="Alberto">
    <latitude>-23.7622222</latitude>
    <longitude>33.2338889</longitude>
  </city>
  <city name="Albine">
    <latitude>-26.1666667</latitude>
    <longitude>32.5833333</longitude>
  </city>
  <city name="Albinho">
    <latitude>-16.0225</latitude>
    <longitude>39.3811111</longitude>
  </city>
  <city name="Albino">
    <latitude>-23.3375</latitude>
    <longitude>33.7961111</longitude>
  </city>
  <city name="Albino Manhique">
    <latitude>-24.5975</latitude>
    <longitude>34.0327778</longitude>
  </city>
  <city name="Alcino Màcie">
    <latitude>-24.3230556</latitude>
    <longitude>34.0208333</longitude>
  </city>
  <city name="Alcolete">
    <latitude>-18.1166667</latitude>
    <longitude>36.75</longitude>
  </city>
  <city name="Aldeia Acupita">
    <latitude>-14.8661111</latitude>
    <longitude>34.2691667</longitude>
  </city>
  <city name="Aldeia Afuaca">
    <latitude>-15.4</latitude>
    <longitude>31.5213889</longitude>
  </city>
  <city name="Aldeia">
    <latitude>-12.1105556</latitude>
    <longitude>34.8044444</longitude>
  </city>
  <city name="Aldeia Ancimba">
    <latitude>-15.5152778</latitude>
    <longitude>32.0791667</longitude>
  </city>
  <city name="Aldeia Ancuaze">
    <latitude>-16.7825</latitude>
    <longitude>34.5611111</longitude>
  </city>
  <city name="Aldeia A. Viana">
    <latitude>-26.0163889</latitude>
    <longitude>32.1338889</longitude>
  </city>
  <city name="Aldeia Bacicolo">
    <latitude>-14.5136111</latitude>
    <longitude>33.7133333</longitude>
  </city>
  <city name="Aldeia Bagarila">
    <latitude>-13.0977778</latitude>
    <longitude>35.2236111</longitude>
  </city>
  <city name="Aldeia Baia">
    <latitude>-13.1133333</latitude>
    <longitude>35.1952778</longitude>
  </city>
  <city name="Aldeia Bandar">
    <latitude>-16.6369444</latitude>
    <longitude>34.1463889</longitude>
  </city>
  <city name="Aldeia Bango">
    <latitude>-14.9013889</latitude>
    <longitude>34.4530556</longitude>
  </city>
  <city name="Aldeia Bawe">
    <latitude>-15.1969444</latitude>
    <longitude>33.6427778</longitude>
  </city>
  <city name="Aldeia Bbwedzi">
    <latitude>-15.1863889</latitude>
    <longitude>32.1080556</longitude>
  </city>
  <city name="Aldeia Bene">
    <latitude>-14.8769444</latitude>
    <longitude>34.3508333</longitude>
  </city>
  <city name="Aldeia Bingo">
    <latitude>-23.6361111</latitude>
    <longitude>31.9297222</longitude>
  </city>
  <city name="Aldeia Biri-Biri">
    <latitude>-14.7538889</latitude>
    <longitude>34.5466667</longitude>
  </city>
  <city name="Aldeia Birira">
    <latitude>-16.4436111</latitude>
    <longitude>33.1830556</longitude>
  </city>
  <city name="Aldeia Bolande">
    <latitude>-23.8225</latitude>
    <longitude>35.2763889</longitude>
  </city>
  <city name="Aldeia Bonga">
    <latitude>-14.6102778</latitude>
    <longitude>34.5416667</longitude>
  </city>
  <city name="Aldeia Braganço">
    <latitude>-14.4008333</latitude>
    <longitude>34.3433333</longitude>
  </city>
  <city name="Aldeia Bucha">
    <latitude>-15.6294444</latitude>
    <longitude>32.9122222</longitude>
  </city>
  <city name="Aldeia Bulão">
    <latitude>-23.1466667</latitude>
    <longitude>35.4913889</longitude>
  </city>
  <city name="Aldeia Bume">
    <latitude>-14.5961111</latitude>
    <longitude>34.0888889</longitude>
  </city>
  <city name="Aldeia Cabambe">
    <latitude>-14.6213889</latitude>
    <longitude>34.1925</longitude>
  </city>
  <city name="Aldeia Cachenge">
    <latitude>-16.3458333</latitude>
    <longitude>33.3375</longitude>
  </city>
  <city name="Aldeia Cachere">
    <latitude>-14.8341667</latitude>
    <longitude>33.6052778</longitude>
  </city>
  <city name="Aldeia Caconde">
    <latitude>-16.1772222</latitude>
    <longitude>33.2552778</longitude>
  </city>
  <city name="Aldeia Cafulisa">
    <latitude>-16.4008333</latitude>
    <longitude>32.9116667</longitude>
  </city>
  <city name="Aldeia Cahó">
    <latitude>-15.7266667</latitude>
    <longitude>32.8094444</longitude>
  </city>
  <city name="Aldeia Cajamba">
    <latitude>-13.0072222</latitude>
    <longitude>35.1791667</longitude>
  </city>
  <city name="Aldeia Calala">
    <latitude>-14.6827778</latitude>
    <longitude>33.0022222</longitude>
  </city>
  <city name="Aldeia Calembe">
    <latitude>-12.27</latitude>
    <longitude>36.5586111</longitude>
  </city>
  <city name="Aldeia Calumue de Baixa">
    <latitude>-14.4016667</latitude>
    <longitude>34.3255556</longitude>
  </city>
  <city name="Aldeia Calussaca">
    <latitude>-14.9152778</latitude>
    <longitude>32.0166667</longitude>
  </city>
  <city name="Aldeia Cambarira">
    <latitude>-18.6469444</latitude>
    <longitude>33.9377778</longitude>
  </city>
  <city name="Aldeia Camela">
    <latitude>-23.5752778</latitude>
    <longitude>35.3194444</longitude>
  </city>
  <city name="Aldeia Campala">
    <latitude>-14.7197222</latitude>
    <longitude>34.5088889</longitude>
  </city>
  <city name="Aldeia Campine">
    <latitude>-15.3316667</latitude>
    <longitude>32.6544444</longitude>
  </city>
  <city name="Aldeia Camulaumba">
    <latitude>-16.9455556</latitude>
    <longitude>33.2130556</longitude>
  </city>
  <city name="Aldeia Canangué">
    <latitude>-15.6030556</latitude>
    <longitude>31.1797222</longitude>
  </city>
  <city name="Aldeia Canda">
    <latitude>-18.4855556</latitude>
    <longitude>33.9808333</longitude>
  </city>
  <city name="Aldeia Candodo">
    <latitude>-15.7827778</latitude>
    <longitude>32.7788889</longitude>
  </city>
  <city name="Aldeia Candogal">
    <latitude>-15.7236111</latitude>
    <longitude>32.7436111</longitude>
  </city>
  <city name="Aldeia Cangudze">
    <latitude>-16.4552778</latitude>
    <longitude>33.0891667</longitude>
  </city>
  <city name="Aldeia Canhandula">
    <latitude>-16.5766667</latitude>
    <longitude>33.1852778</longitude>
  </city>
  <city name="Aldeia Canhúnque">
    <latitude>-15.4336111</latitude>
    <longitude>31.9705556</longitude>
  </city>
  <city name="Aldeia Capimbe">
    <latitude>-16.5980556</latitude>
    <longitude>33.2030556</longitude>
  </city>
  <city name="Aldeia Capinizi">
    <latitude>-14.5919444</latitude>
    <longitude>32.75</longitude>
  </city>
  <city name="Aldeia Capiri">
    <latitude>-14.8244444</latitude>
    <longitude>32.8361111</longitude>
  </city>
  <city name="Aldeia Capiringombe">
    <latitude>-14.8527778</latitude>
    <longitude>34.0119444</longitude>
  </city>
  <city name="Aldeia Câssero">
    <latitude>-13.1380556</latitude>
    <longitude>36.5602778</longitude>
  </city>
  <city name="Aldeia Cassua">
    <latitude>-15.7275</latitude>
    <longitude>32.8494444</longitude>
  </city>
  <city name="Aldeia Cassumar">
    <latitude>-13.2447222</latitude>
    <longitude>35.3747222</longitude>
  </city>
  <city name="Aldeia Cassunsa">
    <latitude>-15.285</latitude>
    <longitude>33.4894444</longitude>
  </city>
  <city name="Aldeia Catambe">
    <latitude>-15.9911111</latitude>
    <longitude>32.2075</longitude>
  </city>
  <city name="Aldeia Cataxa">
    <latitude>-15.9386111</latitude>
    <longitude>33.0977778</longitude>
  </city>
  <city name="Aldeia Cateme">
    <latitude>-16.0691667</latitude>
    <longitude>33.9797222</longitude>
  </city>
  <city name="Aldeia Catumba">
    <latitude>-16.9991667</latitude>
    <longitude>33.1838889</longitude>
  </city>
  <city name="Aldeia Caume">
    <latitude>-15.1975</latitude>
    <longitude>32.1191667</longitude>
  </city>
  <city name="Aldeia Cauzi">
    <latitude>-15.0363889</latitude>
    <longitude>33.6702778</longitude>
  </city>
  <city name="Aldeia Chacale">
    <latitude>-15.4086111</latitude>
    <longitude>31.8238889</longitude>
  </city>
  <city name="Aldeia Chamacasso">
    <latitude>-15.3713889</latitude>
    <longitude>32.5263889</longitude>
  </city>
  <city name="Aldeia Chamande">
    <latitude>-13.8688889</latitude>
    <longitude>35.4708333</longitude>
  </city>
  <city name="Aldeia Chambambe">
    <latitude>-15.4216667</latitude>
    <longitude>33.1477778</longitude>
  </city>
  <city name="Aldeia Chamulaza">
    <latitude>-15.4544444</latitude>
    <longitude>32.0644444</longitude>
  </city>
  <city name="Aldeia Changudue">
    <latitude>-16.2286111</latitude>
    <longitude>33.4783333</longitude>
  </city>
  <city name="Aldeia Chaomba">
    <latitude>-14.0675</latitude>
    <longitude>33.2797222</longitude>
  </city>
  <city name="Aldeia Chapaluca">
    <latitude>-15.5155556</latitude>
    <longitude>33.6575</longitude>
  </city>
  <city name="Aldeia Chapatira">
    <latitude>-15.5733333</latitude>
    <longitude>31.6297222</longitude>
  </city>
  <city name="Aldeia Chayane">
    <latitude>-15.3641667</latitude>
    <longitude>33.4736111</longitude>
  </city>
  <city name="Aldeia Chia">
    <latitude>-12.5072222</latitude>
    <longitude>34.7119444</longitude>
  </city>
  <city name="Aldeia Chibovo">
    <latitude>-15.3608333</latitude>
    <longitude>32.2197222</longitude>
  </city>
  <city name="Aldeia Chicoco">
    <latitude>-15.5422222</latitude>
    <longitude>33.1883333</longitude>
  </city>
  <city name="Aldeia Chidzidzi">
    <latitude>-15.4311111</latitude>
    <longitude>33.1972222</longitude>
  </city>
  <city name="Aldeia Chifumbe">
    <latitude>-14.8711111</latitude>
    <longitude>34.0583333</longitude>
  </city>
  <city name="Aldeia Chigoma">
    <latitude>-12.0797222</latitude>
    <longitude>34.8538889</longitude>
  </city>
  <city name="Aldeia Chiguaja">
    <latitude>-13.7597222</latitude>
    <longitude>35.3147222</longitude>
  </city>
  <city name="Aldeia Chilapitangongo">
    <latitude>-13.0794444</latitude>
    <longitude>35.1661111</longitude>
  </city>
  <city name="Aldeia Chileca">
    <latitude>-12.4197222</latitude>
    <longitude>35.1227778</longitude>
  </city>
  <city name="Aldeia Chimadzi">
    <latitude>-15.5302778</latitude>
    <longitude>33.0944444</longitude>
  </city>
  <city name="Aldeia Chimangue">
    <latitude>-23.4441667</latitude>
    <longitude>31.7783333</longitude>
  </city>
  <city name="Aldeia Chingola">
    <latitude>-14.4875</latitude>
    <longitude>34.0458333</longitude>
  </city>
  <city name="Aldeia Chinhanda-Velha">
    <latitude>-15.8433333</latitude>
    <longitude>32.4088889</longitude>
  </city>
  <city name="Aldeia Chinhande">
    <latitude>-16.5472222</latitude>
    <longitude>33.3788889</longitude>
  </city>
  <city name="Aldeia Chinjati">
    <latitude>-12.1819444</latitude>
    <longitude>34.7141667</longitude>
  </city>
  <city name="Aldeia Chioco">
    <latitude>-16.4166667</latitude>
    <longitude>32.8247222</longitude>
  </city>
  <city name="Aldeia Chionde">
    <latitude>-14.9375</latitude>
    <longitude>34.4569444</longitude>
  </city>
  <city name="Aldeia Chiotumbo">
    <latitude>-16.645</latitude>
    <longitude>33.1447222</longitude>
  </city>
  <city name="Aldeia Chipacasse">
    <latitude>-15.1294444</latitude>
    <longitude>33.7330556</longitude>
  </city>
  <city name="Aldeia Chipala">
    <latitude>-14.7638889</latitude>
    <longitude>34.1302778</longitude>
  </city>
  <city name="Aldeia Chipala-pala">
    <latitude>-15.6802778</latitude>
    <longitude>32.3977778</longitude>
  </city>
  <city name="Aldeia Chipanga">
    <latitude>-13.5708333</latitude>
    <longitude>35.0625</longitude>
  </city>
  <city name="Aldeia Chipone">
    <latitude>-24.3386111</latitude>
    <longitude>34.7772222</longitude>
  </city>
  <city name="Aldeia Chipungo">
    <latitude>-15.1227778</latitude>
    <longitude>32.2163889</longitude>
  </city>
  <city name="Aldeia Chiputa">
    <latitude>-13.2422222</latitude>
    <longitude>36.5144444</longitude>
  </city>
  <city name="Aldeia Chiputu">
    <latitude>-15.4361111</latitude>
    <longitude>32.6472222</longitude>
  </city>
  <city name="Aldeia Chiradze">
    <latitude>-15.7605556</latitude>
    <longitude>33.1111111</longitude>
  </city>
  <city name="Aldeia Chirowa">
    <latitude>-15.0627778</latitude>
    <longitude>33.3216667</longitude>
  </city>
  <city name="Aldeia Chissanga">
    <latitude>-12.4477778</latitude>
    <longitude>34.7041667</longitude>
  </city>
  <city name="Aldeia Chissete">
    <latitude>-15.4869444</latitude>
    <longitude>32.3577778</longitude>
  </city>
  <city name="Aldeia Chitanda">
    <latitude>-13.8397222</latitude>
    <longitude>35.5063889</longitude>
  </city>
  <city name="Aldeia Chitesse">
    <latitude>-15.3222222</latitude>
    <longitude>32.5627778</longitude>
  </city>
  <city name="Aldeia Chitolo">
    <latitude>-12.5752778</latitude>
    <longitude>36.4597222</longitude>
  </city>
  <city name="Aldeia Chitondo">
    <latitude>-16.5225</latitude>
    <longitude>33.0783333</longitude>
  </city>
  <city name="Aldeia Chitula">
    <latitude>-12.9647222</latitude>
    <longitude>35.1016667</longitude>
  </city>
  <city name="Aldeia Chiuanjota">
    <latitude>-12.9611111</latitude>
    <longitude>35.7408333</longitude>
  </city>
  <city name="Aldeia Chiuindi">
    <latitude>-11.5788889</latitude>
    <longitude>34.9716667</longitude>
  </city>
  <city name="Aldeia Chiuta">
    <latitude>-15.5622222</latitude>
    <longitude>33.2897222</longitude>
  </city>
  <city name="Aldeia Chiutumbo">
    <latitude>-15.4227778</latitude>
    <longitude>31.8913889</longitude>
  </city>
  <city name="Aldeia Chivigo">
    <latitude>-13.2533333</latitude>
    <longitude>35.0941667</longitude>
  </city>
  <city name="Aldeia Chivungo">
    <latitude>-15.2861111</latitude>
    <longitude>32.4580556</longitude>
  </city>
  <city name="Aldeia Chiwai">
    <latitude>-16.6355556</latitude>
    <longitude>33.0811111</longitude>
  </city>
  <city name="Aldeia Chuala">
    <latitude>-18.4044444</latitude>
    <longitude>33.2372222</longitude>
  </city>
  <city name="Aldeia Chuchamano">
    <latitude>-16.9594444</latitude>
    <longitude>32.8677778</longitude>
  </city>
  <city name="Aldeia Chyia">
    <latitude>-14.7927778</latitude>
    <longitude>34.1702778</longitude>
  </city>
  <city name="Aldeia Coamba">
    <latitude>-16.6291667</latitude>
    <longitude>33.1525</longitude>
  </city>
  <city name="Aldeia Coloca">
    <latitude>-13.9322222</latitude>
    <longitude>35.3111111</longitude>
  </city>
  <city name="Aldeia Colongo">
    <latitude>-13.3547222</latitude>
    <longitude>35.32</longitude>
  </city>
  <city name="Aldeia Colope">
    <latitude>-13.8872222</latitude>
    <longitude>37.3605556</longitude>
  </city>
  <city name="Aldeia Comunais 25 de Setembro">
    <latitude>-24.3119444</latitude>
    <longitude>32.7777778</longitude>
  </city>
  <city name="Aldeia Comunais Benzane">
    <latitude>-24.7663889</latitude>
    <longitude>32.8325</longitude>
  </city>
  <city name="Aldeia Comunais Chacana">
    <latitude>-24.8369444</latitude>
    <longitude>32.1883333</longitude>
  </city>
  <city name="Aldeia Comunais Chicuembo">
    <latitude>-24.8683333</latitude>
    <longitude>32.3061111</longitude>
  </city>
  <city name="Aldeia Comunais Chicutso">
    <latitude>-24.5708333</latitude>
    <longitude>32.6647222</longitude>
  </city>
  <city name="Aldeia Comunais Cuambate">
    <latitude>-24.4461111</latitude>
    <longitude>32.0938889</longitude>
  </city>
  <city name="Aldeia Comunais Fúcuè">
    <latitude>-24.1375</latitude>
    <longitude>32.7241667</longitude>
  </city>
  <city name="Aldeia Comunais III Congresso">
    <latitude>-24.1641667</latitude>
    <longitude>32.5063889</longitude>
  </city>
  <city name="Aldeia Comunais Kaptine">
    <latitude>-24.7830556</latitude>
    <longitude>32.1105556</longitude>
  </city>
  <city name="Aldeia Comunais Macarringue">
    <latitude>-24.1244444</latitude>
    <longitude>32.6019444</longitude>
  </city>
  <city name="Aldeia Comunais Machel">
    <latitude>-24.5036111</latitude>
    <longitude>32.9533333</longitude>
  </city>
  <city name="Aldeia Comunais Maconquele">
    <latitude>-24.1041667</latitude>
    <longitude>32.5233333</longitude>
  </city>
  <city name="Aldeia Comunais Malonguene">
    <latitude>-24.3911111</latitude>
    <longitude>32.1227778</longitude>
  </city>
  <city name="Aldeia Comunais Manhiça">
    <latitude>-24.0513889</latitude>
    <longitude>32.4672222</longitude>
  </city>
  <city name="Aldeia Comunais Manjangue">
    <latitude>-24.435</latitude>
    <longitude>32.8475</longitude>
  </city>
  <city name="Aldeia Comunais Massebocane">
    <latitude>-24.8811111</latitude>
    <longitude>32.5513889</longitude>
  </city>
  <city name="Aldeia Comunais Matuba">
    <latitude>-24.4947222</latitude>
    <longitude>32.9088889</longitude>
  </city>
  <city name="Aldeia Comunais Mechangana">
    <latitude>-24.8202778</latitude>
    <longitude>32.2633333</longitude>
  </city>
  <city name="Aldeia Comunais Mingonzo">
    <latitude>-24.2369444</latitude>
    <longitude>32.2013889</longitude>
  </city>
  <city name="Aldeia Comunais Mubanguer">
    <latitude>-24.4052778</latitude>
    <longitude>32.9336111</longitude>
  </city>
  <city name="Aldeia Comunais Munhamane">
    <latitude>-24.0213889</latitude>
    <longitude>32.4422222</longitude>
  </city>
  <city name="Aldeia Comunais Nhivane">
    <latitude>-24.8913889</latitude>
    <longitude>32.3205556</longitude>
  </city>
  <city name="Aldeia Comunais Obrigado Tanzania">
    <latitude>-24.1652778</latitude>
    <longitude>32.5758333</longitude>
  </city>
  <city name="Aldeia Comunais Ringane">
    <latitude>-24.2158333</latitude>
    <longitude>32.2772222</longitude>
  </city>
  <city name="Aldeia Comunais Uafecula">
    <latitude>-24.9561111</latitude>
    <longitude>32.5680556</longitude>
  </city>
  <city name="Aldeia Comunais Uambjana">
    <latitude>-24.8152778</latitude>
    <longitude>32.8913889</longitude>
  </city>
  <city name="Aldeia Comunais Unguca">
    <latitude>-24.8305556</latitude>
    <longitude>32.8555556</longitude>
  </city>
  <city name="Aldeia Comunais Zulu">
    <latitude>-24.0066667</latitude>
    <longitude>32.4594444</longitude>
  </city>
  <city name="Aldeia Conceição">
    <latitude>-26.1761111</latitude>
    <longitude>32.3358333</longitude>
  </city>
  <city name="Aldeia Creva">
    <latitude>-14.5613889</latitude>
    <longitude>34.1175</longitude>
  </city>
  <city name="Aldeia Cuambe">
    <latitude>-24.1880556</latitude>
    <longitude>34.7872222</longitude>
  </city>
  <city name="Aldeia Cuanzeu">
    <latitude>-15.8669444</latitude>
    <longitude>32.1447222</longitude>
  </city>
  <city name="Aldeia Cumbe">
    <latitude>-14.6222222</latitude>
    <longitude>34.0777778</longitude>
  </city>
  <city name="Aldeia Cussarara">
    <latitude>-14.0102778</latitude>
    <longitude>33.2233333</longitude>
  </city>
  <city name="Aldeia da Graça">
    <latitude>-24.6836111</latitude>
    <longitude>33.1736111</longitude>
  </city>
  <city name="Aldeia Dala">
    <latitude>-14.5036111</latitude>
    <longitude>34.0475</longitude>
  </city>
  <city name="Aldeia da Madragoa">
    <latitude>-24.6888889</latitude>
    <longitude>33.2597222</longitude>
  </city>
  <city name="Aldeia das Laranjeras">
    <latitude>-24.5733333</latitude>
    <longitude>33.9180556</longitude>
  </city>
  <city name="Aldeia Daúdo">
    <latitude>-24.4763889</latitude>
    <longitude>34.3030556</longitude>
  </city>
  <city name="Aldeia de Folgares">
    <latitude>-24.6675</latitude>
    <longitude>33.0977778</longitude>
  </city>
  <city name="Aldeia de Freixiel">
    <latitude>-24.6213889</latitude>
    <longitude>33.1138889</longitude>
  </city>
  <city name="Aldeia de Lionde">
    <latitude>-24.5830556</latitude>
    <longitude>33.0611111</longitude>
  </city>
  <city name="Aldeia Demera">
    <latitude>-16.3925</latitude>
    <longitude>33.3152778</longitude>
  </city>
  <city name="Aldeia de Ourique">
    <latitude>-24.7377778</latitude>
    <longitude>33.1255556</longitude>
  </city>
  <city name="Aldeia de Pegões">
    <latitude>-24.7083333</latitude>
    <longitude>33.37</longitude>
  </city>
  <city name="Aldeia de Sagres">
    <latitude>-24.6808333</latitude>
    <longitude>33.0202778</longitude>
  </city>
  <city name="Aldeia de Santa Comba">
    <latitude>-24.7397222</latitude>
    <longitude>33.2958333</longitude>
  </city>
  <city name="Aldeia de Santana">
    <latitude>-24.6755556</latitude>
    <longitude>33.3241667</longitude>
  </city>
  <city name="Aldeia Devo">
    <latitude>-16.9986111</latitude>
    <longitude>33.8105556</longitude>
  </city>
  <city name="Aldeia doEspirito Santo">
    <latitude>-25.9027778</latitude>
    <longitude>32.6572222</longitude>
  </city>
  <city name="Aldeia dos Pescadores">
    <latitude>-25.9011111</latitude>
    <longitude>32.66</longitude>
  </city>
  <city name="Aldeia dos São Guerra">
    <latitude>-23.4119444</latitude>
    <longitude>35.3572222</longitude>
  </city>
  <city name="Aldeia Drunga">
    <latitude>-16.9430556</latitude>
    <longitude>32.8966667</longitude>
  </city>
  <city name="Aldeia Duanga">
    <latitude>-14.4008333</latitude>
    <longitude>32.1405556</longitude>
  </city>
  <city name="Aldeia Dzenda">
    <latitude>-15.4808333</latitude>
    <longitude>32.1875</longitude>
  </city>
  <city name="Aldeia Ferreira">
    <latitude>-14.9838889</latitude>
    <longitude>39.7375</longitude>
  </city>
  <city name="Aldeia Flandue">
    <latitude>-16.7844444</latitude>
    <longitude>34.7666667</longitude>
  </city>
  <city name="Aldeia Fombe">
    <latitude>-18.6622222</latitude>
    <longitude>33.6430556</longitude>
  </city>
  <city name="Aldeia Forte Malanguene">
    <latitude>-14.6833333</latitude>
    <longitude>34.5233333</longitude>
  </city>
  <city name="Aldeia Gimica">
    <latitude>-15.5205556</latitude>
    <longitude>33.1602778</longitude>
  </city>
  <city name="Aldeia Goba">
    <latitude>-16.3908333</latitude>
    <longitude>33.2869444</longitude>
  </city>
  <city name="Aldeia Goche">
    <latitude>-15.5519444</latitude>
    <longitude>31.7775</longitude>
  </city>
  <city name="Aldeia Gomacheza">
    <latitude>-15.4611111</latitude>
    <longitude>33.7722222</longitude>
  </city>
  <city name="Aldeia Gonçalo">
    <latitude>-16.8261111</latitude>
    <longitude>34.785</longitude>
  </city>
  <city name="Aldeia Graca">
    <latitude>-25.9430556</latitude>
    <longitude>32.0430556</longitude>
  </city>
  <city name="Aldeia Honde">
    <latitude>-18.3202778</latitude>
    <longitude>33.2091667</longitude>
  </city>
  <city name="Aldeia Jairosse">
    <latitude>-14.6091667</latitude>
    <longitude>34.1388889</longitude>
  </city>
  <city name="Aldeia Jole">
    <latitude>-14.6872222</latitude>
    <longitude>34.2111111</longitude>
  </city>
  <city name="Aldeia Julius Nyerere">
    <latitude>-18.0722222</latitude>
    <longitude>33.2794444</longitude>
  </city>
  <city name="Aldeia Kapiriuta">
    <latitude>-14.4769444</latitude>
    <longitude>33.9386111</longitude>
  </city>
  <city name="Aldeia Katondo">
    <latitude>-14.7955556</latitude>
    <longitude>33.9780556</longitude>
  </city>
  <city name="Aldeia Kavago">
    <latitude>-13.0175</latitude>
    <longitude>35.4363889</longitude>
  </city>
  <city name="Aldeia L. Borges">
    <latitude>-26.6575</latitude>
    <longitude>32.1583333</longitude>
  </city>
  <city name="Aldeia Licamba">
    <latitude>-12.3836111</latitude>
    <longitude>34.92</longitude>
  </city>
  <city name="Aldeia Lifunda">
    <latitude>-16.9686111</latitude>
    <longitude>33.0594444</longitude>
  </city>
  <city name="Aldeia Ligogolo">
    <latitude>-12.9394444</latitude>
    <longitude>35.7355556</longitude>
  </city>
  <city name="Aldeia Lihuchi">
    <latitude>-11.7497222</latitude>
    <longitude>34.9613889</longitude>
  </city>
  <city name="Aldeia Limbe">
    <latitude>-12.2416667</latitude>
    <longitude>34.8483333</longitude>
  </city>
  <city name="Aldeia Limbue">
    <latitude>-12.3772222</latitude>
    <longitude>34.71</longitude>
  </city>
  <city name="Aldeia Lindimula">
    <latitude>-14.6361111</latitude>
    <longitude>34.5233333</longitude>
  </city>
  <city name="Aldeia Lingombe">
    <latitude>-15.1919444</latitude>
    <longitude>31.5047222</longitude>
  </city>
  <city name="Aldeia Lipaque">
    <latitude>-15.4538889</latitude>
    <longitude>33.2588889</longitude>
  </city>
  <city name="Aldeia Lipirize">
    <latitude>-24.1466667</latitude>
    <longitude>34.4969444</longitude>
  </city>
  <city name="Aldeia Lipombue">
    <latitude>-13.0672222</latitude>
    <longitude>35.1863889</longitude>
  </city>
  <city name="Aldeia Lissenguece">
    <latitude>-12.3294444</latitude>
    <longitude>34.7686111</longitude>
  </city>
  <city name="Aldeia Litete">
    <latitude>-13.9605556</latitude>
    <longitude>35.4344444</longitude>
  </city>
  <city name="Aldeia Litombochi">
    <latitude>-11.6413889</latitude>
    <longitude>35.2894444</longitude>
  </city>
  <city name="Aldeia Longa">
    <latitude>-11.7280556</latitude>
    <longitude>34.9625</longitude>
  </city>
  <city name="Aldeia Luambala">
    <latitude>-13.5983333</latitude>
    <longitude>35.5175</longitude>
  </city>
  <city name="Aldeia Luatize">
    <latitude>-12.6580556</latitude>
    <longitude>36.1622222</longitude>
  </city>
  <city name="Aldeia Lucessi">
    <latitude>-12.9011111</latitude>
    <longitude>34.7722222</longitude>
  </city>
  <city name="Aldeia Lucucho">
    <latitude>-13.7388889</latitude>
    <longitude>35.5427778</longitude>
  </city>
  <city name="Aldeia Lucumue">
    <latitude>-13.3330556</latitude>
    <longitude>35.2986111</longitude>
  </city>
  <city name="Aldeia Luiga">
    <latitude>-12.4591667</latitude>
    <longitude>34.9769444</longitude>
  </city>
  <city name="Aldeia Lulimire">
    <latitude>-13.34</latitude>
    <longitude>35.2486111</longitude>
  </city>
  <city name="Aldeia Lumbaulo">
    <latitude>-11.8352778</latitude>
    <longitude>34.9675</longitude>
  </city>
  <city name="Aldeia Lumbe">
    <latitude>-13.4205556</latitude>
    <longitude>35.2594444</longitude>
  </city>
  <city name="Aldeia Luombuo">
    <latitude>-16.6619444</latitude>
    <longitude>34.2658333</longitude>
  </city>
  <city name="Aldeia Lusefa">
    <latitude>-12.8841667</latitude>
    <longitude>34.7747222</longitude>
  </city>
  <city name="Aldeia Lussanga">
    <latitude>-13.79</latitude>
    <longitude>35.3558333</longitude>
  </city>
  <city name="Aldeia Lussingene">
    <latitude>-12.9766667</latitude>
    <longitude>35.5063889</longitude>
  </city>
  <city name="Aldeia Lutenguene">
    <latitude>-11.6619444</latitude>
    <longitude>35.1144444</longitude>
  </city>
  <city name="Aldeia Luzina">
    <latitude>-15.3183333</latitude>
    <longitude>31.7141667</longitude>
  </city>
  <city name="Aldeia Mabauane">
    <latitude>-25.0383333</latitude>
    <longitude>33.3747222</longitude>
  </city>
  <city name="Aldeia Mabinda">
    <latitude>-24.4986111</latitude>
    <longitude>34.1008333</longitude>
  </city>
  <city name="Aldeia Mabwedzi">
    <latitude>-15.8094444</latitude>
    <longitude>33.4730556</longitude>
  </city>
  <city name="Aldeia Macasse">
    <latitude>-24.4727778</latitude>
    <longitude>34.615</longitude>
  </city>
  <city name="Aldeia Machava">
    <latitude>-24.2016667</latitude>
    <longitude>34.6622222</longitude>
  </city>
  <city name="Aldeia Macondece">
    <latitude>-12.2030556</latitude>
    <longitude>34.8627778</longitude>
  </city>
  <city name="Aldeia Magaço">
    <latitude>-16.9202778</latitude>
    <longitude>33.0463889</longitude>
  </city>
  <city name="Aldeia Majongota">
    <latitude>-24.4516667</latitude>
    <longitude>34.6027778</longitude>
  </city>
  <city name="Aldeia Majune">
    <latitude>-13.435</latitude>
    <longitude>36.1752778</longitude>
  </city>
  <city name="Aldeia Mala">
    <latitude>-12.1938889</latitude>
    <longitude>34.6994444</longitude>
  </city>
  <city name="Aldeia Malambue">
    <latitude>-15.2261111</latitude>
    <longitude>31.5233333</longitude>
  </city>
  <city name="Aldeia Malica">
    <latitude>-13.1794444</latitude>
    <longitude>35.1863889</longitude>
  </city>
  <city name="Aldeia Mamirrupa">
    <latitude>-13.7341667</latitude>
    <longitude>37.26</longitude>
  </city>
  <city name="Aldeia Mango">
    <latitude>-14.7911111</latitude>
    <longitude>32.4563889</longitude>
  </city>
  <city name="Aldeia Mapango">
    <latitude>-14.9655556</latitude>
    <longitude>32.2425</longitude>
  </city>
  <city name="Aldeia Mapupulo">
    <latitude>-13.2213889</latitude>
    <longitude>38.8761111</longitude>
  </city>
  <city name="Aldeia Marara">
    <latitude>-16.0055556</latitude>
    <longitude>33.2286111</longitude>
  </city>
  <city name="Aldeia Maroeira">
    <latitude>-15.6438889</latitude>
    <longitude>32.8177778</longitude>
  </city>
  <city name="Aldeia Martins Santareno">
    <latitude>-14.3772222</latitude>
    <longitude>35.89</longitude>
  </city>
  <city name="Aldeia Massamba">
    <latitude>-15.6441667</latitude>
    <longitude>33.6872222</longitude>
  </city>
  <city name="Aldeia Massangere">
    <latitude>-13.2622222</latitude>
    <longitude>35.22</longitude>
  </city>
  <city name="Aldeia Massano">
    <latitude>-24.9841667</latitude>
    <longitude>34.0313889</longitude>
  </city>
  <city name="Aldeia Massatwe">
    <latitude>-15.4866667</latitude>
    <longitude>33.1275</longitude>
  </city>
  <city name="Aldeia Massecha">
    <latitude>-15.7127778</latitude>
    <longitude>32.7036111</longitude>
  </city>
  <city name="Aldeia Massingir Velho">
    <latitude>-23.8338889</latitude>
    <longitude>31.9008333</longitude>
  </city>
  <city name="Aldeia Mataca">
    <latitude>-12.0830556</latitude>
    <longitude>34.8144444</longitude>
  </city>
  <city name="Aldeia Matambo">
    <latitude>-16.255</latitude>
    <longitude>33.4427778</longitude>
  </city>
  <city name="Aldeia Matemango">
    <latitude>-13.1355556</latitude>
    <longitude>35.2802778</longitude>
  </city>
  <city name="Aldeia Matumbué">
    <latitude>-13.115</latitude>
    <longitude>35.1711111</longitude>
  </city>
  <city name="Aldeia Maulemaule">
    <latitude>-16.8708333</latitude>
    <longitude>33.0047222</longitude>
  </city>
  <city name="Aldeia Mazamba">
    <latitude>-15.1491667</latitude>
    <longitude>31.0972222</longitude>
  </city>
  <city name="Aldeia Mazogo">
    <latitude>-12.9386111</latitude>
    <longitude>35.0194444</longitude>
  </city>
  <city name="Aldeia Mazoi">
    <latitude>-16.6472222</latitude>
    <longitude>33.0988889</longitude>
  </city>
  <city name="Aldeia M'bemba">
    <latitude>-13.0766667</latitude>
    <longitude>35.2069444</longitude>
  </city>
  <city name="Aldeia Mbueca">
    <latitude>-12.3044444</latitude>
    <longitude>34.7144444</longitude>
  </city>
  <city name="Aldeia Mbulise">
    <latitude>-12.5227778</latitude>
    <longitude>35.4461111</longitude>
  </city>
  <city name="Aldeia Mbuna">
    <latitude>-12.2627778</latitude>
    <longitude>34.72</longitude>
  </city>
  <city name="Aldeia Mecalanila">
    <latitude>-12.0188889</latitude>
    <longitude>34.8969444</longitude>
  </city>
  <city name="Aldeia Mecava">
    <latitude>-13.89</latitude>
    <longitude>35.6725</longitude>
  </city>
  <city name="Aldeia Mecual">
    <latitude>-13.3672222</latitude>
    <longitude>36.0511111</longitude>
  </city>
  <city name="Aldeia Melo Egidio">
    <latitude>-14.3177778</latitude>
    <longitude>35.8547222</longitude>
  </city>
  <city name="Aldeia Mepapaia">
    <latitude>-15.6019444</latitude>
    <longitude>31.1538889</longitude>
  </city>
  <city name="Aldeia Mepenha">
    <latitude>-14.5902778</latitude>
    <longitude>34.4330556</longitude>
  </city>
  <city name="Aldeia Messu">
    <latitude>-15.4761111</latitude>
    <longitude>33.3583333</longitude>
  </city>
  <city name="Aldeia Metonia">
    <latitude>-13.4905556</latitude>
    <longitude>35.3072222</longitude>
  </city>
  <city name="Aldeia Metora">
    <latitude>-14.5013889</latitude>
    <longitude>34.0777778</longitude>
  </city>
  <city name="Aldeia Metumbe">
    <latitude>-11.9411111</latitude>
    <longitude>34.9075</longitude>
  </city>
  <city name="Aldeia Micuinha">
    <latitude>-13.0641667</latitude>
    <longitude>36.2047222</longitude>
  </city>
  <city name="Aldeia Mifumbe">
    <latitude>-15.6263889</latitude>
    <longitude>33.2441667</longitude>
  </city>
  <city name="Aldeia Milanda">
    <latitude>-15.0563889</latitude>
    <longitude>33.4288889</longitude>
  </city>
  <city name="Aldeia Milepa">
    <latitude>-11.7338889</latitude>
    <longitude>36.2922222</longitude>
  </city>
  <city name="Aldeia Mirinde">
    <latitude>-15.9916667</latitude>
    <longitude>33.4355556</longitude>
  </city>
  <city name="Aldeia Missanja">
    <latitude>-14.4830556</latitude>
    <longitude>34.1569444</longitude>
  </city>
  <city name="Aldeia Missaua">
    <latitude>-16.31</latitude>
    <longitude>33.4227778</longitude>
  </city>
  <city name="Aldeia Mitamba">
    <latitude>-13.8883333</latitude>
    <longitude>35.4183333</longitude>
  </city>
  <city name="Aldeia Mithethe">
    <latitude>-16.6936111</latitude>
    <longitude>33.3311111</longitude>
  </city>
  <city name="Aldeia Moronde">
    <latitude>-18.5313889</latitude>
    <longitude>33.0408333</longitude>
  </city>
  <city name="Aldeia Mpeia">
    <latitude>-11.6941667</latitude>
    <longitude>35.1711111</longitude>
  </city>
  <city name="Aldeia Mphemba">
    <latitude>-15.485</latitude>
    <longitude>31.6794444</longitude>
  </city>
  <city name="Aldeia M'Pomba">
    <latitude>-15.5683333</latitude>
    <longitude>33.4466667</longitude>
  </city>
  <city name="Aldeia Mpuephue">
    <latitude>-15.365</latitude>
    <longitude>31.4933333</longitude>
  </city>
  <city name="Aldeia Msemene">
    <latitude>-15.4375</latitude>
    <longitude>33.4936111</longitude>
  </city>
  <city name="Aldeia Mtovo">
    <latitude>-15.6463889</latitude>
    <longitude>33.2419444</longitude>
  </city>
  <city name="Aldeia Muabvi">
    <latitude>-15.2061111</latitude>
    <longitude>33.0466667</longitude>
  </city>
  <city name="Aldeia Muapula">
    <latitude>-13.7697222</latitude>
    <longitude>36.8944444</longitude>
  </city>
  <city name="Aldeia Mucanda">
    <latitude>-14.0925</latitude>
    <longitude>33.0919444</longitude>
  </city>
  <city name="Aldeia Mucanga">
    <latitude>-15.1186111</latitude>
    <longitude>31.8555556</longitude>
  </city>
  <city name="Aldeia Muchamba">
    <latitude>-16.0830556</latitude>
    <longitude>33.2158333</longitude>
  </city>
  <city name="Aldeia Muchena">
    <latitude>-15.6822222</latitude>
    <longitude>33.8055556</longitude>
  </city>
  <city name="Aldeia Muchenga">
    <latitude>-12.5225</latitude>
    <longitude>34.7294444</longitude>
  </city>
  <city name="Aldeia Mucheni">
    <latitude>-15.3516667</latitude>
    <longitude>31.5441667</longitude>
  </city>
  <city name="Aldeia Mudzimbe">
    <latitude>-15.3425</latitude>
    <longitude>33.0711111</longitude>
  </city>
  <city name="Aldeia Muenheher">
    <latitude>-13.8269444</latitude>
    <longitude>36.1141667</longitude>
  </city>
  <city name="Aldeia Mugoma">
    <latitude>-13.7769444</latitude>
    <longitude>37.305</longitude>
  </city>
  <city name="Aldeia Mulinji">
    <latitude>-16.0111111</latitude>
    <longitude>32.27</longitude>
  </city>
  <city name="Aldeia Mulumbue">
    <latitude>-15.5563889</latitude>
    <longitude>32.6972222</longitude>
  </city>
  <city name="Aldeia Muongota">
    <latitude>-13.2880556</latitude>
    <longitude>35.0697222</longitude>
  </city>
  <city name="Aldeia Mussa">
    <latitude>-13.2891667</latitude>
    <longitude>35.4752778</longitude>
  </city>
  <city name="Aldeia Mussengere">
    <latitude>-18.4441667</latitude>
    <longitude>33.5380556</longitude>
  </city>
  <city name="Aldeia Mvzi">
    <latitude>-16.5041667</latitude>
    <longitude>33.4066667</longitude>
  </city>
  <city name="Aldeia Nacapa">
    <latitude>-13.4283333</latitude>
    <longitude>37.3866667</longitude>
  </city>
  <city name="Aldeia Nachinanga">
    <latitude>-16.7019444</latitude>
    <longitude>33.0627778</longitude>
  </city>
  <city name="Aldeia Naedane">
    <latitude>-24.0136111</latitude>
    <longitude>35.2852778</longitude>
  </city>
  <city name="Aldeia Naliuila">
    <latitude>-13.2372222</latitude>
    <longitude>35.2122222</longitude>
  </city>
  <city name="Aldeia Namacungua">
    <latitude>-12.4122222</latitude>
    <longitude>34.7105556</longitude>
  </city>
  <city name="Aldeia Nambe">
    <latitude>-15.3813889</latitude>
    <longitude>31.7786111</longitude>
  </city>
  <city name="Aldeia Namisse">
    <latitude>-12.1644444</latitude>
    <longitude>34.7361111</longitude>
  </city>
  <city name="Aldeia Namuela">
    <latitude>-13.3675</latitude>
    <longitude>37.3980556</longitude>
  </city>
  <city name="Aldeia Nanzenhenje">
    <latitude>-13.0016667</latitude>
    <longitude>35.3183333</longitude>
  </city>
  <city name="Aldeia Nauca">
    <latitude>-13.2211111</latitude>
    <longitude>35.2113889</longitude>
  </city>
  <city name="Aldeia Ncalangoma">
    <latitude>-13.4041667</latitude>
    <longitude>35.3211111</longitude>
  </city>
  <city name="Aldeia Nchatwé">
    <latitude>-14.5508333</latitude>
    <longitude>33.86</longitude>
  </city>
  <city name="Aldeia Nchinji">
    <latitude>-12.5405556</latitude>
    <longitude>34.7441667</longitude>
  </city>
  <city name="Aldeia Ndalala">
    <latitude>-12.2747222</latitude>
    <longitude>34.8202778</longitude>
  </city>
  <city name="Aldeia Nduica">
    <latitude>-13.0694444</latitude>
    <longitude>35.2588889</longitude>
  </city>
  <city name="Aldeia Necungas">
    <latitude>-16.1769444</latitude>
    <longitude>34.2747222</longitude>
  </city>
  <city name="Aldeia Nganfua">
    <latitude>-12.1291667</latitude>
    <longitude>34.7761111</longitude>
  </city>
  <city name="Aldeia Ngavo">
    <latitude>-13.0644444</latitude>
    <longitude>35.4402778</longitude>
  </city>
  <city name="Aldeia Ngofi">
    <latitude>-11.9244444</latitude>
    <longitude>34.9147222</longitude>
  </city>
  <city name="Aldeia Ngombe">
    <latitude>-11.6863889</latitude>
    <longitude>34.9722222</longitude>
  </city>
  <city name="Aldeia Ngongote">
    <latitude>-13.0419444</latitude>
    <longitude>35.2777778</longitude>
  </city>
  <city name="Aldeia Ngonha">
    <latitude>-11.7072222</latitude>
    <longitude>34.9680556</longitude>
  </city>
  <city name="Aldeia Ngoo">
    <latitude>-12.4344444</latitude>
    <longitude>34.7047222</longitude>
  </city>
  <city name="Aldeia Ngulo">
    <latitude>-15.4647222</latitude>
    <longitude>32.2769444</longitude>
  </city>
  <city name="Aldeia Nhacawanda">
    <latitude>-16.4769444</latitude>
    <longitude>33.4686111</longitude>
  </city>
  <city name="Aldeia Nhagondoa">
    <latitude>-16.4175</latitude>
    <longitude>33.5416667</longitude>
  </city>
  <city name="Aldeia Nhagondua">
    <latitude>-16.2311111</latitude>
    <longitude>33.2638889</longitude>
  </city>
  <city name="Aldeia Nhalupanda">
    <latitude>-16.2277778</latitude>
    <longitude>33.6761111</longitude>
  </city>
  <city name="Aldeia Nhamadzonso">
    <latitude>-16.4680556</latitude>
    <longitude>33.0041667</longitude>
  </city>
  <city name="Aldeia Nhamatema">
    <latitude>-18.4869444</latitude>
    <longitude>33.2866667</longitude>
  </city>
  <city name="Aldeia Nhancadenga">
    <latitude>-16.3663889</latitude>
    <longitude>33.2269444</longitude>
  </city>
  <city name="Aldeia Nhanchinde">
    <latitude>-15.0877778</latitude>
    <longitude>33.4491667</longitude>
  </city>
  <city name="Aldeia Nhancono">
    <latitude>-15.3241667</latitude>
    <longitude>31.6177778</longitude>
  </city>
  <city name="Aldeia Nhankwalakwald">
    <latitude>-16.3513889</latitude>
    <longitude>33.2652778</longitude>
  </city>
  <city name="Aldeia Nhantaro">
    <latitude>-15.3572222</latitude>
    <longitude>31.8636111</longitude>
  </city>
  <city name="Aldeia Nhathebo">
    <latitude>-16.8369444</latitude>
    <longitude>33.1769444</longitude>
  </city>
  <city name="Aldeia Nhocassaro">
    <latitude>-18.3444444</latitude>
    <longitude>33.6705556</longitude>
  </city>
  <city name="Aldeia Nkolongue">
    <latitude>-12.1358333</latitude>
    <longitude>34.7736111</longitude>
  </city>
  <city name="Aldeia Nomba">
    <latitude>-13.3455556</latitude>
    <longitude>35.2677778</longitude>
  </city>
  <city name="Aldeia Nova">
    <latitude>-23.5713889</latitude>
    <longitude>32.8933333</longitude>
  </city>
  <city name="Aldeia Nova Viseu">
    <latitude>-13.0361111</latitude>
    <longitude>36.1344444</longitude>
  </city>
  <city name="Aldeia Novele">
    <latitude>-24.0602778</latitude>
    <longitude>34.6541667</longitude>
  </city>
  <city name="Aldeia Ntawa">
    <latitude>-15.3547222</latitude>
    <longitude>32.6108333</longitude>
  </city>
  <city name="Aldeia Ntayansupa">
    <latitude>-15.2283333</latitude>
    <longitude>32.2136111</longitude>
  </city>
  <city name="Aldeia Ntiuili">
    <latitude>-13.1644444</latitude>
    <longitude>35.3619444</longitude>
  </city>
  <city name="Aldeia Pacassa">
    <latitude>-16.3705556</latitude>
    <longitude>33.4197222</longitude>
  </city>
  <city name="Aldeia Panaema">
    <latitude>-13.3783333</latitude>
    <longitude>37.4944444</longitude>
  </city>
  <city name="Aldeia Panze">
    <latitude>-18.3247222</latitude>
    <longitude>33.1427778</longitude>
  </city>
  <city name="Aldeia Pereira">
    <latitude>-24.4747222</latitude>
    <longitude>33.3211111</longitude>
  </city>
  <city name="Aldeia Piaoro">
    <latitude>-16.4480556</latitude>
    <longitude>32.7713889</longitude>
  </city>
  <city name="Aldeia Piedade">
    <latitude>-15.2011111</latitude>
    <longitude>39.3841667</longitude>
  </city>
  <city name="Aldeia Poca">
    <latitude>-25.8438889</latitude>
    <longitude>32.4397222</longitude>
  </city>
  <city name="Aldeia Revué">
    <latitude>-18.9675</latitude>
    <longitude>33.0280556</longitude>
  </city>
  <city name="Aldeia Rodriques">
    <latitude>-23.1730556</latitude>
    <longitude>35.3975</longitude>
  </city>
  <city name="Aldeia Sachi">
    <latitude>-12.1019444</latitude>
    <longitude>34.8127778</longitude>
  </city>
  <city name="Aldéia São José de Ribamar">
    <latitude>-24.6361111</latitude>
    <longitude>33.1766667</longitude>
  </city>
  <city name="Aldeia Sasserimbe">
    <latitude>-16.8766667</latitude>
    <longitude>34.7527778</longitude>
  </city>
  <city name="Aldeia Satemua">
    <latitude>-14.8136111</latitude>
    <longitude>34.4469444</longitude>
  </city>
  <city name="Aldeia Saymica">
    <latitude>-15.4213889</latitude>
    <longitude>33.4488889</longitude>
  </city>
  <city name="Aldeia Silva">
    <latitude>-23.5713889</latitude>
    <longitude>35.3580556</longitude>
  </city>
  <city name="Aldeia Socossera">
    <latitude>-13.7616667</latitude>
    <longitude>37.2747222</longitude>
  </city>
  <city name="Aldeia S. Tiago">
    <latitude>-24.7044444</latitude>
    <longitude>33.0919444</longitude>
  </city>
  <city name="Aldeia Sunge">
    <latitude>-16.5422222</latitude>
    <longitude>33.9461111</longitude>
  </city>
  <city name="Aldeia Teixeira">
    <latitude>-24.0427778</latitude>
    <longitude>35.3058333</longitude>
  </city>
  <city name="Aldeia Tempue">
    <latitude>-13.2538889</latitude>
    <longitude>37.4344444</longitude>
  </city>
  <city name="Aldeia Thaca">
    <latitude>-15.6547222</latitude>
    <longitude>32.6727778</longitude>
  </city>
  <city name="Aldeia Tombo">
    <latitude>-16.0319444</latitude>
    <longitude>33.9216667</longitude>
  </city>
  <city name="Aldeia Tubi">
    <latitude>-12.3483333</latitude>
    <longitude>34.7119444</longitude>
  </city>
  <city name="Aldeia Uchesse">
    <latitude>-12.0469444</latitude>
    <longitude>34.8841667</longitude>
  </city>
  <city name="Aldeia Udala">
    <latitude>-13.8866667</latitude>
    <longitude>35.3758333</longitude>
  </city>
  <city name="Aldeia Uladza">
    <latitude>-15.2338889</latitude>
    <longitude>32.06</longitude>
  </city>
  <city name="Aldeia Ulongué">
    <latitude>-14.7675</latitude>
    <longitude>34.3844444</longitude>
  </city>
  <city name="Aldeia Unga">
    <latitude>-11.7755556</latitude>
    <longitude>34.9627778</longitude>
  </city>
  <city name="Aldeia Ute">
    <latitude>-13.4361111</latitude>
    <longitude>35.3938889</longitude>
  </city>
  <city name="Aldeia Utumuile">
    <latitude>-13.2702778</latitude>
    <longitude>35.1652778</longitude>
  </city>
  <city name="Aldeia Verde">
    <latitude>-25.7130556</latitude>
    <longitude>32.6936111</longitude>
  </city>
  <city name="Aldeia Videira">
    <latitude>-24.7841667</latitude>
    <longitude>34.0827778</longitude>
  </city>
  <city name="Aldeia Vila Formosa">
    <latitude>-16.0697222</latitude>
    <longitude>33.8541667</longitude>
  </city>
  <city name="Aldeia V. Lenine">
    <latitude>-25.0419444</latitude>
    <longitude>33.4847222</longitude>
  </city>
  <city name="Aldeia Vóz Da da Frelimo">
    <latitude>-25.0938889</latitude>
    <longitude>33.4538889</longitude>
  </city>
  <city name="Aldeia Vumbene">
    <latitude>-25.0708333</latitude>
    <longitude>33.0952778</longitude>
  </city>
  <city name="Aldeia Wanga">
    <latitude>-12.6763889</latitude>
    <longitude>36.4277778</longitude>
  </city>
  <city name="Aldeia Wikihi">
    <latitude>-11.6108333</latitude>
    <longitude>34.9636111</longitude>
  </city>
  <city name="Aldeia Wiriamo">
    <latitude>-16.3030556</latitude>
    <longitude>33.6469444</longitude>
  </city>
  <city name="Aldeia Zimete">
    <latitude>-15.3138889</latitude>
    <longitude>33.8158333</longitude>
  </city>
  <city name="Aldeia Zobue">
    <latitude>-14.6925</latitude>
    <longitude>33.7061111</longitude>
  </city>
  <city name="Alecutuile">
    <latitude>-11.7441667</latitude>
    <longitude>38.3897222</longitude>
  </city>
  <city name="Aleixo">
    <latitude>-17.4683333</latitude>
    <longitude>37.2491667</longitude>
  </city>
  <city name="Alenane">
    <latitude>-13.4116667</latitude>
    <longitude>39.7580556</longitude>
  </city>
  <city name="Alexandre">
    <latitude>-24.8066667</latitude>
    <longitude>33.2058333</longitude>
  </city>
  <city name="Alexandre Uamunguene">
    <latitude>-25.7991667</latitude>
    <longitude>32.5369444</longitude>
  </city>
  <city name="Alexandria">
    <latitude>-15.4669444</latitude>
    <longitude>37.3955556</longitude>
  </city>
  <city name="Alface">
    <latitude>-17.6783333</latitude>
    <longitude>35.0422222</longitude>
  </city>
  <city name="Alfaiate">
    <latitude>-18.2833333</latitude>
    <longitude>35.9166667</longitude>
  </city>
  <city name="Alfândega">
    <latitude>-10.5841667</latitude>
    <longitude>40.5188889</longitude>
  </city>
  <city name="Alfandega">
    <latitude>-17.145</latitude>
    <longitude>34.1841667</longitude>
  </city>
  <city name="Alfanete">
    <latitude>-23.2858333</latitude>
    <longitude>35.035</longitude>
  </city>
  <city name="Alfaxêmo">
    <latitude>-15.3833333</latitude>
    <longitude>31.4833333</longitude>
  </city>
  <city name="Alfazêmo">
    <latitude>-15.3833333</latitude>
    <longitude>31.4833333</longitude>
  </city>
  <city name="Alfazer">
    <latitude>-18.1</latitude>
    <longitude>36.55</longitude>
  </city>
  <city name="Alfere">
    <latitude>-16.3388889</latitude>
    <longitude>33.1083333</longitude>
  </city>
  <city name="Alfeu">
    <latitude>-23.0311111</latitude>
    <longitude>35.3877778</longitude>
  </city>
  <city name="Alfeu Manhique">
    <latitude>-24.5222222</latitude>
    <longitude>34.285</longitude>
  </city>
  <city name="Alfiado">
    <latitude>-22.6097222</latitude>
    <longitude>35.1783333</longitude>
  </city>
  <city name="Alfinar">
    <latitude>-18.95</latitude>
    <longitude>35.5166667</longitude>
  </city>
  <city name="Alfinete">
    <latitude>-21.5238889</latitude>
    <longitude>34.8327778</longitude>
  </city>
  <city name="Alfonso">
    <latitude>-17.9066667</latitude>
    <longitude>35.8327778</longitude>
  </city>
  <city name="Alfredo">
    <latitude>-24.5241667</latitude>
    <longitude>33.1819444</longitude>
  </city>
  <city name="Alfredo Uassunhane">
    <latitude>-25.7980556</latitude>
    <longitude>32.5186111</longitude>
  </city>
  <city name="Algiado">
    <latitude>-21.4347222</latitude>
    <longitude>34.5827778</longitude>
  </city>
  <city name="Algueirão">
    <latitude>-20.6922222</latitude>
    <longitude>32.7936111</longitude>
  </city>
  <city name="Algumdia">
    <latitude>-15.9669444</latitude>
    <longitude>33.3044444</longitude>
  </city>
  <city name="Alia">
    <latitude>-14.7744444</latitude>
    <longitude>37.4675</longitude>
  </city>
  <city name="Aliado">
    <latitude>-21.9408333</latitude>
    <longitude>34.76</longitude>
  </city>
  <city name="Ali">
    <latitude>-10.7536111</latitude>
    <longitude>40.3822222</longitude>
  </city>
  <city name="Alianquilè">
    <latitude>-11.3530556</latitude>
    <longitude>39.7383333</longitude>
  </city>
  <city name="Aliasse">
    <latitude>-12.565</latitude>
    <longitude>40.2716667</longitude>
  </city>
  <city name="Alicaca">
    <latitude>-15.4508333</latitude>
    <longitude>36.0080556</longitude>
  </city>
  <city name="Alicene">
    <latitude>-16.9636111</latitude>
    <longitude>36.6308333</longitude>
  </city>
  <city name="Alide">
    <latitude>-13.4391667</latitude>
    <longitude>38.2919444</longitude>
  </city>
  <city name="Alifa">
    <latitude>-12.455</latitude>
    <longitude>39.9019444</longitude>
  </city>
  <city name="Alifane">
    <latitude>-15.0447222</latitude>
    <longitude>40.5769444</longitude>
  </city>
  <city name="Alifanete">
    <latitude>-21.4913889</latitude>
    <longitude>34.7302778</longitude>
  </city>
  <city name="Alifeu">
    <latitude>-22.3727778</latitude>
    <longitude>35.0769444</longitude>
  </city>
  <city name="Alifo">
    <latitude>-11.9272222</latitude>
    <longitude>40.0080556</longitude>
  </city>
  <city name="Aligêma">
    <latitude>-16.1211111</latitude>
    <longitude>39.4016667</longitude>
  </city>
  <city name="Alimepingo">
    <latitude>-10.9869444</latitude>
    <longitude>40.1227778</longitude>
  </city>
  <city name="Alimo">
    <latitude>-12.9547222</latitude>
    <longitude>39.8075</longitude>
  </city>
  <city name="Alimpéria">
    <latitude>-14.7669444</latitude>
    <longitude>40.8227778</longitude>
  </city>
  <city name="Aliparrimo">
    <latitude>-15.9075</latitude>
    <longitude>39.0436111</longitude>
  </city>
  <city name="Alipe">
    <latitude>-15.0333333</latitude>
    <longitude>38.25</longitude>
  </city>
  <city name="Alipo">
    <latitude>-15.8002778</latitude>
    <longitude>39.5691667</longitude>
  </city>
  <city name="Alipolima">
    <latitude>-17.3388889</latitude>
    <longitude>37.8441667</longitude>
  </city>
  <city name="Aliqüè">
    <latitude>-13.1877778</latitude>
    <longitude>35.2161111</longitude>
  </city>
  <city name="Aliquiè">
    <latitude>-13.1877778</latitude>
    <longitude>35.2161111</longitude>
  </city>
  <city name="Aliquìsanda">
    <latitude>-12.0805556</latitude>
    <longitude>34.9813889</longitude>
  </city>
  <city name="Aliquisanga">
    <latitude>-12.0805556</latitude>
    <longitude>34.9813889</longitude>
  </city>
  <city name="Alita">
    <latitude>-11.2458333</latitude>
    <longitude>38.885</longitude>
  </city>
  <city name="Alite">
    <latitude>-11.2458333</latitude>
    <longitude>38.885</longitude>
  </city>
  <city name="Aliti">
    <latitude>-13.1833333</latitude>
    <longitude>40.0833333</longitude>
  </city>
  <city name="Aliua">
    <latitude>-16.9611111</latitude>
    <longitude>37.7080556</longitude>
  </city>
  <city name="Alivangue">
    <latitude>-11.5613889</latitude>
    <longitude>39.1905556</longitude>
  </city>
  <city name="Alivemuene">
    <latitude>-11.7463889</latitude>
    <longitude>40.2447222</longitude>
  </city>
  <city name="Alize">
    <latitude>-16.5533333</latitude>
    <longitude>33.9019444</longitude>
  </city>
  <city name="Almando">
    <latitude>-19.7411111</latitude>
    <longitude>34.8494444</longitude>
  </city>
  <city name="Almeida">
    <latitude>-11.5513889</latitude>
    <longitude>39.4775</longitude>
  </city>
  <city name="Alo">
    <latitude>-13.3666667</latitude>
    <longitude>40.2</longitude>
  </city>
  <city name="Alojo">
    <latitude>-20.8597222</latitude>
    <longitude>34.0775</longitude>
  </city>
  <city name="Alotancomba">
    <latitude>-11.7866667</latitude>
    <longitude>39.6872222</longitude>
  </city>
  <city name="Alotocuanha">
    <latitude>-11.93</latitude>
    <longitude>40.1602778</longitude>
  </city>
  <city name="Altinho">
    <latitude>-14.405</latitude>
    <longitude>37.0319444</longitude>
  </city>
  <city name="Alto Benfica">
    <latitude>-16.6444444</latitude>
    <longitude>36.32</longitude>
  </city>
  <city name="Alto Changane">
    <latitude>-24.3080556</latitude>
    <longitude>33.63</longitude>
  </city>
  <city name="Alto do Mutabide">
    <latitude>-17.1022222</latitude>
    <longitude>37.9766667</longitude>
  </city>
  <city name="Alto Lighona">
    <latitude>-15.5116667</latitude>
    <longitude>38.2591667</longitude>
  </city>
  <city name="Alto Ligonha">
    <latitude>-15.5116667</latitude>
    <longitude>38.2591667</longitude>
  </city>
  <city name="Alto Limpopo">
    <latitude>-22.4530556</latitude>
    <longitude>31.3327778</longitude>
  </city>
  <city name="Alto Maé A">
    <latitude>-25.9558333</latitude>
    <longitude>32.5708333</longitude>
  </city>
  <city name="Alto Maé B">
    <latitude>-25.9625</latitude>
    <longitude>32.5630556</longitude>
  </city>
  <city name="Alto Molócuè">
    <latitude>-15.6355556</latitude>
    <longitude>37.6883333</longitude>
  </city>
  <city name="Alto Molokwe">
    <latitude>-15.6355556</latitude>
    <longitude>37.6883333</longitude>
  </city>
  <city name="Alto Mutabide">
    <latitude>-17.1022222</latitude>
    <longitude>37.9766667</longitude>
  </city>
  <city name="Alua">
    <latitude>-13.9180556</latitude>
    <longitude>39.9138889</longitude>
  </city>
  <city name="Alumane">
    <latitude>-13.0666667</latitude>
    <longitude>39.0666667</longitude>
  </city>
  <city name="Alumar">
    <latitude>-12.9230556</latitude>
    <longitude>39.7541667</longitude>
  </city>
  <city name="Alumeta">
    <latitude>-16.1338889</latitude>
    <longitude>39.1402778</longitude>
  </city>
  <city name="Alupa">
    <latitude>-14.2694444</latitude>
    <longitude>39.2775</longitude>
  </city>
  <city name="Alupache">
    <latitude>-11.9233333</latitude>
    <longitude>39.5194444</longitude>
  </city>
  <city name="Alupo">
    <latitude>-14.8105556</latitude>
    <longitude>40.6041667</longitude>
  </city>
  <city name="Alúto">
    <latitude>-17.0702778</latitude>
    <longitude>35.7919444</longitude>
  </city>
  <city name="Aluzana">
    <latitude>-25.2333333</latitude>
    <longitude>32.2</longitude>
  </city>
  <city name="Alvaro Galiza Matos">
    <latitude>-24.2452778</latitude>
    <longitude>34.8625</longitude>
  </city>
  <city name="Alvaro Pene">
    <latitude>-24.0025</latitude>
    <longitude>35.2130556</longitude>
  </city>
  <city name="Alverca">
    <latitude>-15.4388889</latitude>
    <longitude>36.89</longitude>
  </city>
  <city name="Alves">
    <latitude>-17.3136111</latitude>
    <longitude>35.3472222</longitude>
  </city>
  <city name="Alvor">
    <latitude>-25.4136111</latitude>
    <longitude>32.7511111</longitude>
  </city>
  <city name="Amacagi">
    <latitude>-12.7</latitude>
    <longitude>40.3166667</longitude>
  </city>
  <city name="Amade">
    <latitude>-11.0877778</latitude>
    <longitude>40.1136111</longitude>
  </city>
  <city name="Amade Bai">
    <latitude>-24.6902778</latitude>
    <longitude>34.0897222</longitude>
  </city>
  <city name="Amadeu">
    <latitude>-21.1594444</latitude>
    <longitude>34.4694444</longitude>
  </city>
  <city name="Amado">
    <latitude>-13.2666667</latitude>
    <longitude>35.2347222</longitude>
  </city>
  <city name="Amadora">
    <latitude>-25.8672222</latitude>
    <longitude>32.5663889</longitude>
  </city>
  <city name="Amália">
    <latitude>-14.4472222</latitude>
    <longitude>36.7755556</longitude>
  </city>
  <city name="Amamba">
    <latitude>-20.0383333</latitude>
    <longitude>33.9586111</longitude>
  </city>
  <city name="Amane">
    <latitude>-17.1961111</latitude>
    <longitude>37.9044444</longitude>
  </city>
  <city name="A. Manjala">
    <latitude>-21.6241667</latitude>
    <longitude>35.2619444</longitude>
  </city>
  <city name="Amanuense">
    <latitude>-21.3016667</latitude>
    <longitude>34.7905556</longitude>
  </city>
  <city name="A. Marmeleiro">
    <latitude>-24.4672222</latitude>
    <longitude>33.2386111</longitude>
  </city>
  <city name="Amaro">
    <latitude>-15.4716667</latitude>
    <longitude>39.9825</longitude>
  </city>
  <city name="Amatongas">
    <latitude>-19.1686111</latitude>
    <longitude>33.7602778</longitude>
  </city>
  <city name="Ambaça">
    <latitude>-12.2447222</latitude>
    <longitude>40.3405556</longitude>
  </city>
  <city name="Ambane">
    <latitude>-21.8</latitude>
    <longitude>34.3</longitude>
  </city>
  <city name="Ambanha">
    <latitude>-20.3616667</latitude>
    <longitude>34.6330556</longitude>
  </city>
  <city name="Ambanhe">
    <latitude>-21.35</latitude>
    <longitude>34.6333333</longitude>
  </city>
  <city name="Ambassa">
    <latitude>-21.1669444</latitude>
    <longitude>33.8388889</longitude>
  </city>
  <city name="Ambire">
    <latitude>-16.2430556</latitude>
    <longitude>35.6466667</longitude>
  </city>
  <city name="Ambissane">
    <latitude>-21.9333333</latitude>
    <longitude>34.3833333</longitude>
  </city>
  <city name="Ambuca">
    <latitude>-24.0533333</latitude>
    <longitude>34.8255556</longitude>
  </city>
  <city name="Ambusi">
    <latitude>-12.3177778</latitude>
    <longitude>34.7686111</longitude>
  </city>
  <city name="Amea">
    <latitude>-11.4666667</latitude>
    <longitude>39.9269444</longitude>
  </city>
  <city name="Amede">
    <latitude>-10.8194444</latitude>
    <longitude>40.1277778</longitude>
  </city>
  <city name="Amedi">
    <latitude>-12.3844444</latitude>
    <longitude>40.1847222</longitude>
  </city>
  <city name="Amela">
    <latitude>-21.6861111</latitude>
    <longitude>34.9808333</longitude>
  </city>
  <city name="América">
    <latitude>-13.2180556</latitude>
    <longitude>36.6605556</longitude>
  </city>
  <city name="Amessala">
    <latitude>-25.2</latitude>
    <longitude>32.2333333</longitude>
  </city>
  <city name="Ametina">
    <latitude>-13.2727778</latitude>
    <longitude>39.8163889</longitude>
  </city>
  <city name="Ameto">
    <latitude>-14.4005556</latitude>
    <longitude>40.5266667</longitude>
  </city>
  <city name="Amice">
    <latitude>-12.4441667</latitude>
    <longitude>40.3669444</longitude>
  </city>
  <city name="Amide Cane">
    <latitude>-24.4730556</latitude>
    <longitude>34.0944444</longitude>
  </city>
  <city name="Amime">
    <latitude>-12.4522222</latitude>
    <longitude>39.91</longitude>
  </city>
  <city name="Amimo">
    <latitude>-13.8177778</latitude>
    <longitude>35.4036111</longitude>
  </city>
  <city name="Amire">
    <latitude>-14.2544444</latitude>
    <longitude>40.6538889</longitude>
  </city>
  <city name="Amisse">
    <latitude>-10.6447222</latitude>
    <longitude>40.285</longitude>
  </city>
  <city name="Amissi">
    <latitude>-14.6397222</latitude>
    <longitude>37.4558333</longitude>
  </city>
  <city name="Amita">
    <latitude>-13.7847222</latitude>
    <longitude>37.3188889</longitude>
  </city>
  <city name="Amito">
    <latitude>-13.3980556</latitude>
    <longitude>38.5233333</longitude>
  </city>
  <city name="A. Moaianine">
    <latitude>-25.0341667</latitude>
    <longitude>33.2147222</longitude>
  </city>
  <city name="Amoco">
    <latitude>-21.3419444</latitude>
    <longitude>34.8527778</longitude>
  </city>
  <city name="Amoda">
    <latitude>-18.1361111</latitude>
    <longitude>35.7530556</longitude>
  </city>
  <city name="Amoda Uncuzana">
    <latitude>-18.15</latitude>
    <longitude>35.8</longitude>
  </city>
  <city name="Amona">
    <latitude>-12.9722222</latitude>
    <longitude>38.4566667</longitude>
  </city>
  <city name="Amone Bie">
    <latitude>-24.4319444</latitude>
    <longitude>34.9661111</longitude>
  </city>
  <city name="Amosse">
    <latitude>-24.2541667</latitude>
    <longitude>33.1988889</longitude>
  </city>
  <city name="Amôsse">
    <latitude>-22.485</latitude>
    <longitude>35.0925</longitude>
  </city>
  <city name="Ampaca">
    <latitude>-13.2055556</latitude>
    <longitude>35.8447222</longitude>
  </city>
  <city name="Ampara">
    <latitude>-20.2663889</latitude>
    <longitude>34.6561111</longitude>
  </city>
  <city name="Amparira">
    <latitude>-19.6</latitude>
    <longitude>33.5833333</longitude>
  </city>
  <city name="Amparo">
    <latitude>-20.2663889</latitude>
    <longitude>34.6561111</longitude>
  </city>
  <city name="Ampivine">
    <latitude>-14.9188889</latitude>
    <longitude>40.3883333</longitude>
  </city>
  <city name="Ampoense">
    <latitude>-14.9477778</latitude>
    <longitude>40.6447222</longitude>
  </city>
  <city name="Ampohe">
    <latitude>-14.4688889</latitude>
    <longitude>39.7591667</longitude>
  </city>
  <city name="Ampuaia">
    <latitude>-14.6686111</latitude>
    <longitude>39.6777778</longitude>
  </city>
  <city name="Ampuato">
    <latitude>-15.0991667</latitude>
    <longitude>40.11</longitude>
  </city>
  <city name="Amuda">
    <latitude>-16.7936111</latitude>
    <longitude>39.2038889</longitude>
  </city>
  <city name="Amudo">
    <latitude>-15.6308333</latitude>
    <longitude>40.4052778</longitude>
  </city>
  <city name="Amuri">
    <latitude>-13.9344444</latitude>
    <longitude>35.3122222</longitude>
  </city>
  <city name="Amurri">
    <latitude>-14.3375</latitude>
    <longitude>37.44</longitude>
  </city>
  <city name="Amussa">
    <latitude>-18.3833333</latitude>
    <longitude>36.5666667</longitude>
  </city>
  <city name="Amusse">
    <latitude>-20.4088889</latitude>
    <longitude>33.6952778</longitude>
  </city>
  <city name="Amusse Muiota">
    <latitude>-24.3430556</latitude>
    <longitude>34.0652778</longitude>
  </city>
  <city name="Anacari">
    <latitude>-16.6388889</latitude>
    <longitude>38.9966667</longitude>
  </city>
  <city name="Anacleto">
    <latitude>-15.65</latitude>
    <longitude>30.8333333</longitude>
  </city>
  <city name="Anama">
    <latitude>-11.5852778</latitude>
    <longitude>39.6144444</longitude>
  </city>
  <city name="Anamaca">
    <latitude>-15.9683333</latitude>
    <longitude>39.37</longitude>
  </city>
  <city name="Anantapa">
    <latitude>-15.0680556</latitude>
    <longitude>37.7194444</longitude>
  </city>
  <city name="Anapacala">
    <latitude>-11.6963889</latitude>
    <longitude>39.3547222</longitude>
  </city>
  <city name="Anápuca">
    <latitude>-11.6194444</latitude>
    <longitude>39.9686111</longitude>
  </city>
  <city name="Anapulu">
    <latitude>-13.1672222</latitude>
    <longitude>40.5552778</longitude>
  </city>
  <city name="Anatule">
    <latitude>-15.1708333</latitude>
    <longitude>38.2572222</longitude>
  </city>
  <city name="Anchil">
    <latitude>-15.0961111</latitude>
    <longitude>39.4208333</longitude>
  </city>
  <city name="Anchilo">
    <latitude>-15.0961111</latitude>
    <longitude>39.4208333</longitude>
  </city>
  <city name="Anconhane">
    <latitude>-22.1758333</latitude>
    <longitude>32.3769444</longitude>
  </city>
  <city name="Ancoque">
    <latitude>-24.4777778</latitude>
    <longitude>34.6388889</longitude>
  </city>
  <city name="Ancorora">
    <latitude>-14.1122222</latitude>
    <longitude>39.4327778</longitude>
  </city>
  <city name="Ancuabe">
    <latitude>-12.9766667</latitude>
    <longitude>39.855</longitude>
  </city>
  <city name="Ancuaze">
    <latitude>-16.7825</latitude>
    <longitude>34.5611111</longitude>
  </city>
  <city name="Ancubaira">
    <latitude>-12.405</latitude>
    <longitude>34.7105556</longitude>
  </city>
  <city name="Ancueza">
    <latitude>-16.9841667</latitude>
    <longitude>34.7816667</longitude>
  </city>
  <city name="Ancuha">
    <latitude>-13.0555556</latitude>
    <longitude>38.9061111</longitude>
  </city>
  <city name="Ancuirre">
    <latitude>-13.4311111</latitude>
    <longitude>37.8025</longitude>
  </city>
  <city name="Ancuninga">
    <latitude>-13.4633333</latitude>
    <longitude>36.6816667</longitude>
  </city>
  <city name="Ancuringo">
    <latitude>-13.4633333</latitude>
    <longitude>36.6816667</longitude>
  </city>
  <city name="Andalara">
    <latitude>-12.3605556</latitude>
    <longitude>35.0097222</longitude>
  </city>
  <city name="Andare">
    <latitude>-17.7577778</latitude>
    <longitude>36.5452778</longitude>
  </city>
  <city name="Andati">
    <latitude>-26.3705556</latitude>
    <longitude>32.3805556</longitude>
  </city>
  <city name="Andazuce">
    <latitude>-17.6405556</latitude>
    <longitude>36.8061111</longitude>
  </city>
  <city name="Andela">
    <latitude>-21.5016667</latitude>
    <longitude>34.4047222</longitude>
  </city>
  <city name="Andelene">
    <latitude>-24.8772222</latitude>
    <longitude>32.6213889</longitude>
  </city>
  <city name="Anderemane">
    <latitude>-12.0208333</latitude>
    <longitude>39.3738889</longitude>
  </city>
  <city name="Andissene">
    <latitude>-16.7186111</latitude>
    <longitude>33.34</longitude>
  </city>
  <city name="Ando">
    <latitude>-12.8883333</latitude>
    <longitude>40.4472222</longitude>
  </city>
  <city name="Andoba">
    <latitude>-11.34</latitude>
    <longitude>39.4391667</longitude>
  </city>
  <city name="Andoleio">
    <latitude>-12.3605556</latitude>
    <longitude>35.0097222</longitude>
  </city>
  <city name="Andrada">
    <latitude>-18.8977778</latitude>
    <longitude>32.8580556</longitude>
  </city>
  <city name="Andrea">
    <latitude>-23.8652778</latitude>
    <longitude>32.9972222</longitude>
  </city>
  <city name="Andrêa">
    <latitude>-16.875</latitude>
    <longitude>34.7366667</longitude>
  </city>
  <city name="André">
    <latitude>-21.3438889</latitude>
    <longitude>34.9630556</longitude>
  </city>
  <city name="Andre">
    <latitude>-24.4886111</latitude>
    <longitude>32.2472222</longitude>
  </city>
  <city name="Andrec">
    <latitude>-19.0530556</latitude>
    <longitude>33.1155556</longitude>
  </city>
  <city name="Andremane">
    <latitude>-11.0858333</latitude>
    <longitude>39.8097222</longitude>
  </city>
  <city name="André Quia">
    <latitude>-24.5983333</latitude>
    <longitude>34.4188889</longitude>
  </city>
  <city name="André Samo">
    <latitude>-21.4738889</latitude>
    <longitude>35.1422222</longitude>
  </city>
  <city name="Andrico">
    <latitude>-17.3683333</latitude>
    <longitude>37.1675</longitude>
  </city>
  <city name="Anduluce">
    <latitude>-17.6405556</latitude>
    <longitude>36.8061111</longitude>
  </city>
  <city name="Aneco">
    <latitude>-15.6894444</latitude>
    <longitude>39.03</longitude>
  </city>
  <city name="Anècone">
    <latitude>-16.2622222</latitude>
    <longitude>37.9680556</longitude>
  </city>
  <city name="Anela">
    <latitude>-14.7097222</latitude>
    <longitude>40.3386111</longitude>
  </city>
  <city name="Aneli">
    <latitude>-13.0263889</latitude>
    <longitude>39.5105556</longitude>
  </city>
  <city name="Anemelaúa">
    <latitude>-15.2638889</latitude>
    <longitude>38.3233333</longitude>
  </city>
  <city name="Anéna">
    <latitude>-14.0669444</latitude>
    <longitude>38.8441667</longitude>
  </city>
  <city name="Anga">
    <latitude>-11.3905556</latitude>
    <longitude>40.3822222</longitude>
  </city>
  <city name="Angalacane">
    <latitude>-22.4691667</latitude>
    <longitude>31.5261111</longitude>
  </city>
  <city name="Angelo Paulino">
    <latitude>-24.5586111</latitude>
    <longitude>34.1083333</longitude>
  </city>
  <city name="Anginha">
    <latitude>-11.3266667</latitude>
    <longitude>39.0241667</longitude>
  </city>
  <city name="Angoche">
    <latitude>-16.2325</latitude>
    <longitude>39.9086111</longitude>
  </city>
  <city name="Angondo">
    <latitude>-12.8861111</latitude>
    <longitude>34.7619444</longitude>
  </city>
  <city name="Angorele">
    <latitude>-17.2833333</latitude>
    <longitude>35.2666667</longitude>
  </city>
  <city name="Anguane">
    <latitude>-25.8</latitude>
    <longitude>32.5833333</longitude>
  </city>
  <city name="Anguati">
    <latitude>-12.9308333</latitude>
    <longitude>35.2291667</longitude>
  </city>
  <city name="Anguinamoinha">
    <latitude>-12.8563889</latitude>
    <longitude>38.3441667</longitude>
  </city>
  <city name="Angule">
    <latitude>-22.0627778</latitude>
    <longitude>33.5672222</longitude>
  </city>
  <city name="Anhane">
    <latitude>-22.2611111</latitude>
    <longitude>33.4711111</longitude>
  </city>
  <city name="Anhapa">
    <latitude>-14.0036111</latitude>
    <longitude>40.1375</longitude>
  </city>
  <city name="Anibal">
    <latitude>-17.3366667</latitude>
    <longitude>35.3455556</longitude>
  </city>
  <city name="Anigo">
    <latitude>-15.9772222</latitude>
    <longitude>39.485</longitude>
  </city>
  <city name="Aniuaia">
    <latitude>-13.9322222</latitude>
    <longitude>39.1555556</longitude>
  </city>
  <city name="Anizai">
    <latitude>-19.3325</latitude>
    <longitude>34.4530556</longitude>
  </city>
  <city name="Anjeje">
    <latitude>-17.125</latitude>
    <longitude>34.8561111</longitude>
  </city>
  <city name="Anjinho">
    <latitude>-16.3291667</latitude>
    <longitude>39.0686111</longitude>
  </city>
  <city name="Anjugane">
    <latitude>-19.6372222</latitude>
    <longitude>33.7480556</longitude>
  </city>
  <city name="Anli">
    <latitude>-12.3644444</latitude>
    <longitude>40.2997222</longitude>
  </city>
  <city name="Anlinha">
    <latitude>-15.3205556</latitude>
    <longitude>37.2833333</longitude>
  </city>
  <city name="Anocochiva">
    <latitude>-11.8411111</latitude>
    <longitude>40.0852778</longitude>
  </city>
  <city name="Anoija">
    <latitude>-12.2602778</latitude>
    <longitude>40.0047222</longitude>
  </city>
  <city name="Anônia">
    <latitude>-14.9769444</latitude>
    <longitude>37.7808333</longitude>
  </city>
  <city name="Anoque">
    <latitude>-24.9577778</latitude>
    <longitude>32.1747222</longitude>
  </city>
  <city name="Anquáti">
    <latitude>-12.9308333</latitude>
    <longitude>35.2291667</longitude>
  </city>
  <city name="Anquiméria">
    <latitude>-12.8666667</latitude>
    <longitude>38.35</longitude>
  </city>
  <city name="Anquinamainha">
    <latitude>-12.8563889</latitude>
    <longitude>38.3441667</longitude>
  </city>
  <city name="Anquinamoinha">
    <latitude>-12.8563889</latitude>
    <longitude>38.3441667</longitude>
  </city>
  <city name="Anquita">
    <latitude>-12.3608333</latitude>
    <longitude>40.3069444</longitude>
  </city>
  <city name="Antabo">
    <latitude>-13.9522222</latitude>
    <longitude>40.5325</longitude>
  </city>
  <city name="Anti">
    <latitude>-12.3644444</latitude>
    <longitude>40.2997222</longitude>
  </city>
  <city name="Antifica">
    <latitude>-13.3708333</latitude>
    <longitude>36.4819444</longitude>
  </city>
  <city name="Antiga Serração Zamite">
    <latitude>-24.3408333</latitude>
    <longitude>34.5802778</longitude>
  </city>
  <city name="Antigo Buzi">
    <latitude>-17.1313889</latitude>
    <longitude>34.8613889</longitude>
  </city>
  <city name="Antigo Pasto">
    <latitude>-23.8519444</latitude>
    <longitude>34.3561111</longitude>
  </city>
  <city name="Antigo Pôsto de Mandimba">
    <latitude>-14.3666667</latitude>
    <longitude>35.65</longitude>
  </city>
  <city name="Antigo Posto Maziua">
    <latitude>-11.6833333</latitude>
    <longitude>36.74</longitude>
  </city>
  <city name="Antipirra">
    <latitude>-15.2247222</latitude>
    <longitude>39.5077778</longitude>
  </city>
  <city name="Antique">
    <latitude>-13.2408333</latitude>
    <longitude>38.9944444</longitude>
  </city>
  <city name="Antitica">
    <latitude>-13.3708333</latitude>
    <longitude>36.4819444</longitude>
  </city>
  <city name="Antôa">
    <latitude>-14.485</latitude>
    <longitude>39.7836111</longitude>
  </city>
  <city name="António">
    <latitude>-12.9122222</latitude>
    <longitude>40.2208333</longitude>
  </city>
  <city name="Antonio">
    <latitude>-18.1111111</latitude>
    <longitude>34.9883333</longitude>
  </city>
  <city name="António Enes">
    <latitude>-16.2325</latitude>
    <longitude>39.9086111</longitude>
  </city>
  <city name="Antonio Engs">
    <latitude>-16.2325</latitude>
    <longitude>39.9086111</longitude>
  </city>
  <city name="Antonio Ennes">
    <latitude>-16.2325</latitude>
    <longitude>39.9086111</longitude>
  </city>
  <city name="António Gamba">
    <latitude>-19.8</latitude>
    <longitude>34.9166667</longitude>
  </city>
  <city name="António Marques">
    <latitude>-13.7575</latitude>
    <longitude>39.6330556</longitude>
  </city>
  <city name="António Monjane">
    <latitude>-24.5827778</latitude>
    <longitude>34.1658333</longitude>
  </city>
  <city name="António Nouele">
    <latitude>-24.5561111</latitude>
    <longitude>34.1438889</longitude>
  </city>
  <city name="António Silva">
    <latitude>-24.3097222</latitude>
    <longitude>34.9405556</longitude>
  </city>
  <city name="Antumane">
    <latitude>-12.4236111</latitude>
    <longitude>40.3377778</longitude>
  </city>
  <city name="Antumano">
    <latitude>-12.4083333</latitude>
    <longitude>40.2316667</longitude>
  </city>
  <city name="Antunes">
    <latitude>-19.7175</latitude>
    <longitude>34.7452778</longitude>
  </city>
  <city name="Antupa">
    <latitude>-13.3888889</latitude>
    <longitude>38.7275</longitude>
  </city>
  <city name="Anturabi">
    <latitude>-12.3425</latitude>
    <longitude>40.3266667</longitude>
  </city>
  <city name="Antuura">
    <latitude>-13.2202778</latitude>
    <longitude>37.5466667</longitude>
  </city>
  <city name="Anupulo">
    <latitude>-13.1672222</latitude>
    <longitude>40.5552778</longitude>
  </city>
  <city name="Apacári">
    <latitude>-15.8291667</latitude>
    <longitude>40.1088889</longitude>
  </city>
  <city name="Apaga Fogo">
    <latitude>-14.9805556</latitude>
    <longitude>40.6452778</longitude>
  </city>
  <city name="Apàlia">
    <latitude>-13.345</latitude>
    <longitude>38.8638889</longitude>
  </city>
  <city name="Aparra">
    <latitude>-15.7422222</latitude>
    <longitude>38.0508333</longitude>
  </city>
  <city name="Apato">
    <latitude>-15.2438889</latitude>
    <longitude>40.4488889</longitude>
  </city>
  <city name="Apeca">
    <latitude>-15.0788889</latitude>
    <longitude>40.3563889</longitude>
  </city>
  <city name="Apeliua">
    <latitude>-17.1080556</latitude>
    <longitude>38.0247222</longitude>
  </city>
  <city name="Apitaina">
    <latitude>-11.7405556</latitude>
    <longitude>40.2622222</longitude>
  </city>
  <city name="Aprine">
    <latitude>-14.1683333</latitude>
    <longitude>38.5447222</longitude>
  </city>
  <city name="Apua">
    <latitude>-15.7422222</latitude>
    <longitude>38.0508333</longitude>
  </city>
  <city name="Apura">
    <latitude>-13.0286111</latitude>
    <longitude>39.5205556</longitude>
  </city>
  <city name="Apurruro">
    <latitude>-14.7844444</latitude>
    <longitude>39.9686111</longitude>
  </city>
  <city name="Aputala">
    <latitude>-14.3</latitude>
    <longitude>39.0061111</longitude>
  </city>
  <city name="Aquia">
    <latitude>-13.8833333</latitude>
    <longitude>40.4705556</longitude>
  </city>
  <city name="Aquida">
    <latitude>-13.1430556</latitude>
    <longitude>36.6358333</longitude>
  </city>
  <city name="Aquiliüa">
    <latitude>-14.9488889</latitude>
    <longitude>37.1413889</longitude>
  </city>
  <city name="Aquimo">
    <latitude>-13.6952778</latitude>
    <longitude>36.1797222</longitude>
  </city>
  <city name="Aquino">
    <latitude>-14.1222222</latitude>
    <longitude>40.4555556</longitude>
  </city>
  <city name="Árabe">
    <latitude>-12.3419444</latitude>
    <longitude>40.1336111</longitude>
  </city>
  <city name="Araela">
    <latitude>-16.0925</latitude>
    <longitude>38.8938889</longitude>
  </city>
  <city name="Aramba">
    <latitude>-11.16</latitude>
    <longitude>39.705</longitude>
  </city>
  <city name="Aramea">
    <latitude>-17.1680556</latitude>
    <longitude>37.1325</longitude>
  </city>
  <city name="Arame">
    <latitude>-16.4191667</latitude>
    <longitude>39.4430556</longitude>
  </city>
  <city name="Arangua">
    <latitude>-19.0672222</latitude>
    <longitude>34.4113889</longitude>
  </city>
  <city name="Arapela">
    <latitude>-14.5869444</latitude>
    <longitude>37.2636111</longitude>
  </city>
  <city name="Araújo">
    <latitude>-15.2330556</latitude>
    <longitude>38.2338889</longitude>
  </city>
  <city name="Arcoro">
    <latitude>-18.1947222</latitude>
    <longitude>35.9816667</longitude>
  </city>
  <city name="Areeinar">
    <latitude>-17.95</latitude>
    <longitude>34.2305556</longitude>
  </city>
  <city name="Arefai">
    <latitude>-16.95</latitude>
    <longitude>35.3</longitude>
  </city>
  <city name="Ariceti">
    <latitude>-17.3666667</latitude>
    <longitude>34.5013889</longitude>
  </city>
  <city name="Arijama">
    <latitude>-16.4616667</latitude>
    <longitude>36.8083333</longitude>
  </city>
  <city name="Arijamo">
    <latitude>-16.4616667</latitude>
    <longitude>36.8083333</longitude>
  </city>
  <city name="Arijuane">
    <latitude>-17.2891667</latitude>
    <longitude>37.3091667</longitude>
  </city>
  <city name="Arimba">
    <latitude>-12.6436111</latitude>
    <longitude>40.535</longitude>
  </city>
  <city name="Arire">
    <latitude>-13.8161111</latitude>
    <longitude>40.5822222</longitude>
  </city>
  <city name="Aristides">
    <latitude>-14.7175</latitude>
    <longitude>39.5922222</longitude>
  </city>
  <city name="Armando">
    <latitude>-23.6561111</latitude>
    <longitude>32.8030556</longitude>
  </city>
  <city name="Armazém">
    <latitude>-24.0175</latitude>
    <longitude>33.3075</longitude>
  </city>
  <city name="Armazém I.A.M.">
    <latitude>-24.6716667</latitude>
    <longitude>33.4419444</longitude>
  </city>
  <city name="Armazén">
    <latitude>-24.4069444</latitude>
    <longitude>33.2919444</longitude>
  </city>
  <city name="Armazéns">
    <latitude>-24.3619444</latitude>
    <longitude>33.6466667</longitude>
  </city>
  <city name="Armeida">
    <latitude>-17.2147222</latitude>
    <longitude>35.4608333</longitude>
  </city>
  <city name="Arnaldo">
    <latitude>-23.0486111</latitude>
    <longitude>34.8069444</longitude>
  </city>
  <city name="Arone">
    <latitude>-22.8983333</latitude>
    <longitude>35.0408333</longitude>
  </city>
  <city name="Arrapa">
    <latitude>-15.115</latitude>
    <longitude>37.9272222</longitude>
  </city>
  <city name="Arria">
    <latitude>-16.4233333</latitude>
    <longitude>37.7352778</longitude>
  </city>
  <city name="Arrie">
    <latitude>-15.1241667</latitude>
    <longitude>40.1647222</longitude>
  </city>
  <city name="Arrimue">
    <latitude>-15.1811111</latitude>
    <longitude>39.7627778</longitude>
  </city>
  <city name="Arroni">
    <latitude>-24.2544444</latitude>
    <longitude>32.3138889</longitude>
  </city>
  <city name="Arruma">
    <latitude>-24.9752778</latitude>
    <longitude>33.4538889</longitude>
  </city>
  <city name="Arruna">
    <latitude>-13.6047222</latitude>
    <longitude>39.1997222</longitude>
  </city>
  <city name="Arrune">
    <latitude>-14.7363889</latitude>
    <longitude>40.0611111</longitude>
  </city>
  <city name="Arrupa">
    <latitude>-14.2644444</latitude>
    <longitude>40.1025</longitude>
  </city>
  <city name="Artur">
    <latitude>-14.3447222</latitude>
    <longitude>38.2911111</longitude>
  </city>
  <city name="Arucato">
    <latitude>-20.6625</latitude>
    <longitude>33.5397222</longitude>
  </city>
  <city name="Arufo">
    <latitude>-13.1311111</latitude>
    <longitude>39.9175</longitude>
  </city>
  <city name="Arujuane">
    <latitude>-18.1</latitude>
    <longitude>35.9166667</longitude>
  </city>
  <city name="Arume">
    <latitude>-21.2408333</latitude>
    <longitude>32.7916667</longitude>
  </city>
  <city name="Arveira">
    <latitude>-18.3447222</latitude>
    <longitude>36.6380556</longitude>
  </city>
  <city name="Ascarimo">
    <latitude>-13.0747222</latitude>
    <longitude>40.4819444</longitude>
  </city>
  <city name="Aside">
    <latitude>-17.5955556</latitude>
    <longitude>37.1905556</longitude>
  </city>
  <city name="Asneira">
    <latitude>-21.6961111</latitude>
    <longitude>35.4569444</longitude>
  </city>
  <city name="Aspense">
    <latitude>-19.6991667</latitude>
    <longitude>33.7969444</longitude>
  </city>
  <city name="Assam">
    <latitude>-23.1033333</latitude>
    <longitude>32.215</longitude>
  </city>
  <city name="Assame">
    <latitude>-10.655</latitude>
    <longitude>40.3569444</longitude>
  </city>
  <city name="Assamo">
    <latitude>-12.3919444</latitude>
    <longitude>40.1013889</longitude>
  </city>
  <city name="Assane">
    <latitude>-10.5505556</latitude>
    <longitude>40.3875</longitude>
  </city>
  <city name="Assane Caputa">
    <latitude>-11.1225</latitude>
    <longitude>39.7872222</longitude>
  </city>
  <city name="Assane e Lima">
    <latitude>-15.2855556</latitude>
    <longitude>40.6566667</longitude>
  </city>
  <city name="Assane Maponda">
    <latitude>-11.1647222</latitude>
    <longitude>39.655</longitude>
  </city>
  <city name="Assaringue">
    <latitude>-12.1261111</latitude>
    <longitude>39.7413889</longitude>
  </city>
  <city name="Assarra">
    <latitude>-14.8775</latitude>
    <longitude>37.0205556</longitude>
  </city>
  <city name="Asse">
    <latitude>-14.0163889</latitude>
    <longitude>38.8772222</longitude>
  </city>
  <city name="Assica">
