<?xml version="1.0" encoding="UTF-8"?>
<country code="om" name="Oman">
  <city name="Abailah">
    <latitude>24.2666667</latitude>
    <longitude>56.15</longitude>
  </city>
  <city name="A`bal">
    <latitude>24.4333333</latitude>
    <longitude>56.05</longitude>
  </city>
  <city name="`Abat">
    <latitude>22.5505556</latitude>
    <longitude>59.3280556</longitude>
  </city>
  <city name="`Abayah">
    <latitude>23.1752778</latitude>
    <longitude>58.8141667</longitude>
  </city>
  <city name="`Abbasah">
    <latitude>23.9166667</latitude>
    <longitude>57.2166667</longitude>
  </city>
  <city name="`Ablah">
    <latitude>23.1683333</latitude>
    <longitude>56.9091667</longitude>
  </city>
  <city name="Abu `Abali">
    <latitude>23.7711111</latitude>
    <longitude>57.6769444</longitude>
  </city>
  <city name="Abu Akaisha">
    <latitude>21.4</latitude>
    <longitude>59.2833333</longitude>
  </city>
  <city name="Abu al Hisn">
    <latitude>23.7802778</latitude>
    <longitude>57.6352778</longitude>
  </city>
  <city name="Abud">
    <latitude>24.5488889</latitude>
    <longitude>56.1013889</longitude>
  </city>
  <city name="Abu Durus">
    <latitude>24.1961111</latitude>
    <longitude>56.8741667</longitude>
  </city>
  <city name="Abu Nukhayl">
    <latitude>23.7055556</latitude>
    <longitude>58.015</longitude>
  </city>
  <city name="Abu Qal`ah">
    <latitude>22.5455556</latitude>
    <longitude>59.5063889</longitude>
  </city>
  <city name="Abu Qarayt">
    <latitude>26.1741667</latitude>
    <longitude>56.2763889</longitude>
  </city>
  <city name="Abu Rumaila">
    <latitude>17.4</latitude>
    <longitude>53.9166667</longitude>
  </city>
  <city name="Abu Rumaylah">
    <latitude>17.4</latitude>
    <longitude>53.9166667</longitude>
  </city>
  <city name="Abu `Ukayshah">
    <latitude>21.4</latitude>
    <longitude>59.2833333</longitude>
  </city>
  <city name="Abyad">
    <latitude>23.4613889</latitude>
    <longitude>57.665</longitude>
  </city>
  <city name="Abyadh">
    <latitude>23.4613889</latitude>
    <longitude>57.665</longitude>
  </city>
  <city name="Adaakham">
    <latitude>17.1791667</latitude>
    <longitude>54.3838889</longitude>
  </city>
  <city name="Adakham">
    <latitude>17.1791667</latitude>
    <longitude>54.3838889</longitude>
  </city>
  <city name="Adam">
    <latitude>22.3833333</latitude>
    <longitude>57.5333333</longitude>
  </city>
  <city name="Adanham">
    <latitude>17.1775</latitude>
    <longitude>54.3702778</longitude>
  </city>
  <city name="Ad Daffah">
    <latitude>22.2930556</latitude>
    <longitude>59.8205556</longitude>
  </city>
  <city name="`Addah">
    <latitude>22.5997222</latitude>
    <longitude>59.2688889</longitude>
  </city>
  <city name="Ad Da`nah">
    <latitude>25.7683333</latitude>
    <longitude>56.1969444</longitude>
  </city>
  <city name="Ad Dar">
    <latitude>23.1725</latitude>
    <longitude>57.6705556</longitude>
  </city>
  <city name="Ad Darayn">
    <latitude>26.0969444</latitude>
    <longitude>56.1952778</longitude>
  </city>
  <city name="Ad Dariz">
    <latitude>22.5836111</latitude>
    <longitude>58.6830556</longitude>
  </city>
  <city name="Ad Das">
    <latitude>23.2391667</latitude>
    <longitude>57.5352778</longitude>
  </city>
  <city name="`Addas">
    <latitude>25.8586111</latitude>
    <longitude>56.3672222</longitude>
  </city>
  <city name="Ad Dawaniq">
    <latitude>24.5827778</latitude>
    <longitude>56.5563889</longitude>
  </city>
  <city name="Ad Dharayn">
    <latitude>26.0969444</latitude>
    <longitude>56.1952778</longitude>
  </city>
  <city name="Ad Duwaykah">
    <latitude>23.6986111</latitude>
    <longitude>58.0372222</longitude>
  </city>
  <city name="Adh`eet">
    <latitude>17.1905556</latitude>
    <longitude>54.5330556</longitude>
  </city>
  <city name="Adhjoord">
    <latitude>17.1366667</latitude>
    <longitude>54.3833333</longitude>
  </city>
  <city name="Afa">
    <latitude>23.2366667</latitude>
    <longitude>58.8969444</longitude>
  </city>
  <city name="Afi">
    <latitude>23.4444444</latitude>
    <longitude>57.8044444</longitude>
  </city>
  <city name="Aflaj">
    <latitude>22.3822222</latitude>
    <longitude>58.2127778</longitude>
  </city>
  <city name="Afranji">
    <latitude>23.4475</latitude>
    <longitude>56.2222222</longitude>
  </city>
  <city name="Aged">
    <latitude>20.5666667</latitude>
    <longitude>58.8166667</longitude>
  </city>
  <city name="Agyaan">
    <latitude>17.1691667</latitude>
    <longitude>54.2166667</longitude>
  </city>
  <city name="Agyan">
    <latitude>17.1691667</latitude>
    <longitude>54.2166667</longitude>
  </city>
  <city name="Ahyawf">
    <latitude>17.125</latitude>
    <longitude>54.4305556</longitude>
  </city>
  <city name="Aimus">
    <latitude>26.0394444</latitude>
    <longitude>56.3883333</longitude>
  </city>
  <city name="Aini">
    <latitude>25.8483333</latitude>
    <longitude>56.1716667</longitude>
  </city>
  <city name="Aiyuun">
    <latitude>23.5166667</latitude>
    <longitude>56.9166667</longitude>
  </city>
  <city name="`Ajib">
    <latitude>24.7777778</latitude>
    <longitude>56.2897222</longitude>
  </city>
  <city name="Ajma`">
    <latitude>23.0702778</latitude>
    <longitude>58.6144444</longitude>
  </city>
  <city name="Ajran">
    <latitude>24.0333333</latitude>
    <longitude>56.1666667</longitude>
  </city>
  <city name="Ajreezi">
    <latitude>17.1422222</latitude>
    <longitude>54.4466667</longitude>
  </city>
  <city name="Ajrizi">
    <latitude>17.1422222</latitude>
    <longitude>54.4466667</longitude>
  </city>
  <city name="Akbul">
    <latitude>24.4833333</latitude>
    <longitude>56.0666667</longitude>
  </city>
  <city name="Akkad">
    <latitude>17.0033333</latitude>
    <longitude>54.0377778</longitude>
  </city>
  <city name="Akroont">
    <latitude>17.1191667</latitude>
    <longitude>54.3338889</longitude>
  </city>
  <city name="Akrunt">
    <latitude>17.1191667</latitude>
    <longitude>54.3338889</longitude>
  </city>
  <city name="Aktam">
    <latitude>23.8963889</latitude>
    <longitude>56.565</longitude>
  </city>
  <city name="`Akur">
    <latitude>23.44</latitude>
    <longitude>57.3205556</longitude>
  </city>
  <city name="Al Ababah">
    <latitude>23.0252778</latitude>
    <longitude>57.6677778</longitude>
  </city>
  <city name="Al `Abbasah">
    <latitude>23.9166667</latitude>
    <longitude>57.2166667</longitude>
  </city>
  <city name="Al `Ablah">
    <latitude>24.1</latitude>
    <longitude>56.45</longitude>
  </city>
  <city name="Al Abyad">
    <latitude>23.0205556</latitude>
    <longitude>57.5222222</longitude>
  </city>
  <city name="Al`Adan">
    <latitude>23.4380556</latitude>
    <longitude>57.6711111</longitude>
  </city>
  <city name="Al `Adhfayn">
    <latitude>22.5677778</latitude>
    <longitude>59.1113889</longitude>
  </city>
  <city name="Al `Afifah">
    <latitude>24.4111111</latitude>
    <longitude>56.7047222</longitude>
  </city>
  <city name="Al Afrad">
    <latitude>23.8336111</latitude>
    <longitude>57.4480556</longitude>
  </city>
  <city name="Al Ahjal">
    <latitude>23.45</latitude>
    <longitude>56.8833333</longitude>
  </city>
  <city name="Al Ahmadi">
    <latitude>22.4286111</latitude>
    <longitude>58.0177778</longitude>
  </city>
  <city name="Al Ahramiya">
    <latitude>24.6172222</latitude>
    <longitude>56.0269444</longitude>
  </city>
  <city name="Al Ahramiyah">
    <latitude>24.6172222</latitude>
    <longitude>56.0269444</longitude>
  </city>
  <city name="Al `Ajal">
    <latitude>23.2663889</latitude>
    <longitude>57.2677778</longitude>
  </city>
  <city name="Al Ajal">
    <latitude>23.4927778</latitude>
    <longitude>57.9494444</longitude>
  </city>
  <city name="Al Akhdar">
    <latitude>23.2225</latitude>
    <longitude>56.4616667</longitude>
  </city>
  <city name="Al Akhri">
    <latitude>23.8</latitude>
    <longitude>56.7666667</longitude>
  </city>
  <city name="Al `Alá">
    <latitude>23.0719444</latitude>
    <longitude>57.1311111</longitude>
  </city>
  <city name="Al `Ala'">
    <latitude>23.0836111</latitude>
    <longitude>57.6111111</longitude>
  </city>
  <city name="Al `Alayah">
    <latitude>23.3927778</latitude>
    <longitude>57.435</longitude>
  </city>
  <city name="Al `Aliyah">
    <latitude>22.9236111</latitude>
    <longitude>58.0544444</longitude>
  </city>
  <city name="Al Amarat">
    <latitude>23.5241667</latitude>
    <longitude>58.4975</longitude>
  </city>
  <city name="Al Ambah">
    <latitude>23.2713889</latitude>
    <longitude>57.3288889</longitude>
  </city>
  <city name="Al `Amirah">
    <latitude>24.15</latitude>
    <longitude>56.4166667</longitude>
  </city>
  <city name="Al `Aqabah">
    <latitude>25.9327778</latitude>
    <longitude>56.4086111</longitude>
  </city>
  <city name="Al `Aqar">
    <latitude>23.0722222</latitude>
    <longitude>57.6666667</longitude>
  </city>
  <city name="Al Aqariyah">
    <latitude>23.3258333</latitude>
    <longitude>56.3866667</longitude>
  </city>
  <city name="Al `Aqir">
    <latitude>23.7797222</latitude>
    <longitude>56.6211111</longitude>
  </city>
  <city name="Al Aqli">
    <latitude>23.8086111</latitude>
    <longitude>56.7713889</longitude>
  </city>
  <city name="Al `Aqud">
    <latitude>23.4597222</latitude>
    <longitude>57.3111111</longitude>
  </city>
  <city name="Al `Araqi">
    <latitude>23.2802778</latitude>
    <longitude>56.5363889</longitude>
  </city>
  <city name="Al `Arid">
    <latitude>23.4313889</latitude>
    <longitude>56.6266667</longitude>
  </city>
  <city name="Al Arkub">
    <latitude>25.8138889</latitude>
    <longitude>56.3055556</longitude>
  </city>
  <city name="Al `Arqub">
    <latitude>25.8138889</latitude>
    <longitude>56.3055556</longitude>
  </city>
  <city name="Al `Asansar">
    <latitude>23.7166667</latitude>
    <longitude>56.9</longitude>
  </city>
  <city name="Al Ashkhara">
    <latitude>21.85</latitude>
    <longitude>59.5666667</longitude>
  </city>
  <city name="Al Ashkharah">
    <latitude>21.85</latitude>
    <longitude>59.5666667</longitude>
  </city>
  <city name="Al Ashkhar">
    <latitude>23.0408333</latitude>
    <longitude>58.7016667</longitude>
  </city>
  <city name="Al Ashkhirah">
    <latitude>21.85</latitude>
    <longitude>59.5666667</longitude>
  </city>
  <city name="Al Ashqar">
    <latitude>24.3166667</latitude>
    <longitude>56.1333333</longitude>
  </city>
  <city name="Al Ashtana">
    <latitude>26.0927778</latitude>
    <longitude>56.2113889</longitude>
  </city>
  <city name="Al Asrar Bani Sa`d">
    <latitude>24.5908333</latitude>
    <longitude>56.55</longitude>
  </city>
  <city name="Al Asrar Bani `Umar">
    <latitude>24.6052778</latitude>
    <longitude>56.5416667</longitude>
  </city>
  <city name="Al `Awabi">
    <latitude>23.3061111</latitude>
    <longitude>57.5311111</longitude>
  </city>
  <city name="Al Awaya">
    <latitude>17.8833333</latitude>
    <longitude>53.05</longitude>
  </city>
  <city name="Al `Awaynat">
    <latitude>23.2108333</latitude>
    <longitude>57.6622222</longitude>
  </city>
  <city name="Al `Awhi">
    <latitude>24.3958333</latitude>
    <longitude>56.6702778</longitude>
  </city>
  <city name="`Alayah">
    <latitude>23.3766667</latitude>
    <longitude>57.8225</longitude>
  </city>
  <city name="`Alayat Dank">
    <latitude>23.5525</latitude>
    <longitude>56.2808333</longitude>
  </city>
  <city name="`Alayat Misfah">
    <latitude>22.9694444</latitude>
    <longitude>58.2952778</longitude>
  </city>
  <city name="`Alayat Sama'il">
    <latitude>23.3</latitude>
    <longitude>57.9833333</longitude>
  </city>
  <city name="Al `Ayinah">
    <latitude>23.0625</latitude>
    <longitude>57.9480556</longitude>
  </city>
  <city name="Al `Ayn">
    <latitude>23.0725</latitude>
    <longitude>57.6625</longitude>
  </city>
  <city name="Al `Aynayn">
    <latitude>22.6666667</latitude>
    <longitude>58.0333333</longitude>
  </city>
  <city name="Al `Ayr">
    <latitude>23.2136111</latitude>
    <longitude>57.4594444</longitude>
  </city>
  <city name="Al `Ayshah">
    <latitude>23.0411111</latitude>
    <longitude>57.1427778</longitude>
  </city>
  <city name="Al `Aysh">
    <latitude>23.0411111</latitude>
    <longitude>57.1427778</longitude>
  </city>
  <city name="Al Bajariyah">
    <latitude>23.5333333</latitude>
    <longitude>58.5166667</longitude>
  </city>
  <city name="Al Banah">
    <latitude>23.2836111</latitude>
    <longitude>56.8936111</longitude>
  </city>
  <city name="Al Barmiyah">
    <latitude>23.3894444</latitude>
    <longitude>57.6627778</longitude>
  </city>
  <city name="Al Basatin">
    <latitude>23.3219444</latitude>
    <longitude>57.0280556</longitude>
  </city>
  <city name="Al Bataykhi">
    <latitude>26.1963889</latitude>
    <longitude>56.2794444</longitude>
  </city>
  <city name="Al Batin">
    <latitude>22.4702778</latitude>
    <longitude>59.1066667</longitude>
  </city>
  <city name="Al Bayd">
    <latitude>23.4680556</latitude>
    <longitude>57.6608333</longitude>
  </city>
  <city name="Al Bid`ah">
    <latitude>23.8311111</latitude>
    <longitude>57.475</longitude>
  </city>
  <city name="Al Bidayah">
    <latitude>23.1547222</latitude>
    <longitude>57.7380556</longitude>
  </city>
  <city name="Al Bilad">
    <latitude>26.2180556</latitude>
    <longitude>56.4586111</longitude>
  </city>
  <city name="Al Birak">
    <latitude>26.1058333</latitude>
    <longitude>56.3316667</longitude>
  </city>
  <city name="Al Bi'r">
    <latitude>23.2191667</latitude>
    <longitude>57.4413889</longitude>
  </city>
  <city name="Al Buda`ah">
    <latitude>23.1372222</latitude>
    <longitude>58.4013889</longitude>
  </city>
  <city name="Al Budayah">
    <latitude>23.8952778</latitude>
    <longitude>57.2361111</longitude>
  </city>
  <city name="Al Bulaydah">
    <latitude>24.8416667</latitude>
    <longitude>56.4172222</longitude>
  </city>
  <city name="Al Burayk">
    <latitude>23.9441667</latitude>
    <longitude>57.1608333</longitude>
  </city>
  <city name="Al Buraymi">
    <latitude>24.25</latitude>
    <longitude>55.75</longitude>
  </city>
  <city name="Al Burj">
    <latitude>17.4</latitude>
    <longitude>53.9</longitude>
  </city>
  <city name="Al Burj al Saliya">
    <latitude>17.9166667</latitude>
    <longitude>53.5166667</longitude>
  </city>
  <city name="Al Burj as Saliya">
    <latitude>17.9166667</latitude>
    <longitude>53.5166667</longitude>
  </city>
  <city name="Al Burj as Saliyah">
    <latitude>17.9166667</latitude>
    <longitude>53.5166667</longitude>
  </city>
  <city name="Al Burr">
    <latitude>23.2236111</latitude>
    <longitude>57.3230556</longitude>
  </city>
  <city name="Al Bustan">
    <latitude>23.57</latitude>
    <longitude>58.6138889</longitude>
  </city>
  <city name="Al But">
    <latitude>26.1191667</latitude>
    <longitude>56.3361111</longitude>
  </city>
  <city name="Al Buwayt">
    <latitude>26.0486111</latitude>
    <longitude>56.1952778</longitude>
  </city>
  <city name="Al BuwayzÌ§a">
    <latitude>23.06</latitude>
    <longitude>57.9544444</longitude>
  </city>
  <city name="Al Darai">
    <latitude>26.1536111</latitude>
    <longitude>56.2616667</longitude>
  </city>
  <city name="Al Dharayn">
    <latitude>26.0969444</latitude>
    <longitude>56.1952778</longitude>
  </city>
  <city name="Al Duwika">
    <latitude>23.6986111</latitude>
    <longitude>58.0372222</longitude>
  </city>
  <city name="Al Fai">
    <latitude>24.7627778</latitude>
    <longitude>56.1688889</longitude>
  </city>
  <city name="Al Fala">
    <latitude>23.2055556</latitude>
    <longitude>58.9655556</longitude>
  </city>
  <city name="Al Falaj">
    <latitude>23.7161111</latitude>
    <longitude>56.905</longitude>
  </city>
  <city name="Al Falaj al Hadith">
    <latitude>23.7161111</latitude>
    <longitude>56.905</longitude>
  </city>
  <city name="Al Farfarah">
    <latitude>23.4122222</latitude>
    <longitude>58.09</longitude>
  </city>
  <city name="Al Fa'y">
    <latitude>24.7627778</latitude>
    <longitude>56.1688889</longitude>
  </city>
  <city name="Al Fayy">
    <latitude>24.7627778</latitude>
    <longitude>56.1688889</longitude>
  </city>
  <city name="Al Fida">
    <latitude>23.5</latitude>
    <longitude>56.4833333</longitude>
  </city>
  <city name="Al Fiduk">
    <latitude>26.0283333</latitude>
    <longitude>56.3608333</longitude>
  </city>
  <city name="Al Frian">
    <latitude>26.2316667</latitude>
    <longitude>56.41</longitude>
  </city>
  <city name="Alfton">
    <latitude>17.1383333</latitude>
    <longitude>54.0772222</longitude>
  </city>
  <city name="Algema">
    <latitude>26.0044444</latitude>
    <longitude>56.2675</longitude>
  </city>
  <city name="Al Ghaba">
    <latitude>23.0894444</latitude>
    <longitude>57.735</longitude>
  </city>
  <city name="Al Ghabah">
    <latitude>21.5</latitude>
    <longitude>57.3333333</longitude>
  </city>
  <city name="Al Ghabbi">
    <latitude>22.4461111</latitude>
    <longitude>58.8130556</longitude>
  </city>
  <city name="Al Ghabirah">
    <latitude>23.2466667</latitude>
    <longitude>57.3736111</longitude>
  </city>
  <city name="Al Ghadifah">
    <latitude>23.9841667</latitude>
    <longitude>56.4897222</longitude>
  </city>
  <city name="Al Ghafat">
    <latitude>22.9833333</latitude>
    <longitude>57.1333333</longitude>
  </city>
  <city name="Al Ghala`il">
    <latitude>23.1188889</latitude>
    <longitude>57.5775</longitude>
  </city>
  <city name="Al Ghalilah">
    <latitude>22.6311111</latitude>
    <longitude>59.4375</longitude>
  </city>
  <city name="Al Ghalil">
    <latitude>25.8894444</latitude>
    <longitude>56.3458333</longitude>
  </city>
  <city name="Al Gharir `Alayah">
    <latitude>23.1025</latitude>
    <longitude>57.5569444</longitude>
  </city>
  <city name="Al Gharir Sufalah">
    <latitude>23.0980556</latitude>
    <longitude>57.5533333</longitude>
  </city>
  <city name="Al Ghashbah">
    <latitude>24.3947222</latitude>
    <longitude>56.69</longitude>
  </city>
  <city name="Al Ghawr">
    <latitude>23.2247222</latitude>
    <longitude>57.3222222</longitude>
  </city>
  <city name="Al Ghaya">
    <latitude>17.5666667</latitude>
    <longitude>53.7166667</longitude>
  </city>
  <city name="Al Ghayl">
    <latitude>23.4555556</latitude>
    <longitude>57.5922222</longitude>
  </city>
  <city name="Al Ghayyah">
    <latitude>17.5666667</latitude>
    <longitude>53.7166667</longitude>
  </city>
  <city name="Al Ghayzan">
    <latitude>23.8094444</latitude>
    <longitude>56.9822222</longitude>
  </city>
  <city name="Al Ghomb">
    <latitude>22.7997222</latitude>
    <longitude>59.1763889</longitude>
  </city>
  <city name="Al Ghu">
    <latitude>23.8252778</latitude>
    <longitude>57.4847222</longitude>
  </city>
  <city name="Al Ghub">
    <latitude>23.7030556</latitude>
    <longitude>56.9080556</longitude>
  </city>
  <city name="Al Ghubar">
    <latitude>20.95</latitude>
    <longitude>56.7666667</longitude>
  </city>
  <city name="Al Ghuf">
    <latitude>23.1522222</latitude>
    <longitude>57.7769444</longitude>
  </city>
  <city name="Al Ghulaylah">
    <latitude>23.8602778</latitude>
    <longitude>57.3591667</longitude>
  </city>
  <city name="Al Ghuraifa">
    <latitude>23.9883333</latitude>
    <longitude>56.4858333</longitude>
  </city>
  <city name="Al Ghurayfah">
    <latitude>23.9883333</latitude>
    <longitude>56.4858333</longitude>
  </city>
  <city name="Al Ghushayn">
    <latitude>23.7677778</latitude>
    <longitude>56.67</longitude>
  </city>
  <city name="Al Ghuwaysah">
    <latitude>24.1741667</latitude>
    <longitude>56.8616667</longitude>
  </city>
  <city name="Al Ghuwayz">
    <latitude>23.76</latitude>
    <longitude>56.7791667</longitude>
  </city>
  <city name="Al Ghuwiz">
    <latitude>23.76</latitude>
    <longitude>56.7791667</longitude>
  </city>
  <city name="Al GhuzÌ§ayfah">
    <latitude>23.9883333</latitude>
    <longitude>56.4858333</longitude>
  </city>
  <city name="Al Habalayn">
    <latitude>26.1519444</latitude>
    <longitude>56.3277778</longitude>
  </city>
  <city name="Al Habayla">
    <latitude>26.0961111</latitude>
    <longitude>56.2391667</longitude>
  </city>
  <city name="Al Habubiyah">
    <latitude>23.2713889</latitude>
    <longitude>58.7516667</longitude>
  </city>
  <city name="Al Hadd">
    <latitude>24.4922222</latitude>
    <longitude>56.5866667</longitude>
  </city>
  <city name="Al Hafah">
    <latitude>16.9833333</latitude>
    <longitude>54.1166667</longitude>
  </city>
  <city name="Al Haffah">
    <latitude>16.9833333</latitude>
    <longitude>54.1166667</longitude>
  </city>
  <city name="Al Hajar">
    <latitude>23.0658333</latitude>
    <longitude>57.95</longitude>
  </city>
  <city name="Al Hajir">
    <latitude>23.2611111</latitude>
    <longitude>57.2822222</longitude>
  </city>
  <city name="Al Hajr">
    <latitude>23.3997222</latitude>
    <longitude>58.5163889</longitude>
  </city>
  <city name="Al Haju">
    <latitude>22.7591667</latitude>
    <longitude>58.6511111</longitude>
  </city>
  <city name="Al Hajul">
    <latitude>23.8202778</latitude>
    <longitude>56.6086111</longitude>
  </city>
  <city name="Al Hamiliyah">
    <latitude>24.725</latitude>
    <longitude>56.4552778</longitude>
  </city>
  <city name="Al Hamra'">
    <latitude>22.9666667</latitude>
    <longitude>57.3</longitude>
  </city>
  <city name="Al Haqq">
    <latitude>23.0961111</latitude>
    <longitude>57.7586111</longitude>
  </city>
  <city name="Al Haqt">
    <latitude>26.1180556</latitude>
    <longitude>56.2608333</longitude>
  </city>
  <city name="Al Harah">
    <latitude>26.0994444</latitude>
    <longitude>56.1458333</longitude>
  </city>
  <city name="Al Haran">
    <latitude>26.0994444</latitude>
    <longitude>56.1458333</longitude>
  </city>
  <city name="Al Harat">
    <latitude>26.1705556</latitude>
    <longitude>56.2094444</longitude>
  </city>
  <city name="Al Harfiyah">
    <latitude>26.1347222</latitude>
    <longitude>56.1936111</longitude>
  </city>
  <city name="Al Harmaliyah">
    <latitude>23.665</latitude>
    <longitude>56.9261111</longitude>
  </city>
  <city name="Al Harmuzi">
    <latitude>23.6061111</latitude>
    <longitude>55.9311111</longitude>
  </city>
  <city name="Al Hasaifin">
    <latitude>24.6322222</latitude>
    <longitude>56.5280556</longitude>
  </city>
  <city name="Al Hasan">
    <latitude>23.4458333</latitude>
    <longitude>57.6327778</longitude>
  </city>
  <city name="Al Hashimi">
    <latitude>23.9461111</latitude>
    <longitude>56.3908333</longitude>
  </city>
  <city name="Al Hasin">
    <latitude>23.4458333</latitude>
    <longitude>57.6327778</longitude>
  </city>
  <city name="Al Hatm">
    <latitude>20.4616667</latitude>
    <longitude>58.7819444</longitude>
  </city>
  <city name="Al Hawmaniyah">
    <latitude>23.4233333</latitude>
    <longitude>56.7625</longitude>
  </city>
  <city name="Al Hawshak">
    <latitude>26.01</latitude>
    <longitude>56.2058333</longitude>
  </city>
  <city name="Al Hawz">
    <latitude>24.5955556</latitude>
    <longitude>56.5472222</longitude>
  </city>
  <city name="Al Hayl">
    <latitude>23.2147222</latitude>
    <longitude>57.0136111</longitude>
  </city>
  <city name="Al Hayr">
    <latitude>25.7775</latitude>
    <longitude>56.2444444</longitude>
  </city>
  <city name="Al Hazm">
    <latitude>23.5513889</latitude>
    <longitude>57.4736111</longitude>
  </city>
  <city name="Al HÌ±ajar">
    <latitude>23.5166667</latitude>
    <longitude>58.35</longitude>
  </city>
  <city name="Al Hibra">
    <latitude>23.4961111</latitude>
    <longitude>57.8308333</longitude>
  </city>
  <city name="Al Hijal">
    <latitude>23.4333333</latitude>
    <longitude>56.6333333</longitude>
  </city>
  <city name="Al Hijar">
    <latitude>23.2247222</latitude>
    <longitude>56.4736111</longitude>
  </city>
  <city name="Al Hijir">
    <latitude>23.2041667</latitude>
    <longitude>57.5113889</longitude>
  </city>
  <city name="Al Hijrah">
    <latitude>23.3322222</latitude>
    <longitude>57.0283333</longitude>
  </city>
  <city name="Al Hijr">
    <latitude>23.2819444</latitude>
    <longitude>56.9227778</longitude>
  </city>
  <city name="Al Hillah">
    <latitude>26.0994444</latitude>
    <longitude>56.1458333</longitude>
  </city>
  <city name="Al Hilyah">
    <latitude>22.7833333</latitude>
    <longitude>57.8166667</longitude>
  </city>
  <city name="Al Hin">
    <latitude>23.3238889</latitude>
    <longitude>58.2258333</longitude>
  </city>
  <city name="Al Hishmah">
    <latitude>23.9338889</latitude>
    <longitude>56.42</longitude>
  </city>
  <city name="Al Hisn">
    <latitude>23.0836111</latitude>
    <longitude>58.8666667</longitude>
  </city>
  <city name="Al Hiyal">
    <latitude>23.4922222</latitude>
    <longitude>57.0061111</longitude>
  </city>
  <city name="Al Hothera">
    <latitude>24.5333333</latitude>
    <longitude>56.0833333</longitude>
  </city>
  <city name="Al Hub">
    <latitude>23.2322222</latitude>
    <longitude>57.2869444</longitude>
  </city>
  <city name="Al Hubayl">
    <latitude>26.0961111</latitude>
    <longitude>56.2391667</longitude>
  </city>
  <city name="Al Hubi">
    <latitude>22.65</latitude>
    <longitude>57.3333333</longitude>
  </city>
  <city name="Al Hujayrimat">
    <latitude>23.4211111</latitude>
    <longitude>56.7241667</longitude>
  </city>
  <city name="Al Humr">
    <latitude>20.4166667</latitude>
    <longitude>58.75</longitude>
  </city>
  <city name="Al Hunaynah">
    <latitude>24.4166667</latitude>
    <longitude>56.7</longitude>
  </city>
  <city name="Al Hurah">
    <latitude>23.7641667</latitude>
    <longitude>56.7952778</longitude>
  </city>
  <city name="Al Husaifin">
    <latitude>24.6322222</latitude>
    <longitude>56.5280556</longitude>
  </city>
  <city name="Al Husayfin">
    <latitude>24.6322222</latitude>
    <longitude>56.5280556</longitude>
  </city>
  <city name="Al Huwayl">
    <latitude>23.4677778</latitude>
    <longitude>57.3083333</longitude>
  </city>
  <city name="Al Huwaylayn">
    <latitude>23.3127778</latitude>
    <longitude>57.0311111</longitude>
  </city>
  <city name="Al Huwib">
    <latitude>23.21</latitude>
    <longitude>57.3386111</longitude>
  </city>
  <city name="Al Huwir">
    <latitude>23.0741667</latitude>
    <longitude>57.55</longitude>
  </city>
  <city name="Al Huyul">
    <latitude>23.9241667</latitude>
    <longitude>56.4025</longitude>
  </city>
  <city name="`Ali Khamis">
    <latitude>26.0327778</latitude>
    <longitude>56.3875</longitude>
  </city>
  <city name="Al Ima">
    <latitude>25.9416667</latitude>
    <longitude>56.4252778</longitude>
  </city>
  <city name="Al Isbalah">
    <latitude>24.1</latitude>
    <longitude>56.45</longitude>
  </city>
  <city name="Al Islat">
    <latitude>23.7019444</latitude>
    <longitude>56.7522222</longitude>
  </city>
  <city name="Al `Izz">
    <latitude>22.5505556</latitude>
    <longitude>58.6863889</longitude>
  </city>
  <city name="Al Ja`arif">
    <latitude>24.1113889</latitude>
    <longitude>56.9411111</longitude>
  </city>
  <city name="Al Jabat">
    <latitude>23.0733333</latitude>
    <longitude>57.9258333</longitude>
  </city>
  <city name="Al Jadi">
    <latitude>26.1622222</latitude>
    <longitude>56.1702778</longitude>
  </city>
  <city name="Al Jafnayn">
    <latitude>23.5258333</latitude>
    <longitude>58.1855556</longitude>
  </city>
  <city name="Al Jahliyah">
    <latitude>23.1786111</latitude>
    <longitude>57.3180556</longitude>
  </city>
  <city name="Al Jamma">
    <latitude>23.5613889</latitude>
    <longitude>57.5566667</longitude>
  </city>
  <city name="Al Jari">
    <latitude>26.2175</latitude>
    <longitude>56.1858333</longitude>
  </city>
  <city name="Al Jawabi">
    <latitude>22.0369444</latitude>
    <longitude>59.4777778</longitude>
  </city>
  <city name="Al Jaylah">
    <latitude>23.2169444</latitude>
    <longitude>57.5052778</longitude>
  </city>
  <city name="Al Jazir">
    <latitude>23.0872222</latitude>
    <longitude>58.8613889</longitude>
  </city>
  <city name="Al Jiba`i">
    <latitude>22.4308333</latitude>
    <longitude>59.3852778</longitude>
  </city>
  <city name="Al Jibal">
    <latitude>22.0833333</latitude>
    <longitude>56.0</longitude>
  </city>
  <city name="Al Jil">
    <latitude>23.2525</latitude>
    <longitude>57.0452778</longitude>
  </city>
  <city name="Al Jinah">
    <latitude>22.9333333</latitude>
    <longitude>57.5333333</longitude>
  </city>
  <city name="Al Jiri">
    <latitude>26.2175</latitude>
    <longitude>56.1858333</longitude>
  </city>
  <city name="Al Jirri">
    <latitude>26.2175</latitude>
    <longitude>56.1858333</longitude>
  </city>
  <city name="Al Jissa">
    <latitude>23.5513889</latitude>
    <longitude>58.6427778</longitude>
  </city>
  <city name="Al Jissah">
    <latitude>23.5513889</latitude>
    <longitude>58.6427778</longitude>
  </city>
  <city name="Al Jowar">
    <latitude>26.0741667</latitude>
    <longitude>56.215</longitude>
  </city>
  <city name="Al Jufar">
    <latitude>23.2672222</latitude>
    <longitude>57.3975</longitude>
  </city>
  <city name="Al Jull">
    <latitude>23.9272222</latitude>
    <longitude>56.4113889</longitude>
  </city>
  <city name="Al Jumaylah">
    <latitude>22.05</latitude>
    <longitude>59.6333333</longitude>
  </city>
  <city name="Al Juwaif">
    <latitude>24.5488889</latitude>
    <longitude>56.1052778</longitude>
  </city>
  <city name="Al Juwar">
    <latitude>26.0741667</latitude>
    <longitude>56.215</longitude>
  </city>
  <city name="Al Juwayf">
    <latitude>24.5488889</latitude>
    <longitude>56.1052778</longitude>
  </city>
  <city name="Al Kabirat al Hayl">
    <latitude>23.6963889</latitude>
    <longitude>56.2652778</longitude>
  </city>
  <city name="Al Kabirat Hayl al Ghaf">
    <latitude>23.6963889</latitude>
    <longitude>56.2652778</longitude>
  </city>
  <city name="Al Kabirat Hayl">
    <latitude>23.6963889</latitude>
    <longitude>56.2652778</longitude>
  </city>
  <city name="Al Kalban">
    <latitude>20.3</latitude>
    <longitude>58.6333333</longitude>
  </city>
  <city name="Al Kamil">
    <latitude>22.2197222</latitude>
    <longitude>59.2025</longitude>
  </city>
  <city name="Al Karbi">
    <latitude>24.7516667</latitude>
    <longitude>56.1788889</longitude>
  </city>
  <city name="Al Karsha">
    <latitude>25.6555556</latitude>
    <longitude>56.2686111</longitude>
  </city>
  <city name="Al Karshah">
    <latitude>25.6555556</latitude>
    <longitude>56.2686111</longitude>
  </city>
  <city name="Al Kathir">
    <latitude>17.0175</latitude>
    <longitude>54.0827778</longitude>
  </city>
  <city name="Al Khabat">
    <latitude>23.9847222</latitude>
    <longitude>56.4941667</longitude>
  </city>
  <city name="Al Khabbah">
    <latitude>22.2263889</latitude>
    <longitude>59.7991667</longitude>
  </city>
  <city name="Al-Khabourah">
    <latitude>23.9811111</latitude>
    <longitude>57.1044444</longitude>
  </city>
  <city name="Al Khabura">
    <latitude>23.9811111</latitude>
    <longitude>57.1044444</longitude>
  </city>
  <city name="Al Khaburah">
    <latitude>23.9811111</latitude>
    <longitude>57.1044444</longitude>
  </city>
  <city name="Al Khaddah">
    <latitude>23.8552778</latitude>
    <longitude>56.5561111</longitude>
  </city>
  <city name="Al Khadhra">
    <latitude>23.8586111</latitude>
    <longitude>57.3380556</longitude>
  </city>
  <city name="Al Khadhrawain">
    <latitude>24.8544444</latitude>
    <longitude>56.4033333</longitude>
  </city>
  <city name="Al Khadirah">
    <latitude>23.0736111</latitude>
    <longitude>57.5386111</longitude>
  </city>
  <city name="Al Khadra'">
    <latitude>23.1411111</latitude>
    <longitude>57.7558333</longitude>
  </city>
  <city name="Al Khadra">
    <latitude>23.3680556</latitude>
    <longitude>57.3086111</longitude>
  </city>
  <city name="Al Khadrawayn">
    <latitude>24.8544444</latitude>
    <longitude>56.4033333</longitude>
  </city>
  <city name="Al Khaisa">
    <latitude>21.5833333</latitude>
    <longitude>58.6166667</longitude>
  </city>
  <city name="Al Khalaf">
    <latitude>20.4666667</latitude>
    <longitude>58.05</longitude>
  </city>
  <city name="Al Khaluf">
    <latitude>20.4666667</latitude>
    <longitude>58.05</longitude>
  </city>
  <city name="Al Khalw">
    <latitude>24.6944444</latitude>
    <longitude>56.1636111</longitude>
  </city>
  <city name="Al Khan">
    <latitude>24.2166667</latitude>
    <longitude>56.3333333</longitude>
  </city>
  <city name="Al Kharifut">
    <latitude>16.7166667</latitude>
    <longitude>53.3</longitude>
  </city>
  <city name="Al Khasab">
    <latitude>26.1916667</latitude>
    <longitude>56.2436111</longitude>
  </city>
  <city name="Al Khasal">
    <latitude>26.1916667</latitude>
    <longitude>56.2436111</longitude>
  </city>
  <city name="Al Khatmah">
    <latitude>26.0138889</latitude>
    <longitude>56.4063889</longitude>
  </city>
  <city name="Al Khawd">
    <latitude>23.5677778</latitude>
    <longitude>58.1233333</longitude>
  </city>
  <city name="Al Khayr">
    <latitude>23.7833333</latitude>
    <longitude>56.6</longitude>
  </city>
  <city name="Al Khaysah">
    <latitude>21.5833333</latitude>
    <longitude>58.6166667</longitude>
  </city>
  <city name="Al Khaza'in">
    <latitude>24.2222222</latitude>
    <longitude>56.8316667</longitude>
  </city>
  <city name="Al Khubayb">
    <latitude>23.6672222</latitude>
    <longitude>56.2419444</longitude>
  </city>
  <city name="Al Khubayn">
    <latitude>24.3166667</latitude>
    <longitude>56.1166667</longitude>
  </city>
  <city name="Al Khudayrah">
    <latitude>24.4833333</latitude>
    <longitude>56.0666667</longitude>
  </city>
  <city name="Al Khudrah">
    <latitude>23.8444444</latitude>
    <longitude>56.5658333</longitude>
  </city>
  <city name="Al Khufayqi">
    <latitude>23.3980556</latitude>
    <longitude>58.5227778</longitude>
  </city>
  <city name="Al Khulli">
    <latitude>23.5166667</latitude>
    <longitude>56.5</longitude>
  </city>
  <city name="Al Khur">
    <latitude>23.0777778</latitude>
    <longitude>57.9447222</longitude>
  </city>
  <city name="Al Khurays">
    <latitude>23.7</latitude>
    <longitude>57.0247222</longitude>
  </city>
  <city name="Al Khusayt">
    <latitude>23.1075</latitude>
    <longitude>57.5636111</longitude>
  </city>
  <city name="Al Khutaymah">
    <latitude>23.1497222</latitude>
    <longitude>57.5294444</longitude>
  </city>
  <city name="Al Khutaym">
    <latitude>23.1497222</latitude>
    <longitude>57.5294444</longitude>
  </city>
  <city name="Al Khutaymi">
    <latitude>23.0952778</latitude>
    <longitude>57.5644444</longitude>
  </city>
  <city name="Al Khutum">
    <latitude>22.1097222</latitude>
    <longitude>59.3825</longitude>
  </city>
  <city name="Al Khuwayrah">
    <latitude>24.4441667</latitude>
    <longitude>56.6486111</longitude>
  </city>
  <city name="Al Khuwayrat">
    <latitude>23.9277778</latitude>
    <longitude>57.1691667</longitude>
  </city>
  <city name="Al Khuwayriyah">
    <latitude>24.4441667</latitude>
    <longitude>56.6486111</longitude>
  </city>
  <city name="Al Kwairat">
    <latitude>23.9277778</latitude>
    <longitude>57.1691667</longitude>
  </city>
  <city name="Allam">
    <latitude>17.1533333</latitude>
    <longitude>54.3033333</longitude>
  </city>
  <city name="Al Limah">
    <latitude>25.9416667</latitude>
    <longitude>56.4252778</longitude>
  </city>
  <city name="Allish">
    <latitude>17.1236111</latitude>
    <longitude>54.2563889</longitude>
  </city>
  <city name="Al Liwa'">
    <latitude>24.5361111</latitude>
    <longitude>56.5655556</longitude>
  </city>
  <city name="Al Luwayz">
    <latitude>23.2094444</latitude>
    <longitude>58.9775</longitude>
  </city>
  <city name="Al Ma'balla">
    <latitude>23.6758333</latitude>
    <longitude>58.1419444</longitude>
  </city>
  <city name="Al Mabrak">
    <latitude>26.1491667</latitude>
    <longitude>56.3058333</longitude>
  </city>
  <city name="Al Madinah">
    <latitude>23.4841667</latitude>
    <longitude>57.3063889</longitude>
  </city>
  <city name="Al Mahadin">
    <latitude>23.2016667</latitude>
    <longitude>58.9861111</longitude>
  </city>
  <city name="Al Mahal">
    <latitude>26.0658333</latitude>
    <longitude>56.2416667</longitude>
  </city>
  <city name="Al Mahall">
    <latitude>23.1166667</latitude>
    <longitude>57.9166667</longitude>
  </city>
  <city name="Al Mahalli">
    <latitude>25.8430556</latitude>
    <longitude>56.3266667</longitude>
  </city>
  <city name="Al Mahattah">
    <latitude>22.4736111</latitude>
    <longitude>59.7630556</longitude>
  </city>
  <city name="Al Mahda">
    <latitude>24.3994444</latitude>
    <longitude>55.9697222</longitude>
  </city>
  <city name="Al Mahdah">
    <latitude>24.3994444</latitude>
    <longitude>55.9697222</longitude>
  </city>
  <city name="Al Mahdha">
    <latitude>24.3994444</latitude>
    <longitude>55.9697222</longitude>
  </city>
  <city name="Al Mahjul">
    <latitude>23.5813889</latitude>
    <longitude>56.6458333</longitude>
  </city>
  <city name="Al Mahyul">
    <latitude>23.3661111</latitude>
    <longitude>58.5327778</longitude>
  </city>
  <city name="Al Majnab">
    <latitude>24.5291667</latitude>
    <longitude>56.2936111</longitude>
  </city>
  <city name="Al Makhamarah">
    <latitude>24.6238889</latitude>
    <longitude>56.5227778</longitude>
  </city>
  <city name="Al Maksuriyah">
    <latitude>25.9441667</latitude>
    <longitude>56.4133333</longitude>
  </city>
  <city name="Al Mal`ab">
    <latitude>24.4355556</latitude>
    <longitude>56.6463889</longitude>
  </city>
  <city name="Al Maladda">
    <latitude>23.7497222</latitude>
    <longitude>57.5644444</longitude>
  </city>
  <city name="Al Malqama">
    <latitude>18.35</latitude>
    <longitude>54.7</longitude>
  </city>
  <city name="Al Malqamah">
    <latitude>18.35</latitude>
    <longitude>54.7</longitude>
  </city>
  <city name="Al Mandur">
    <latitude>23.3994444</latitude>
    <longitude>57.6630556</longitude>
  </city>
  <city name="Al Manfash">
    <latitude>23.7961111</latitude>
    <longitude>57.4958333</longitude>
  </city>
  <city name="Al Maqayaw">
    <latitude>26.1891667</latitude>
    <longitude>56.2791667</longitude>
  </city>
  <city name="Al Ma`qul">
    <latitude>23.0763889</latitude>
    <longitude>57.5358333</longitude>
  </city>
  <city name="Al Masayqah">
    <latitude>23.8944444</latitude>
    <longitude>56.4444444</longitude>
  </city>
  <city name="Al Masharta">
    <latitude>26.1516667</latitude>
    <longitude>56.2766667</longitude>
  </city>
  <city name="Al Mashati Shelbarak">
    <latitude>26.1463889</latitude>
    <longitude>56.2911111</longitude>
  </city>
  <city name="Al Maskan">
    <latitude>23.4961111</latitude>
    <longitude>56.8305556</longitude>
  </city>
  <city name="Al-Masna`a">
    <latitude>23.7780556</latitude>
    <longitude>57.6441667</longitude>
  </city>
  <city name="Al Masna`ah">
    <latitude>23.3833333</latitude>
    <longitude>57.2108333</longitude>
  </city>
  <city name="Al Matrah">
    <latitude>23.6127778</latitude>
    <longitude>58.5644444</longitude>
  </city>
  <city name="Al Mays">
    <latitude>23.1377778</latitude>
    <longitude>56.9244444</longitude>
  </city>
  <city name="Al Ma'zam">
    <latitude>23.4019444</latitude>
    <longitude>56.2830556</longitude>
  </city>
  <city name="Al Mazarah">
    <latitude>23.1736111</latitude>
    <longitude>57.3183333</longitude>
  </city>
  <city name="Al Ma'zim">
    <latitude>23.4019444</latitude>
    <longitude>56.2830556</longitude>
  </city>
  <city name="Al Mazra`ah">
    <latitude>23.38</latitude>
    <longitude>57.6627778</longitude>
  </city>
  <city name="Al Mazra`">
    <latitude>22.9219444</latitude>
    <longitude>58.0733333</longitude>
  </city>
  <city name="Al Mibu">
    <latitude>23.2233333</latitude>
    <longitude>57.3338889</longitude>
  </city>
  <city name="Al Mintarah">
    <latitude>26.0083333</latitude>
    <longitude>56.2747222</longitude>
  </city>
  <city name="Al Mintera">
    <latitude>26.0083333</latitude>
    <longitude>56.2747222</longitude>
  </city>
  <city name="Al Mintirib">
    <latitude>22.4355556</latitude>
    <longitude>58.8005556</longitude>
  </city>
  <city name="Al Minzifah">
    <latitude>23.4930556</latitude>
    <longitude>57.0141667</longitude>
  </city>
  <city name="Al Misar">
    <latitude>25.8616667</latitude>
    <longitude>56.3775</longitude>
  </city>
  <city name="Al Misfah">
    <latitude>23.1486111</latitude>
    <longitude>58.8302778</longitude>
  </city>
  <city name="Al Mudaibi">
    <latitude>22.5691667</latitude>
    <longitude>58.12</longitude>
  </city>
  <city name="Al Mudairib">
    <latitude>22.6125</latitude>
    <longitude>58.6683333</longitude>
  </city>
  <city name="Al Mudaybi">
    <latitude>22.5691667</latitude>
    <longitude>58.12</longitude>
  </city>
  <city name="Al Mudayli">
    <latitude>24.6219444</latitude>
    <longitude>56.0194444</longitude>
  </city>
  <city name="Al Mudayq">
    <latitude>23.8030556</latitude>
    <longitude>57.4908333</longitude>
  </city>
  <city name="Al Mudayrib">
    <latitude>22.6125</latitude>
    <longitude>58.6683333</longitude>
  </city>
  <city name="Al Mudirah">
    <latitude>23.0455556</latitude>
    <longitude>57.9619444</longitude>
  </city>
  <city name="Al Muhram">
    <latitude>26.0694444</latitude>
    <longitude>56.1555556</longitude>
  </city>
  <city name="Al Muhtariq">
    <latitude>23.8997222</latitude>
    <longitude>57.2705556</longitude>
  </city>
  <city name="Al Mukhailif">
    <latitude>24.1222222</latitude>
    <longitude>56.9286111</longitude>
  </city>
  <city name="Al Mukhaylif">
    <latitude>24.1222222</latitude>
    <longitude>56.9286111</longitude>
  </city>
  <city name="Al Muladdah">
    <latitude>23.7497222</latitude>
    <longitude>57.5644444</longitude>
  </city>
  <city name="Al Mulayyanah">
    <latitude>23.43</latitude>
    <longitude>58.1311111</longitude>
  </city>
  <city name="Al Mulayyinah">
    <latitude>23.43</latitude>
    <longitude>58.1311111</longitude>
  </city>
  <city name="Al Mumsam">
    <latitude>23.7333333</latitude>
    <longitude>56.7666667</longitude>
  </city>
  <city name="Al Muntarib">
    <latitude>22.4355556</latitude>
    <longitude>58.8005556</longitude>
  </city>
  <city name="Al Murair">
    <latitude>24.9319444</latitude>
    <longitude>56.385</longitude>
  </city>
  <city name="Al Murayr">
    <latitude>24.9319444</latitude>
    <longitude>56.385</longitude>
  </city>
  <city name="Al Musana`a">
    <latitude>23.7780556</latitude>
    <longitude>57.6441667</longitude>
  </city>
  <city name="Al Musayh">
    <latitude>23.8030556</latitude>
    <longitude>57.4908333</longitude>
  </city>
  <city name="Al Musayqah">
    <latitude>23.8944444</latitude>
    <longitude>56.4444444</longitude>
  </city>
  <city name="Al Musin">
    <latitude>23.7333333</latitude>
    <longitude>56.7666667</longitude>
  </city>
  <city name="Al Mu`tarid">
    <latitude>22.7241667</latitude>
    <longitude>58.6519444</longitude>
  </city>
  <city name="Al Mutib Muqsad">
    <latitude>23.0547222</latitude>
    <longitude>57.9561111</longitude>
  </city>
  <city name="Al Mu`walah">
    <latitude>23.2463889</latitude>
    <longitude>58.9172222</longitude>
  </city>
  <city name="Al Muwaylihat">
    <latitude>23.9491667</latitude>
    <longitude>57.1494444</longitude>
  </city>
  <city name="`Alob">
    <latitude>17.0897222</latitude>
    <longitude>54.0647222</longitude>
  </city>
  <city name="Al Qabil">
    <latitude>22.5666667</latitude>
    <longitude>58.7</longitude>
  </city>
  <city name="Al Qahlah">
    <latitude>22.5666667</latitude>
    <longitude>59.1</longitude>
  </city>
  <city name="Al Qala`">
    <latitude>23.8147222</latitude>
    <longitude>56.6130556</longitude>
  </city>
  <city name="Al Qal`ah">
    <latitude>22.8166667</latitude>
    <longitude>57.75</longitude>
  </city>
  <city name="Al Qal`i">
    <latitude>23.2294444</latitude>
    <longitude>56.4583333</longitude>
  </city>
  <city name="Al Qanfar">
    <latitude>26.0166667</latitude>
    <longitude>56.245</longitude>
  </city>
  <city name="Al Qanha">
    <latitude>26.0186111</latitude>
    <longitude>56.22</longitude>
  </city>
  <city name="Al Qanhah">
    <latitude>26.0186111</latitude>
    <longitude>56.22</longitude>
  </city>
  <city name="Al Qarah">
    <latitude>23.8975</latitude>
    <longitude>57.2766667</longitude>
  </city>
  <city name="Al Qarihah">
    <latitude>23.8502778</latitude>
    <longitude>57.4330556</longitude>
  </city>
  <city name="Al Qarin">
    <latitude>20.35</latitude>
    <longitude>58.6833333</longitude>
  </city>
  <city name="Al Qaryah">
    <latitude>23.1019444</latitude>
    <longitude>57.3108333</longitude>
  </city>
  <city name="Al Qaryatayn">
    <latitude>22.8833333</latitude>
    <longitude>57.9333333</longitude>
  </city>
  <city name="Al Qasabiyat">
    <latitude>24.0166667</latitude>
    <longitude>57.0833333</longitude>
  </city>
  <city name="Al Qasbiyah">
    <latitude>24.0166667</latitude>
    <longitude>57.0833333</longitude>
  </city>
  <city name="Al Qasbiyat">
    <latitude>24.0166667</latitude>
    <longitude>57.0833333</longitude>
  </city>
  <city name="Al Qasha">
    <latitude>26.0897222</latitude>
    <longitude>56.1847222</longitude>
  </city>
  <city name="Al Qash`ah">
    <latitude>26.0897222</latitude>
    <longitude>56.1847222</longitude>
  </city>
  <city name="Al Qashar">
    <latitude>23.0661111</latitude>
    <longitude>57.6633333</longitude>
  </city>
  <city name="Al Qashi`">
    <latitude>24.1877778</latitude>
    <longitude>56.8611111</longitude>
  </city>
  <city name="Al Qasmitayn">
    <latitude>23.2847222</latitude>
    <longitude>57.4691667</longitude>
  </city>
  <city name="Al Qawasim">
    <latitude>23.0466667</latitude>
    <longitude>57.9888889</longitude>
  </city>
  <city name="Al Qaylah">
    <latitude>23.3516667</latitude>
    <longitude>58.0169444</longitude>
  </city>
  <city name="Al Qubayyil">
    <latitude>23.2947222</latitude>
    <longitude>57.0083333</longitude>
  </city>
  <city name="Al Qufays">
    <latitude>23.9558333</latitude>
    <longitude>56.4388889</longitude>
  </city>
  <city name="Al Qunnah">
    <latitude>23.1833333</latitude>
    <longitude>57.0166667</longitude>
  </city>
  <city name="Al Quraiyat">
    <latitude>23.2627778</latitude>
    <longitude>58.9161111</longitude>
  </city>
  <city name="Al Qurayyat">
    <latitude>23.5752778</latitude>
    <longitude>57.2072222</longitude>
  </city>
  <city name="Al Qurt">
    <latitude>23.4008333</latitude>
    <longitude>57.1786111</longitude>
  </city>
  <city name="Al Qurti">
    <latitude>23.4008333</latitude>
    <longitude>57.1786111</longitude>
  </city>
  <city name="Al Qusayr">
    <latitude>24.1172222</latitude>
    <longitude>56.8</longitude>
  </city>
  <city name="Al Qutaytirah">
    <latitude>22.0211111</latitude>
    <longitude>59.4458333</longitude>
  </city>
  <city name="Al Ramayh">
    <latitude>26.1208333</latitude>
    <longitude>56.1830556</longitude>
  </city>
  <city name="Al Raq">
    <latitude>26.0097222</latitude>
    <longitude>56.2172222</longitude>
  </city>
  <city name="Al Raudha">
    <latitude>24.0452778</latitude>
    <longitude>56.7836111</longitude>
  </city>
  <city name="Al Safiq">
    <latitude>20.0333333</latitude>
    <longitude>55.6</longitude>
  </city>
  <city name="Al Sahayn">
    <latitude>26.0561111</latitude>
    <longitude>56.3680556</longitude>
  </city>
  <city name="Al Salhaymis">
    <latitude>26.0775</latitude>
    <longitude>56.1897222</longitude>
  </city>
  <city name="Al Shawa">
    <latitude>26.1294444</latitude>
    <longitude>56.3152778</longitude>
  </city>
  <city name="Al Shess">
    <latitude>25.9772222</latitude>
    <longitude>56.33</longitude>
  </city>
  <city name="Al Shinas">
    <latitude>24.7433333</latitude>
    <longitude>56.4658333</longitude>
  </city>
  <city name="Al Shuwara">
    <latitude>26.1452778</latitude>
    <longitude>56.2866667</longitude>
  </city>
  <city name="Al-Sib">
    <latitude>23.6802778</latitude>
    <longitude>58.1825</longitude>
  </city>
  <city name="Al Sohar">
    <latitude>24.3688889</latitude>
    <longitude>56.7438889</longitude>
  </city>
  <city name="Al Sufayrat">
    <latitude>26.1955556</latitude>
    <longitude>56.4741667</longitude>
  </city>
  <city name="Altaf">
    <latitude>23.5411111</latitude>
    <longitude>56.3033333</longitude>
  </city>
  <city name="Al Thaybat">
    <latitude>24.1</latitude>
    <longitude>56.4333333</longitude>
  </city>
  <city name="Al `Ubaylah">
    <latitude>24.2666667</latitude>
    <longitude>56.15</longitude>
  </city>
  <city name="Al `Ulya">
    <latitude>22.8833333</latitude>
    <longitude>58.2166667</longitude>
  </city>
  <city name="Al `Ulyah">
    <latitude>23.1808333</latitude>
    <longitude>57.6544444</longitude>
  </city>
  <city name="Al `Umani">
    <latitude>24.7525</latitude>
    <longitude>56.4561111</longitude>
  </city>
  <city name="Al `Umqah">
    <latitude>23.4741667</latitude>
    <longitude>57.0197222</longitude>
  </city>
  <city name="Al `Uqaybah">
    <latitude>26.1305556</latitude>
    <longitude>56.2305556</longitude>
  </city>
  <city name="Al `Uqayr">
    <latitude>23.7833333</latitude>
    <longitude>56.6</longitude>
  </city>
  <city name="Al `Uqmayrah">
    <latitude>23.22</latitude>
    <longitude>57.3327778</longitude>
  </city>
  <city name="Al `Uqud">
    <latitude>23.4597222</latitude>
    <longitude>57.3111111</longitude>
  </city>
  <city name="Al Usaylah">
    <latitude>24.3833333</latitude>
    <longitude>56.05</longitude>
  </city>
  <city name="Al Uthrat">
    <latitude>24.3666667</latitude>
    <longitude>56.0333333</longitude>
  </city>
  <city name="Al `Uwayd">
    <latitude>23.7936111</latitude>
    <longitude>57.5880556</longitude>
  </city>
  <city name="Al `Uwaynat">
    <latitude>24.2725</latitude>
    <longitude>56.8141667</longitude>
  </city>
  <city name="Al `Uwayridi">
    <latitude>23.2127778</latitude>
    <longitude>56.4297222</longitude>
  </city>
  <city name="AlWadiyat">
    <latitude>24.7958333</latitude>
    <longitude>56.4472222</longitude>
  </city>
  <city name="Al Wafi">
    <latitude>22.1636111</latitude>
    <longitude>59.235</longitude>
  </city>
  <city name="Al Wahah">
    <latitude>23.1016667</latitude>
    <longitude>57.91</longitude>
  </city>
  <city name="Al Wahrah">
    <latitude>23.2791667</latitude>
    <longitude>56.6988889</longitude>
  </city>
  <city name="Al Waqaybah">
    <latitude>24.3641667</latitude>
    <longitude>56.7186111</longitude>
  </city>
  <city name="Al Waqbah">
    <latitude>23.8758333</latitude>
    <longitude>56.4125</longitude>
  </city>
  <city name="Alwar">
    <latitude>22.95</latitude>
    <longitude>58.8166667</longitude>
  </city>
  <city name="Al Warr">
    <latitude>22.95</latitude>
    <longitude>58.8166667</longitude>
  </city>
  <city name="Al Wasfiyah">
    <latitude>26.1366667</latitude>
    <longitude>56.1883333</longitude>
  </city>
  <city name="Al Wasib">
    <latitude>25.8758333</latitude>
    <longitude>56.1730556</longitude>
  </city>
  <city name="Al Wasil">
    <latitude>22.5008333</latitude>
    <longitude>58.7438889</longitude>
  </city>
  <city name="Al Wasit">
    <latitude>23.2819444</latitude>
    <longitude>57.4644444</longitude>
  </city>
  <city name="Al Wuqbah">
    <latitude>23.8758333</latitude>
    <longitude>56.4125</longitude>
  </city>
  <city name="Al Ya'">
    <latitude>23.0608333</latitude>
    <longitude>58.9119444</longitude>
  </city>
  <city name="Al Yalba">
    <latitude>25.8783333</latitude>
    <longitude>56.1780556</longitude>
  </city>
  <city name="Am Atafa">
    <latitude>17.7666667</latitude>
    <longitude>53.5333333</longitude>
  </city>
  <city name="`Amis">
    <latitude>26.0394444</latitude>
    <longitude>56.3883333</longitude>
  </city>
  <city name="`Amla'">
    <latitude>23.1358333</latitude>
    <longitude>56.8947222</longitude>
  </city>
  <city name="Amlah">
    <latitude>23.1358333</latitude>
    <longitude>56.8947222</longitude>
  </city>
  <city name="Amnot">
    <latitude>17.1736111</latitude>
    <longitude>54.0836111</longitude>
  </city>
  <city name="`Amqah">
    <latitude>23.0797222</latitude>
    <longitude>57.1063889</longitude>
  </city>
  <city name="Amqah">
    <latitude>23.4741667</latitude>
    <longitude>57.0197222</longitude>
  </city>
  <city name="`Amq">
    <latitude>23.2888889</latitude>
    <longitude>57.3288889</longitude>
  </city>
  <city name="Amqat">
    <latitude>23.4441667</latitude>
    <longitude>58.1277778</longitude>
  </city>
  <city name="Amti">
    <latitude>23.1994444</latitude>
    <longitude>57.7213889</longitude>
  </city>
  <city name="An Nabrah">
    <latitude>23.8538889</latitude>
    <longitude>57.3619444</longitude>
  </city>
  <city name="An Naqdah">
    <latitude>24.4955556</latitude>
    <longitude>56.5886111</longitude>
  </city>
  <city name="An Niba'">
    <latitude>22.7333333</latitude>
    <longitude>58.6833333</longitude>
  </city>
  <city name="An Nid">
    <latitude>23.2272222</latitude>
    <longitude>57.3294444</longitude>
  </city>
  <city name="An Nujayd">
    <latitude>23.4658333</latitude>
    <longitude>56.7944444</longitude>
  </city>
  <city name="An Nuqdah">
    <latitude>20.8483333</latitude>
    <longitude>58.7338889</longitude>
  </city>
  <city name="Anoothook">
    <latitude>17.1297222</latitude>
    <longitude>54.3855556</longitude>
  </city>
  <city name="Ansham">
    <latitude>17.1280556</latitude>
    <longitude>54.5091667</longitude>
  </city>
  <city name="Antha Arr">
    <latitude>17.18</latitude>
    <longitude>54.3658333</longitude>
  </city>
  <city name="Anthakak">
    <latitude>17.1927778</latitude>
    <longitude>54.4069444</longitude>
  </city>
  <city name="Anthok">
    <latitude>17.1347222</latitude>
    <longitude>54.2766667</longitude>
  </city>
  <city name="Anthraytat">
    <latitude>17.0872222</latitude>
    <longitude>54.5811111</longitude>
  </city>
  <city name="Anuthuk">
    <latitude>17.1297222</latitude>
    <longitude>54.3855556</longitude>
  </city>
  <city name="AnzÌ§awr">
    <latitude>17.4666667</latitude>
    <longitude>52.8333333</longitude>
  </city>
  <city name="`Aqabah">
    <latitude>25.9327778</latitude>
    <longitude>56.4086111</longitude>
  </city>
  <city name="Aqabat al Rahayba">
    <latitude>26.0777778</latitude>
    <longitude>56.1922222</longitude>
  </city>
  <city name="`Aqabat">
    <latitude>25.8105556</latitude>
    <longitude>56.2413889</longitude>
  </city>
  <city name="`Aqabat ar Ruhaybah">
    <latitude>26.0777778</latitude>
    <longitude>56.1922222</longitude>
  </city>
  <city name="`Aqabat `Asu">
    <latitude>25.7919444</latitude>
    <longitude>56.2191667</longitude>
  </city>
  <city name="Aqad">
    <latitude>17.0033333</latitude>
    <longitude>54.0377778</longitude>
  </city>
  <city name="Aqbal">
    <latitude>24.4833333</latitude>
    <longitude>56.0666667</longitude>
  </city>
  <city name="`Aqbiyah">
    <latitude>23.4558333</latitude>
    <longitude>58.3047222</longitude>
  </city>
  <city name="Aqbut al Bayut">
    <latitude>23.1263889</latitude>
    <longitude>57.5205556</longitude>
  </city>
  <city name="`Aqil">
    <latitude>22.7833333</latitude>
    <longitude>57.85</longitude>
  </city>
  <city name="`Aqr">
    <latitude>24.8088889</latitude>
    <longitude>56.4388889</longitude>
  </city>
  <city name="Aradh">
    <latitude>23.4313889</latitude>
    <longitude>56.6266667</longitude>
  </city>
  <city name="Araft">
    <latitude>17.0</latitude>
    <longitude>53.9833333</longitude>
  </city>
  <city name="Arajfiniti">
    <latitude>17.1238889</latitude>
    <longitude>54.4005556</longitude>
  </city>
  <city name="Aram">
    <latitude>17.0958333</latitude>
    <longitude>54.3966667</longitude>
  </city>
  <city name="Araqi">
    <latitude>23.2802778</latitude>
    <longitude>56.5363889</longitude>
  </city>
  <city name="Arfit">
    <latitude>16.7</latitude>
    <longitude>53.2333333</longitude>
  </city>
  <city name="Arid">
    <latitude>23.4313889</latitude>
    <longitude>56.6266667</longitude>
  </city>
  <city name="'Aridh">
    <latitude>23.4313889</latitude>
    <longitude>56.6266667</longitude>
  </city>
  <city name="`Arja'">
    <latitude>24.45</latitude>
    <longitude>56.5666667</longitude>
  </city>
  <city name="Arja">
    <latitude>24.45</latitude>
    <longitude>56.5666667</longitude>
  </city>
  <city name="Arkabait">
    <latitude>17.1333333</latitude>
    <longitude>54.45</longitude>
  </city>
  <city name="Arkam">
    <latitude>17.1580556</latitude>
    <longitude>54.0430556</longitude>
  </city>
  <city name="Arkut">
    <latitude>17.1416667</latitude>
    <longitude>54.1625</longitude>
  </city>
  <city name="`Arqabat">
    <latitude>26.1202778</latitude>
    <longitude>56.1830556</longitude>
  </city>
  <city name="`Arqi">
    <latitude>23.2361111</latitude>
    <longitude>58.7072222</longitude>
  </city>
  <city name="Ar Rabi">
    <latitude>24.2</latitude>
    <longitude>56.2333333</longitude>
  </city>
  <city name="Ar Radidah">
    <latitude>23.2427778</latitude>
    <longitude>56.5166667</longitude>
  </city>
  <city name="Ar Rafsa">
    <latitude>22.4963889</latitude>
    <longitude>59.3963889</longitude>
  </city>
  <city name="Ar Rahbah">
    <latitude>23.2877778</latitude>
    <longitude>57.8302778</longitude>
  </city>
  <city name="Arraida">
    <latitude>17.0166667</latitude>
    <longitude>53.0</longitude>
  </city>
  <city name="Ar Rajmi">
    <latitude>24.6330556</latitude>
    <longitude>56.2877778</longitude>
  </city>
  <city name="Ar Rakakiyah">
    <latitude>23.0505556</latitude>
    <longitude>58.6238889</longitude>
  </city>
  <city name="Ar Ramyah">
    <latitude>26.1261111</latitude>
    <longitude>56.1875</longitude>
  </city>
  <city name="Ar Raqq">
    <latitude>26.0097222</latitude>
    <longitude>56.2172222</longitude>
  </city>
  <city name="Ar Raudha">
    <latitude>24.0452778</latitude>
    <longitude>56.7836111</longitude>
  </city>
  <city name="Ar Rawdah">
    <latitude>24.0452778</latitude>
    <longitude>56.7836111</longitude>
  </city>
  <city name="Ar Rayhani">
    <latitude>23.6125</latitude>
    <longitude>55.9697222</longitude>
  </city>
  <city name="Ar Rihani">
    <latitude>23.6125</latitude>
    <longitude>55.9697222</longitude>
  </city>
  <city name="Ar Ru'ays">
    <latitude>22.1791667</latitude>
    <longitude>59.7641667</longitude>
  </city>
  <city name="Ar Rudaydah">
    <latitude>23.9858333</latitude>
    <longitude>57.0733333</longitude>
  </city>
  <city name="Ar Rumaidh">
    <latitude>23.6875</latitude>
    <longitude>57.9836111</longitude>
  </city>
  <city name="Ar Rumayh">
    <latitude>26.1208333</latitude>
    <longitude>56.1830556</longitude>
  </city>
  <city name="Ar Rustaq">
    <latitude>23.3908333</latitude>
    <longitude>57.4244444</longitude>
  </city>
  <city name="Ar Ruwais">
    <latitude>26.1608333</latitude>
    <longitude>56.3280556</longitude>
  </city>
  <city name="Arryop">
    <latitude>17.1791667</latitude>
    <longitude>54.4158333</longitude>
  </city>
  <city name="Arubi">
    <latitude>26.1313889</latitude>
    <longitude>56.2313889</longitude>
  </city>
  <city name="Arzat">
    <latitude>17.035</latitude>
    <longitude>54.2094444</longitude>
  </city>
  <city name="Arzayrot">
    <latitude>17.1655556</latitude>
    <longitude>54.2627778</longitude>
  </city>
  <city name="Arzoom">
    <latitude>17.1905556</latitude>
    <longitude>54.3652778</longitude>
  </city>
  <city name="Arzum">
    <latitude>17.1905556</latitude>
    <longitude>54.3652778</longitude>
  </city>
  <city name="Asam">
    <latitude>23.595</latitude>
    <longitude>57.9930556</longitude>
  </city>
  <city name="Asaqat Bilarb">
    <latitude>23.1077778</latitude>
    <longitude>57.5591667</longitude>
  </city>
  <city name="Asayh">
    <latitude>23.0880556</latitude>
    <longitude>58.8530556</longitude>
  </city>
  <city name="Ashinhaib">
    <latitude>17.25</latitude>
    <longitude>54.25</longitude>
  </city>
  <city name="Ashinkhorr">
    <latitude>17.1897222</latitude>
    <longitude>54.1591667</longitude>
  </city>
  <city name="Ash Shab">
    <latitude>22.8391667</latitude>
    <longitude>59.2480556</longitude>
  </city>
  <city name="Ash Shariyah">
    <latitude>26.0938889</latitude>
    <longitude>56.2266667</longitude>
  </city>
  <city name="Ash Sharjah">
    <latitude>24.5344444</latitude>
    <longitude>56.2786111</longitude>
  </city>
  <city name="Ash Sharm">
    <latitude>24.5002778</latitude>
    <longitude>55.99</longitude>
  </city>
  <city name="Ash Shawah">
    <latitude>26.1294444</latitude>
    <longitude>56.3152778</longitude>
  </city>
  <city name="Ash Shawr">
    <latitude>17.15</latitude>
    <longitude>54.3166667</longitude>
  </city>
  <city name="Ash Shays">
    <latitude>25.9772222</latitude>
    <longitude>56.33</longitude>
  </city>
  <city name="Ash Shija'">
    <latitude>24.6669444</latitude>
    <longitude>56.0502778</longitude>
  </city>
  <city name="Ash Shinas">
    <latitude>24.7433333</latitude>
    <longitude>56.4658333</longitude>
  </city>
  <city name="Ash Shirs">
    <latitude>23.7863889</latitude>
    <longitude>57.6127778</longitude>
  </city>
  <city name="Ash Shishah">
    <latitude>26.2602778</latitude>
    <longitude>56.3936111</longitude>
  </city>
  <city name="Ash Shiyah">
    <latitude>24.6669444</latitude>
    <longitude>56.0502778</longitude>
  </city>
  <city name="Ash Shizaw">
    <latitude>24.3547222</latitude>
    <longitude>56.7541667</longitude>
  </city>
  <city name="Ash Shubaykah">
    <latitude>22.6172222</latitude>
    <longitude>59.295</longitude>
  </city>
  <city name="Ash Shu`iyah">
    <latitude>23.4625</latitude>
    <longitude>57.6744444</longitude>
  </city>
  <city name="Ash Shuraiqa">
    <latitude>23.0658333</latitude>
    <longitude>57.6597222</longitude>
  </city>
  <city name="Ash Shutayfi">
    <latitude>23.6327778</latitude>
    <longitude>58.5616667</longitude>
  </city>
  <city name="Ash Shuwayhah">
    <latitude>24.6291667</latitude>
    <longitude>56.0772222</longitude>
  </city>
  <city name="Ashtanah">
    <latitude>26.0927778</latitude>
    <longitude>56.2113889</longitude>
  </city>
  <city name="`Ashub">
    <latitude>26.1675</latitude>
    <longitude>56.2313889</longitude>
  </city>
  <city name="Asjudi">
    <latitude>24.0166667</latitude>
    <longitude>56.25</longitude>
  </city>
  <city name="Asrar Bani Sa`d">
    <latitude>24.5908333</latitude>
    <longitude>56.55</longitude>
  </city>
  <city name="Asrar Bani `Umar">
    <latitude>24.6052778</latitude>
    <longitude>56.5416667</longitude>
  </city>
  <city name="As Sa`af">
    <latitude>24.7583333</latitude>
    <longitude>56.1736111</longitude>
  </city>
  <city name="As Sa`arah">
    <latitude>24.25</latitude>
    <longitude>55.7838889</longitude>
  </city>
  <city name="As Sabal">
    <latitude>23.1191667</latitude>
    <longitude>58.5327778</longitude>
  </city>
  <city name="As Safiq">
    <latitude>20.0333333</latitude>
    <longitude>55.6</longitude>
  </city>
  <city name="As Saham">
    <latitude>24.1722222</latitude>
    <longitude>56.8886111</longitude>
  </city>
  <city name="As Sahsahah">
    <latitude>26.1763889</latitude>
    <longitude>56.2269444</longitude>
  </city>
  <city name="As Sahsah">
    <latitude>25.6794444</latitude>
    <longitude>56.1886111</longitude>
  </city>
  <city name="As Saiq">
    <latitude>23.0686111</latitude>
    <longitude>57.6408333</longitude>
  </city>
  <city name="As Salala">
    <latitude>17.0175</latitude>
    <longitude>54.0827778</longitude>
  </city>
  <city name="As Salalah">
    <latitude>17.0175</latitude>
    <longitude>54.0827778</longitude>
  </city>
  <city name="As Samad">
    <latitude>22.8177778</latitude>
    <longitude>58.1558333</longitude>
  </city>
  <city name="As Samidah">
    <latitude>24.015</latitude>
    <longitude>56.7527778</longitude>
  </city>
  <city name="As Sarhat">
    <latitude>23.9644444</latitude>
    <longitude>57.0744444</longitude>
  </city>
  <city name="As Sarm">
    <latitude>22.755</latitude>
    <longitude>58.6541667</longitude>
  </city>
  <city name="As Sarur">
    <latitude>23.37</latitude>
    <longitude>58.1094444</longitude>
  </city>
  <city name="As Saruwi">
    <latitude>22.8308333</latitude>
    <longitude>59.225</longitude>
  </city>
  <city name="As Sarwi">
    <latitude>22.8308333</latitude>
    <longitude>59.225</longitude>
  </city>
  <city name="As Sayh">
    <latitude>24.2158333</latitude>
    <longitude>56.8275</longitude>
  </city>
  <city name="As Sayrsah">
    <latitude>23.8297222</latitude>
    <longitude>57.3555556</longitude>
  </city>
  <city name="As Sib">
    <latitude>23.6802778</latitude>
    <longitude>58.1825</longitude>
  </city>
  <city name="As Sidafi">
    <latitude>23.0480556</latitude>
    <longitude>58.6230556</longitude>
  </city>
  <city name="As Sifa">
    <latitude>23.4355556</latitude>
    <longitude>58.7811111</longitude>
  </city>
  <city name="As Sifah">
    <latitude>24.8258333</latitude>
    <longitude>56.4333333</longitude>
  </city>
  <city name="As Sifiyah">
    <latitude>24.8258333</latitude>
    <longitude>56.4333333</longitude>
  </city>
  <city name="As Sir">
    <latitude>23.1452778</latitude>
    <longitude>57.6738889</longitude>
  </city>
  <city name="As Sohar">
    <latitude>24.3688889</latitude>
    <longitude>56.7438889</longitude>
  </city>
  <city name="As Su`ara">
    <latitude>24.25</latitude>
    <longitude>55.7838889</longitude>
  </city>
  <city name="As Su`arah">
    <latitude>24.25</latitude>
    <longitude>55.7838889</longitude>
  </city>
  <city name="As Subarah">
    <latitude>24.3466667</latitude>
    <longitude>56.7608333</longitude>
  </city>
  <city name="As Subaykha">
    <latitude>23.3175</latitude>
    <longitude>56.3161111</longitude>
  </city>
  <city name="As Subaykhah">
    <latitude>23.3175</latitude>
    <longitude>56.3161111</longitude>
  </city>
  <city name="As Subaykhi">
    <latitude>23.3175</latitude>
    <longitude>56.3161111</longitude>
  </city>
  <city name="As Sudayrah">
    <latitude>22.5775</latitude>
    <longitude>58.0236111</longitude>
  </city>
  <city name="As Sudiyah">
    <latitude>24.5530556</latitude>
    <longitude>56.1519444</longitude>
  </city>
  <city name="As Suhar">
    <latitude>24.3688889</latitude>
    <longitude>56.7438889</longitude>
  </city>
  <city name="As Sukhnah">
    <latitude>23.4397222</latitude>
    <longitude>58.2083333</longitude>
  </city>
  <city name="As Sulayb">
    <latitude>22.0141667</latitude>
    <longitude>59.6613889</longitude>
  </city>
  <city name="As Sulayf">
    <latitude>23.2047222</latitude>
    <longitude>56.5247222</longitude>
  </city>
  <city name="As Sumayni">
    <latitude>24.6666667</latitude>
    <longitude>55.9291667</longitude>
  </city>
  <city name="As Sunaynah">
    <latitude>23.6072222</latitude>
    <longitude>55.9586111</longitude>
  </city>
  <city name="As Sur">
    <latitude>22.5666667</latitude>
    <longitude>59.5288889</longitude>
  </city>
  <city name="As Suraymah">
    <latitude>23.8791667</latitude>
    <longitude>57.3405556</longitude>
  </city>
  <city name="As Suwaih">
    <latitude>22.0852778</latitude>
    <longitude>59.6855556</longitude>
  </city>
  <city name="As Suwaiq">
    <latitude>23.8494444</latitude>
    <longitude>57.4386111</longitude>
  </city>
  <city name="As Suwayb">
    <latitude>23.2044444</latitude>
    <longitude>57.5255556</longitude>
  </city>
  <city name="As Suwayh">
    <latitude>22.0852778</latitude>
    <longitude>59.6855556</longitude>
  </city>
  <city name="As Suwayq">
    <latitude>23.8394444</latitude>
    <longitude>57.4283333</longitude>
  </city>
  <city name="As Suwayr">
    <latitude>23.4444444</latitude>
    <longitude>57.6538889</longitude>
  </city>
  <city name="Aswad">
    <latitude>24.8702778</latitude>
    <longitude>56.3252778</longitude>
  </city>
  <city name="A`tayr">
    <latitude>17.1180556</latitude>
    <longitude>54.5552778</longitude>
  </city>
  <city name="Athabat">
    <latitude>25.7666667</latitude>
    <longitude>56.15</longitude>
  </city>
  <city name="Ath Tharmad">
    <latitude>23.7966667</latitude>
    <longitude>57.5025</longitude>
  </city>
  <city name="Ath Thaybat">
    <latitude>24.1</latitude>
    <longitude>56.4333333</longitude>
  </city>
  <city name="Ath Thuqbah">
    <latitude>24.25</latitude>
    <longitude>56.3166667</longitude>
  </city>
  <city name="At Tab">
    <latitude>26.0319444</latitude>
    <longitude>56.2280556</longitude>
  </city>
  <city name="At Taqa">
    <latitude>17.0372222</latitude>
    <longitude>54.4036111</longitude>
  </city>
  <city name="At Tau">
    <latitude>23.5502778</latitude>
    <longitude>58.0222222</longitude>
  </city>
  <city name="At Tawayb">
    <latitude>22.4075</latitude>
    <longitude>59.3255556</longitude>
  </city>
  <city name="At Tawiyan">
    <latitude>22.6033333</latitude>
    <longitude>59.4652778</longitude>
  </city>
  <city name="At Tawqah">
    <latitude>26.0486111</latitude>
    <longitude>56.2197222</longitude>
  </city>
  <city name="At Tayi">
    <latitude>22.3988889</latitude>
    <longitude>59.3247222</longitude>
  </city>
  <city name="At Tikhah">
    <latitude>23.185</latitude>
    <longitude>57.6130556</longitude>
  </city>
  <city name="At Toyan">
    <latitude>23.3244444</latitude>
    <longitude>57.9394444</longitude>
  </city>
  <city name="At Tuwayyah">
    <latitude>24.7605556</latitude>
    <longitude>56.1725</longitude>
  </city>
  <city name="'Auhi">
    <latitude>24.3958333</latitude>
    <longitude>56.6702778</longitude>
  </city>
  <city name="Auqad">
    <latitude>17.0033333</latitude>
    <longitude>54.0377778</longitude>
  </city>
  <city name="Autuch">
    <latitude>17.1805556</latitude>
    <longitude>54.0877778</longitude>
  </city>
  <city name="`Awabi">
    <latitude>23.3061111</latitude>
    <longitude>57.5311111</longitude>
  </city>
  <city name="Awbi">
    <latitude>23.3061111</latitude>
    <longitude>57.5311111</longitude>
  </city>
  <city name="`Awf">
    <latitude>22.9955556</latitude>
    <longitude>58.4738889</longitude>
  </city>
  <city name="`Awhi">
    <latitude>24.3958333</latitude>
    <longitude>56.6702778</longitude>
  </city>
  <city name="`Awqad">
    <latitude>17.0033333</latitude>
    <longitude>54.0377778</longitude>
  </city>
  <city name="`Awqad Bayt Fadil">
    <latitude>17.0033333</latitude>
    <longitude>54.0377778</longitude>
  </city>
  <city name="`Awqad Bayt Marhun">
    <latitude>16.9991667</latitude>
    <longitude>54.0533333</longitude>
  </city>
  <city name="Aydawr">
    <latitude>17.1025</latitude>
    <longitude>54.5933333</longitude>
  </city>
  <city name="`Ayja">
    <latitude>22.5669444</latitude>
    <longitude>59.5427778</longitude>
  </city>
  <city name="`Ayn al Mahab">
    <latitude>24.0116667</latitude>
    <longitude>56.6961111</longitude>
  </city>
  <city name="`Ayn `Amq">
    <latitude>23.2527778</latitude>
    <longitude>57.3405556</longitude>
  </city>
  <city name="`Ayn ash Shadniyah">
    <latitude>22.5469444</latitude>
    <longitude>59.1280556</longitude>
  </city>
  <city name="`Ayn as Si">
    <latitude>26.0261111</latitude>
    <longitude>56.2275</longitude>
  </city>
  <city name="`Ayn">
    <latitude>23.0336111</latitude>
    <longitude>58.2788889</longitude>
  </city>
  <city name="`Aynayn">
    <latitude>22.5802778</latitude>
    <longitude>58.1305556</longitude>
  </city>
  <city name="Aynayn">
    <latitude>23.2888889</latitude>
    <longitude>56.5472222</longitude>
  </city>
  <city name="`Ayniyah">
    <latitude>23.3863889</latitude>
    <longitude>57.4222222</longitude>
  </city>
  <city name="`Ayqa">
    <latitude>22.5669444</latitude>
    <longitude>59.5427778</longitude>
  </city>
  <city name="`Ayqah">
    <latitude>22.5669444</latitude>
    <longitude>59.5427778</longitude>
  </city>
  <city name="Aytin">
    <latitude>17.0591667</latitude>
    <longitude>54.5966667</longitude>
  </city>
  <city name="`Ayun">
    <latitude>22.0322222</latitude>
    <longitude>59.4902778</longitude>
  </city>
  <city name="Azaiba">
    <latitude>23.6005556</latitude>
    <longitude>58.3763889</longitude>
  </city>
  <city name="Azeyrenawt">
    <latitude>17.1038889</latitude>
    <longitude>54.0297222</longitude>
  </city>
  <city name="AzÌ§ ZÌ§ahir">
    <latitude>22.5986111</latitude>
    <longitude>58.8263889</longitude>
  </city>
  <city name="AzÌ§ ZÌ§ahrayn">
    <latitude>26.0969444</latitude>
    <longitude>56.1952778</longitude>
  </city>
  <city name="AzÌ§ ZÌ§uwayhir">
    <latitude>23.9158333</latitude>
    <longitude>56.7141667</longitude>
  </city>
  <city name="Azki">
    <latitude>22.9333333</latitude>
    <longitude>57.7666667</longitude>
  </city>
  <city name="Badaj `Ud">
    <latitude>23.8241667</latitude>
    <longitude>57.5086111</longitude>
  </city>
  <city name="Badi`ah">
    <latitude>23.1155556</latitude>
    <longitude>58.5130556</longitude>
  </city>
  <city name="Badi`ah `Ud">
    <latitude>23.8241667</latitude>
    <longitude>57.5086111</longitude>
  </city>
  <city name="Badi`at `Ud">
    <latitude>23.8241667</latitude>
    <longitude>57.5086111</longitude>
  </city>
  <city name="Badi">
    <latitude>23.3561111</latitude>
    <longitude>58.0477778</longitude>
  </city>
  <city name="Badiya">
    <latitude>22.45</latitude>
    <longitude>58.8</longitude>
  </city>
  <city name="Badiyah">
    <latitude>23.7213889</latitude>
    <longitude>56.9047222</longitude>
  </city>
  <city name="Bahla'">
    <latitude>22.9666667</latitude>
    <longitude>57.3</longitude>
  </city>
  <city name="Bahlah">
    <latitude>22.9666667</latitude>
    <longitude>57.3</longitude>
  </city>
  <city name="Bai'a">
    <latitude>25.6355556</latitude>
    <longitude>56.2655556</longitude>
  </city>
  <city name="Baiah">
    <latitude>25.6355556</latitude>
    <longitude>56.2655556</longitude>
  </city>
  <city name="Bait al Falaj">
    <latitude>23.6033333</latitude>
    <longitude>58.5547222</longitude>
  </city>
  <city name="Bait el Falaj">
    <latitude>23.6033333</latitude>
    <longitude>58.5547222</longitude>
  </city>
  <city name="Bait Rathawt">
    <latitude>17.1897222</latitude>
    <longitude>54.1852778</longitude>
  </city>
  <city name="Bakha">
    <latitude>26.1430556</latitude>
    <longitude>56.1527778</longitude>
  </city>
  <city name="Bakhabi">
    <latitude>23.4508333</latitude>
    <longitude>56.2083333</longitude>
  </city>
  <city name="Bakhah">
    <latitude>23.3088889</latitude>
    <longitude>57.9925</longitude>
  </city>
  <city name="Balad Bani Bu Ali">
    <latitude>22.0161111</latitude>
    <longitude>59.3241667</longitude>
  </city>
  <city name="Balad Bani Bu Hassan">
    <latitude>22.0816667</latitude>
    <longitude>59.2797222</longitude>
  </city>
  <city name="Balad Shabus">
    <latitude>26.1619444</latitude>
    <longitude>56.4375</longitude>
  </city>
  <city name="Ba'l">
    <latitude>23.2619444</latitude>
    <longitude>58.5911111</longitude>
  </city>
  <city name="Bal Ghaylan">
    <latitude>23.0636111</latitude>
    <longitude>58.0705556</longitude>
  </city>
  <city name="Bandah Jadidah">
    <latitude>22.1197222</latitude>
    <longitude>59.7152778</longitude>
  </city>
  <city name="Bandar al Jissa">
    <latitude>23.5513889</latitude>
    <longitude>58.6427778</longitude>
  </city>
  <city name="Bandar Jissah">
    <latitude>23.5513889</latitude>
    <longitude>58.6427778</longitude>
  </city>
  <city name="Bandar Khayran">
    <latitude>23.5013889</latitude>
    <longitude>58.7325</longitude>
  </city>
  <city name="Bani Habib">
    <latitude>23.0713889</latitude>
    <longitude>57.6019444</longitude>
  </city>
  <city name="Bani Ka`b">
    <latitude>24.5333333</latitude>
    <longitude>56.0833333</longitude>
  </city>
  <city name="Baqlah">
    <latitude>24.4</latitude>
    <longitude>56.0333333</longitude>
  </city>
  <city name="Baraimi">
    <latitude>24.25</latitude>
    <longitude>55.75</longitude>
  </city>
  <city name="Bari">
    <latitude>23.7569444</latitude>
    <longitude>57.6522222</longitude>
  </city>
  <city name="Baridah">
    <latitude>23.8022222</latitude>
    <longitude>57.4769444</longitude>
  </city>
  <city name="Barik">
    <latitude>20.8833333</latitude>
    <longitude>56.5166667</longitude>
  </city>
  <city name="Barka'">
    <latitude>23.7091667</latitude>
    <longitude>57.8869444</longitude>
  </city>
  <city name="Barkah">
    <latitude>23.7091667</latitude>
    <longitude>57.8869444</longitude>
  </city>
  <city name="Barsit">
    <latitude>23.7066667</latitude>
    <longitude>57.9055556</longitude>
  </city>
  <city name="Barut">
    <latitude>23.2297222</latitude>
    <longitude>57.0466667</longitude>
  </city>
  <city name="Barzaman">
    <latitude>22.2994444</latitude>
    <longitude>58.07</longitude>
  </city>
  <city name="Bat">
    <latitude>24.5222222</latitude>
    <longitude>56.2775</longitude>
  </city>
  <city name="Batha'">
    <latitude>23.8252778</latitude>
    <longitude>57.4130556</longitude>
  </city>
  <city name="Batha' Jibah">
    <latitude>23.8533333</latitude>
    <longitude>57.4266667</longitude>
  </city>
  <city name="Bathar/Baithakoob">
    <latitude>17.1655556</latitude>
    <longitude>54.4369444</longitude>
  </city>
  <city name="Bat-hat Yal Sa`d">
    <latitude>23.8252778</latitude>
    <longitude>57.4130556</longitude>
  </city>
  <city name="Batha' Yal Sa`d">
    <latitude>23.8252778</latitude>
    <longitude>57.4130556</longitude>
  </city>
  <city name="Batin">
    <latitude>22.7666667</latitude>
    <longitude>58.6666667</longitude>
  </city>
  <city name="Baushar">
    <latitude>23.5316667</latitude>
    <longitude>58.3894444</longitude>
  </city>
  <city name="Bawshar">
    <latitude>23.5316667</latitude>
    <longitude>58.3894444</longitude>
  </city>
  <city name="Bay`ah">
    <latitude>23.0161111</latitude>
    <longitude>58.0222222</longitude>
  </city>
  <city name="Bayda'">
    <latitude>24.3666667</latitude>
    <longitude>56.4166667</longitude>
  </city>
  <city name="Bayha'">
    <latitude>23.8616667</latitude>
    <longitude>56.3741667</longitude>
  </city>
  <city name="Baynunah">
    <latitude>24.2358333</latitude>
    <longitude>56.8252778</longitude>
  </city>
  <city name="Bayt al `Awabi">
    <latitude>23.2997222</latitude>
    <longitude>57.5294444</longitude>
  </city>
  <city name="Bayt al Buwaydh">
    <latitude>26.0933333</latitude>
    <longitude>56.1822222</longitude>
  </city>
  <city name="Bayt al Falaj">
    <latitude>23.6033333</latitude>
    <longitude>58.5547222</longitude>
  </city>
  <city name="Bayt ash Shaykh">
    <latitude>26.0697222</latitude>
    <longitude>56.2072222</longitude>
  </city>
  <city name="Bayt Fiqait">
    <latitude>17.15</latitude>
    <longitude>54.4166667</longitude>
  </city>
  <city name="Bayt Fiqayt">
    <latitude>17.15</latitude>
    <longitude>54.4166667</longitude>
  </city>
  <city name="Bayt Jabal">
    <latitude>23.3141667</latitude>
    <longitude>58.0061111</longitude>
  </city>
  <city name="Bayt Khawr">
    <latitude>25.8113889</latitude>
    <longitude>56.3169444</longitude>
  </city>
  <city name="Bayyid">
    <latitude>23.0469444</latitude>
    <longitude>58.6611111</longitude>
  </city>
  <city name="Beda">
    <latitude>23.65</latitude>
    <longitude>57.09</longitude>
  </city>
  <city name="Bi'ah">
    <latitude>25.6355556</latitude>
    <longitude>56.2655556</longitude>
  </city>
  <city name="Bi`aq">
    <latitude>23.8433333</latitude>
    <longitude>56.7825</longitude>
  </city>
  <city name="Biban">
    <latitude>23.0911111</latitude>
    <longitude>57.7244444</longitude>
  </city>
  <city name="Bid'ah">
    <latitude>23.3958333</latitude>
    <longitude>56.9844444</longitude>
  </city>
  <city name="Bid`ah">
    <latitude>22.5497222</latitude>
    <longitude>59.1202778</longitude>
  </city>
  <city name="Bidbid">
    <latitude>23.4063889</latitude>
    <longitude>58.1263889</longitude>
  </city>
  <city name="Biddi">
    <latitude>23.1891667</latitude>
    <longitude>57.61</longitude>
  </city>
  <city name="Bidi">
    <latitude>26.2752778</latitude>
    <longitude>56.3697222</longitude>
  </city>
  <city name="Bidit">
    <latitude>23.65</latitude>
    <longitude>57.09</longitude>
  </city>
  <city name="Bilad `Aqabat al Hamra'">
    <latitude>23.1583333</latitude>
    <longitude>57.3391667</longitude>
  </city>
  <city name="Bilad `Aqabat al Hamrah">
    <latitude>23.1583333</latitude>
    <longitude>57.3391667</longitude>
  </city>
  <city name="Bilad as Sur">
    <latitude>22.5591667</latitude>
    <longitude>59.4772222</longitude>
  </city>
  <city name="Bilad Bani Bu `Ali">
    <latitude>22.0161111</latitude>
    <longitude>59.3241667</longitude>
  </city>
  <city name="Bilad Bani Bu Hasan">
    <latitude>22.0816667</latitude>
    <longitude>59.2797222</longitude>
  </city>
  <city name="Bilad Bani Rasib">
    <latitude>22.1636111</latitude>
    <longitude>59.235</longitude>
  </city>
  <city name="Bilad">
    <latitude>23.1872222</latitude>
    <longitude>58.9827778</longitude>
  </city>
  <city name="Bilad Manah">
    <latitude>22.7833333</latitude>
    <longitude>57.6</longitude>
  </city>
  <city name="Bilad Sayt">
    <latitude>23.0630556</latitude>
    <longitude>57.2647222</longitude>
  </city>
  <city name="Bilad Shahum">
    <latitude>23.3994444</latitude>
    <longitude>56.9975</longitude>
  </city>
  <city name="Billa">
    <latitude>23.7186111</latitude>
    <longitude>57.7602778</longitude>
  </city>
  <city name="Billah">
    <latitude>23.7186111</latitude>
    <longitude>57.7602778</longitude>
  </city>
  <city name="Bilt">
    <latitude>23.9333333</latitude>
    <longitude>56.2333333</longitude>
  </city>
  <city name="Bimah">
    <latitude>23.2080556</latitude>
    <longitude>57.3813889</longitude>
  </city>
  <city name="Bimma">
    <latitude>23.0166667</latitude>
    <longitude>59.1166667</longitude>
  </city>
  <city name="Bimmah">
    <latitude>22.9922222</latitude>
    <longitude>59.1383333</longitude>
  </city>
  <city name="Bin `Umran">
    <latitude>23.5294444</latitude>
    <longitude>58.3886111</longitude>
  </city>
  <city name="Bira">
    <latitude>22.6902778</latitude>
    <longitude>58.5469444</longitude>
  </city>
  <city name="Bi'r Ajman">
    <latitude>23.0666667</latitude>
    <longitude>58.6166667</longitude>
  </city>
  <city name="Bi'r">
    <latitude>23.0916667</latitude>
    <longitude>58.2366667</longitude>
  </city>
  <city name="Bi'r Bira'">
    <latitude>22.6116667</latitude>
    <longitude>59.4680556</longitude>
  </city>
  <city name="Bireimi">
    <latitude>24.25</latitude>
    <longitude>55.75</longitude>
  </city>
  <city name="Birkat al Mauz">
    <latitude>22.9333333</latitude>
    <longitude>57.6666667</longitude>
  </city>
  <city name="Birkat al Mawz">
    <latitude>22.9333333</latitude>
    <longitude>57.6666667</longitude>
  </city>
  <city name="Birkat al Nuss">
    <latitude>26.0855556</latitude>
    <longitude>56.2647222</longitude>
  </city>
  <city name="Birkat di Moz">
    <latitude>22.9333333</latitude>
    <longitude>57.6666667</longitude>
  </city>
  <city name="Birkat Khaldiyah">
    <latitude>26.04</latitude>
    <longitude>56.3602778</longitude>
  </city>
  <city name="Bisafteer">
    <latitude>17.1944444</latitude>
    <longitude>53.9933333</longitude>
  </city>
  <city name="Bisaftir">
    <latitude>17.1944444</latitude>
    <longitude>53.9933333</longitude>
  </city>
  <city name="Bisiyah">
    <latitude>22.7166667</latitude>
    <longitude>57.2333333</longitude>
  </city>
  <city name="Bisiyai">
    <latitude>22.7166667</latitude>
    <longitude>57.2333333</longitude>
  </city>
  <city name="Bisyah">
    <latitude>22.7166667</latitude>
    <longitude>57.2333333</longitude>
  </city>
  <city name="Biyad">
    <latitude>23.1741667</latitude>
    <longitude>57.8677778</longitude>
  </city>
  <city name="Biyaq">
    <latitude>23.1741667</latitude>
    <longitude>57.8677778</longitude>
  </city>
  <city name="Bu `Abali">
    <latitude>23.7397222</latitude>
    <longitude>57.6808333</longitude>
  </city>
  <city name="Bu `Aid">
    <latitude>22.3747222</latitude>
    <longitude>58.0119444</longitude>
  </city>
  <city name="Bu `Asim">
    <latitude>23.7088889</latitude>
    <longitude>57.6052778</longitude>
  </city>
  <city name="Bu`ayd">
    <latitude>22.3747222</latitude>
    <longitude>58.0119444</longitude>
  </city>
  <city name="Bu`ayq">
    <latitude>23.8433333</latitude>
    <longitude>56.7825</longitude>
  </city>
  <city name="Buba`irah">
    <latitude>22.9186111</latitude>
    <longitude>58.0780556</longitude>
  </city>
  <city name="Bu Baqara">
    <latitude>23.9725</latitude>
    <longitude>55.8288889</longitude>
  </city>
  <city name="Bu Baqarah">
    <latitude>24.8802778</latitude>
    <longitude>56.4080556</longitude>
  </city>
  <city name="Budahr">
    <latitude>23.1372222</latitude>
    <longitude>58.4013889</longitude>
  </city>
  <city name="Buday`ah">
    <latitude>23.7213889</latitude>
    <longitude>56.9047222</longitude>
  </city>
  <city name="Bu Fashiqah">
    <latitude>22.2619444</latitude>
    <longitude>59.6938889</longitude>
  </city>
  <city name="Bugla">
    <latitude>24.4</latitude>
    <longitude>56.0333333</longitude>
  </city>
  <city name="Bu Khabi">
    <latitude>23.4508333</latitude>
    <longitude>56.2083333</longitude>
  </city>
  <city name="Bukha">
    <latitude>26.1430556</latitude>
    <longitude>56.1527778</longitude>
  </city>
  <city name="Buklah">
    <latitude>24.4</latitude>
    <longitude>56.0333333</longitude>
  </city>
  <city name="Bulaydah">
    <latitude>23.3833333</latitude>
    <longitude>56.9188889</longitude>
  </city>
  <city name="Bulaytah">
    <latitude>23.7905556</latitude>
    <longitude>57.5372222</longitude>
  </city>
  <city name="Bu Qal`ah">
    <latitude>24.4</latitude>
    <longitude>56.0333333</longitude>
  </city>
  <city name="Buqla">
    <latitude>24.4</latitude>
    <longitude>56.0333333</longitude>
  </city>
  <city name="Buraimi">
    <latitude>24.25</latitude>
    <longitude>55.75</longitude>
  </city>
  <city name="Burami">
    <latitude>24.25</latitude>
    <longitude>55.75</longitude>
  </city>
  <city name="Buri">
    <latitude>23.1655556</latitude>
    <longitude>57.9269444</longitude>
  </city>
  <city name="Burj">
    <latitude>17.4</latitude>
    <longitude>53.9</longitude>
  </city>
  <city name="Bu Saylah">
    <latitude>23.4413889</latitude>
    <longitude>56.2286111</longitude>
  </city>
  <city name="Bu Sayli">
    <latitude>23.4413889</latitude>
    <longitude>56.2286111</longitude>
  </city>
  <city name="Busayliyat">
    <latitude>23.4797222</latitude>
    <longitude>58.085</longitude>
  </city>
  <city name="Busayr">
    <latitude>23.3958333</latitude>
    <longitude>56.9844444</longitude>
  </city>
  <city name="Buwah">
    <latitude>23.4905556</latitude>
    <longitude>58.0452778</longitude>
  </city>
  <city name="Buwayrid">
    <latitude>22.2430556</latitude>
    <longitude>59.2155556</longitude>
  </city>
  <city name="Buwayrik">
    <latitude>23.6194444</latitude>
    <longitude>57.2666667</longitude>
  </city>
  <city name="Buwaytin">
    <latitude>22.6158333</latitude>
    <longitude>58.0408333</longitude>
  </city>
  <city name="Buyut Aram">
    <latitude>17.0888889</latitude>
    <longitude>54.3852778</longitude>
  </city>
  <city name="Camp">
    <latitude>20.6666667</latitude>
    <longitude>58.8833333</longitude>
  </city>
  <city name="Chashawfi">
    <latitude>26.0813889</latitude>
    <longitude>56.1663889</longitude>
  </city>
  <city name="Dabab">
    <latitude>23.0797222</latitude>
    <longitude>59.0547222</longitude>
  </city>
  <city name="Dabah">
    <latitude>17.1533333</latitude>
    <longitude>54.0219444</longitude>
  </city>
  <city name="Dabaran">
    <latitude>26.1586111</latitude>
    <longitude>56.2027778</longitude>
  </city>
  <city name="Dabarayn">
    <latitude>26.1586111</latitude>
    <longitude>56.2027778</longitude>
  </city>
  <city name="Dabbagh">
    <latitude>24.5402778</latitude>
    <longitude>56.5647222</longitude>
  </city>
  <city name="Dab`">
    <latitude>23.4497222</latitude>
    <longitude>57.1147222</longitude>
  </city>
  <city name="Dafiyat">
    <latitude>20.6</latitude>
    <longitude>58.85</longitude>
  </city>
  <city name="Daghali">
    <latitude>23.3116667</latitude>
    <longitude>57.9944444</longitude>
  </city>
  <city name="Daghmar">
    <latitude>23.1833333</latitude>
    <longitude>59.0</longitude>
  </city>
  <city name="Dahaan">
    <latitude>17.1530556</latitude>
    <longitude>54.3808333</longitude>
  </city>
  <city name="Dahaan Khanaat">
    <latitude>17.1444444</latitude>
    <longitude>54.3477778</longitude>
  </city>
  <city name="Dahariz">
    <latitude>17.0097222</latitude>
    <longitude>54.1630556</longitude>
  </city>
  <city name="Dahaz">
    <latitude>23.4186111</latitude>
    <longitude>57.3475</longitude>
  </city>
  <city name="Dahful">
    <latitude>26.165</latitude>
    <longitude>56.3358333</longitude>
  </city>
  <city name="Dahir">
    <latitude>23.6438889</latitude>
    <longitude>56.6444444</longitude>
  </city>
  <city name="Dahit">
    <latitude>26.3122222</latitude>
    <longitude>56.45</longitude>
  </city>
  <city name="Dahiyah">
    <latitude>23.0841667</latitude>
    <longitude>58.1538889</longitude>
  </city>
  <city name="Dahiz">
    <latitude>23.4002778</latitude>
    <longitude>57.4169444</longitude>
  </city>
  <city name="Dahrayn">
    <latitude>26.1027778</latitude>
    <longitude>56.21</longitude>
  </city>
  <city name="Dahr">
    <latitude>24.3</latitude>
    <longitude>56.1166667</longitude>
  </city>
  <city name="Dallah">
    <latitude>23.7525</latitude>
    <longitude>56.6836111</longitude>
  </city>
  <city name="Dalut">
    <latitude>25.7783333</latitude>
    <longitude>56.1961111</longitude>
  </city>
  <city name="Damm">
    <latitude>23.2294444</latitude>
    <longitude>57.0613889</longitude>
  </city>
  <city name="Dana">
    <latitude>25.7683333</latitude>
    <longitude>56.1969444</longitude>
  </city>
  <city name="Danak">
    <latitude>23.5508333</latitude>
    <longitude>56.2575</longitude>
  </city>
  <city name="Dank">
    <latitude>23.5508333</latitude>
    <longitude>56.2575</longitude>
  </city>
  <city name="Dankor">
    <latitude>17.1891667</latitude>
    <longitude>54.1338889</longitude>
  </city>
  <city name="Dann al Hamra'">
    <latitude>23.0613889</latitude>
    <longitude>57.5727778</longitude>
  </city>
  <city name="Dann">
    <latitude>23.0702778</latitude>
    <longitude>56.9658333</longitude>
  </city>
  <city name="Dansaf">
    <latitude>26.0341667</latitude>
    <longitude>56.2794444</longitude>
  </city>
  <city name="Dansat">
    <latitude>26.0341667</latitude>
    <longitude>56.2794444</longitude>
  </city>
  <city name="Daqiq">
    <latitude>24.0833333</latitude>
    <longitude>56.25</longitude>
  </city>
  <city name="Daquq Maghadhi">
    <latitude>17.7333333</latitude>
    <longitude>53.55</longitude>
  </city>
  <city name="Dar al Qal`ah">
    <latitude>23.1513889</latitude>
    <longitude>57.3411111</longitude>
  </city>
  <city name="Darbat">
    <latitude>17.0827778</latitude>
    <longitude>54.4366667</longitude>
  </city>
  <city name="Daris">
    <latitude>23.5727778</latitude>
    <longitude>57.4447222</longitude>
  </city>
  <city name="Dariz">
    <latitude>22.5836111</latitude>
    <longitude>58.6830556</longitude>
  </city>
  <city name="Darsait">
    <latitude>23.6308333</latitude>
    <longitude>58.5436111</longitude>
  </city>
  <city name="Dar Sawda'">
    <latitude>23.2405556</latitude>
    <longitude>57.195</longitude>
  </city>
  <city name="Darsayt `Alwa">
    <latitude>23.6144444</latitude>
    <longitude>58.5388889</longitude>
  </city>
  <city name="Darsayt">
    <latitude>23.6308333</latitude>
    <longitude>58.5436111</longitude>
  </city>
  <city name="Dasir">
    <latitude>23.2511111</latitude>
    <longitude>58.1011111</longitude>
  </city>
  <city name="Dat Hayl">
    <latitude>23.0863889</latitude>
    <longitude>57.2980556</longitude>
  </city>
  <city name="Dauka">
    <latitude>18.65</latitude>
    <longitude>54.0833333</longitude>
  </city>
  <city name="Dawanij">
    <latitude>24.5827778</latitude>
    <longitude>56.5563889</longitude>
  </city>
  <city name="Dawkah">
    <latitude>18.65</latitude>
    <longitude>54.0833333</longitude>
  </city>
  <city name="Dawqa">
    <latitude>18.65</latitude>
    <longitude>54.0833333</longitude>
  </city>
  <city name="Daw Sunni">
    <latitude>26.3172222</latitude>
    <longitude>56.5008333</longitude>
  </city>
  <city name="Dawt">
    <latitude>23.5502778</latitude>
    <longitude>56.3569444</longitude>
  </city>
  <city name="Dawwah">
    <latitude>20.5483333</latitude>
    <longitude>58.8075</longitude>
  </city>
  <city name="Dayrat al Khatamah">
    <latitude>26.0138889</latitude>
    <longitude>56.4063889</longitude>
  </city>
  <city name="Dazzah">
    <latitude>17.1925</latitude>
    <longitude>54.3188889</longitude>
  </city>
  <city name="Delute">
    <latitude>25.7783333</latitude>
    <longitude>56.1961111</longitude>
  </city>
  <city name="Dhahib">
    <latitude>22.5386111</latitude>
    <longitude>58.1180556</longitude>
  </city>
  <city name="Dhahir">
    <latitude>19.1</latitude>
    <longitude>56.9666667</longitude>
  </city>
  <city name="Dhahr">
    <latitude>24.3</latitude>
    <longitude>56.1166667</longitude>
  </city>
  <city name="Dhaid Rasm">
    <latitude>17.1416667</latitude>
    <longitude>54.0441667</longitude>
  </city>
  <city name="Dhaliaatat">
    <latitude>17.2280556</latitude>
    <longitude>54.6036111</longitude>
  </city>
  <city name="Dhalqut">
    <latitude>16.7</latitude>
    <longitude>53.25</longitude>
  </city>
  <city name="Dhank">
    <latitude>23.5508333</latitude>
    <longitude>56.2575</longitude>
  </city>
  <city name="Dhayd Rasm">
    <latitude>17.1416667</latitude>
    <longitude>54.0441667</longitude>
  </city>
  <city name="Dhibab">
    <latitude>23.0797222</latitude>
    <longitude>59.0547222</longitude>
  </city>
  <city name="Dhibad">
    <latitude>23.0797222</latitude>
    <longitude>59.0547222</longitude>
  </city>
  <city name="Dhinab Khant">
    <latitude>26.045</latitude>
    <longitude>56.2472222</longitude>
  </city>
  <city name="Dhiqdah">
    <latitude>23.3922222</latitude>
    <longitude>58.7527778</longitude>
  </city>
  <city name="Dhuwwah">
    <latitude>20.5483333</latitude>
    <longitude>58.8075</longitude>
  </city>
  <city name="Diba al Bay`ah">
    <latitude>25.6355556</latitude>
    <longitude>56.2655556</longitude>
  </city>
  <city name="Dibab">
    <latitude>23.0797222</latitude>
    <longitude>59.0547222</longitude>
  </city>
  <city name="Diba Dib`">
    <latitude>26.1977778</latitude>
    <longitude>56.2577778</longitude>
  </city>
  <city name="Dibba Dib">
    <latitude>26.1977778</latitude>
    <longitude>56.2577778</longitude>
  </city>
  <city name="Dib Dibba">
    <latitude>26.1977778</latitude>
    <longitude>56.2577778</longitude>
  </city>
  <city name="Difa`">
    <latitude>23.3908333</latitude>
    <longitude>57.2166667</longitude>
  </city>
  <city name="Difan">
    <latitude>25.6461111</latitude>
    <longitude>56.1644444</longitude>
  </city>
  <city name="Dihan">
    <latitude>17.1530556</latitude>
    <longitude>54.3808333</longitude>
  </city>
  <city name="Dihan Khanat">
    <latitude>17.1444444</latitude>
    <longitude>54.3477778</longitude>
  </city>
  <city name="Dihas">
