<?xml version="1.0" encoding="UTF-8"?>
<country code="pe" name="Pérou">
  <city name="3 De Octubre">
    <latitude>-9.1166667</latitude>
    <longitude>-78.55</longitude>
  </city>
  <city name="Abancai">
    <latitude>-13.6338889</latitude>
    <longitude>-72.8813889</longitude>
  </city>
  <city name="Abancay">
    <latitude>-13.6338889</latitude>
    <longitude>-72.8813889</longitude>
  </city>
  <city name="Abas Chacra">
    <latitude>-15.4305556</latitude>
    <longitude>-73.4975</longitude>
  </city>
  <city name="Abisinia">
    <latitude>-13.9833333</latitude>
    <longitude>-75.7</longitude>
  </city>
  <city name="Abracala">
    <latitude>-16.1163889</latitude>
    <longitude>-71.7327778</longitude>
  </city>
  <city name="Abra de Huillque">
    <latitude>-13.45</latitude>
    <longitude>-72.3666667</longitude>
  </city>
  <city name="Abrojal">
    <latitude>-6.3666667</latitude>
    <longitude>-79.8166667</longitude>
  </city>
  <city name="Abujao">
    <latitude>-8.1833333</latitude>
    <longitude>-73.7666667</longitude>
  </city>
  <city name="Aburgos">
    <latitude>-8.3166667</latitude>
    <longitude>-78.1833333</longitude>
  </city>
  <city name="Acabara">
    <latitude>-13.1194444</latitude>
    <longitude>-73.9502778</longitude>
  </city>
  <city name="Acachare">
    <latitude>-12.2833333</latitude>
    <longitude>-76.2</longitude>
  </city>
  <city name="Acacoto">
    <latitude>-11.7166667</latitude>
    <longitude>-76.8833333</longitude>
  </city>
  <city name="Acain">
    <latitude>-10.8933333</latitude>
    <longitude>-76.8008333</longitude>
  </city>
  <city name="Acalcane">
    <latitude>-15.0411111</latitude>
    <longitude>-72.4494444</longitude>
  </city>
  <city name="Acallario">
    <latitude>-13.85</latitude>
    <longitude>-74.5333333</longitude>
  </city>
  <city name="Acanane">
    <latitude>-15.4</latitude>
    <longitude>-69.3333333</longitude>
  </city>
  <city name="Acancocha">
    <latitude>-11.0261111</latitude>
    <longitude>-75.7577778</longitude>
  </city>
  <city name="Acanuari">
    <latitude>-14.7958333</latitude>
    <longitude>-71.6805556</longitude>
  </city>
  <city name="Acapampa">
    <latitude>-15.3666667</latitude>
    <longitude>-70.0666667</longitude>
  </city>
  <city name="Acapulco">
    <latitude>-3.7436111</latitude>
    <longitude>-80.7777778</longitude>
  </city>
  <city name="Acaray">
    <latitude>-11.0666667</latitude>
    <longitude>-77.55</longitude>
  </city>
  <city name="Acaray Hacienda">
    <latitude>-11.0666667</latitude>
    <longitude>-77.55</longitude>
  </city>
  <city name="Acarí">
    <latitude>-15.4311111</latitude>
    <longitude>-74.6158333</longitude>
  </city>
  <city name="Acaricocha">
    <latitude>-11.15</latitude>
    <longitude>-75.7666667</longitude>
  </city>
  <city name="Acas">
    <latitude>-10.45</latitude>
    <longitude>-77.3166667</longitude>
  </city>
  <city name="Acathuta">
    <latitude>-17.3166667</latitude>
    <longitude>-69.7166667</longitude>
  </city>
  <city name="Acavilla">
    <latitude>-15.4166667</latitude>
    <longitude>-74.3166667</longitude>
  </city>
  <city name="Accepata">
    <latitude>-15.2147222</latitude>
    <longitude>-71.3363889</longitude>
  </city>
  <city name="Acce Punco">
    <latitude>-14.2572222</latitude>
    <longitude>-71.2966667</longitude>
  </city>
  <city name="Accerane">
    <latitude>-14.6361111</latitude>
    <longitude>-71.9244444</longitude>
  </city>
  <city name="Accha">
    <latitude>-13.9738889</latitude>
    <longitude>-71.8266667</longitude>
  </city>
  <city name="Acchabamba">
    <latitude>-13.85</latitude>
    <longitude>-72.0833333</longitude>
  </city>
  <city name="Acchabamba Hacienda">
    <latitude>-13.85</latitude>
    <longitude>-72.0833333</longitude>
  </city>
  <city name="Acchanca">
    <latitude>-15.7372222</latitude>
    <longitude>-72.5611111</longitude>
  </city>
  <city name="Acchapuna">
    <latitude>-15.4786111</latitude>
    <longitude>-72.9452778</longitude>
  </city>
  <city name="Acchimachay">
    <latitude>-13.35</latitude>
    <longitude>-74.8</longitude>
  </city>
  <city name="Acchupata">
    <latitude>-7.3</latitude>
    <longitude>-78.0333333</longitude>
  </city>
  <city name="Accitinquina">
    <latitude>-15.5775</latitude>
    <longitude>-71.7575</longitude>
  </city>
  <city name="Accmay">
    <latitude>-13.75</latitude>
    <longitude>-73.9666667</longitude>
  </city>
  <city name="Acco">
    <latitude>-9.0666667</latitude>
    <longitude>-77.1</longitude>
  </city>
  <city name="Accocancha Alto">
    <latitude>-12.1833333</latitude>
    <longitude>-75.45</longitude>
  </city>
  <city name="Accoccasa">
    <latitude>-13.5333333</latitude>
    <longitude>-74.3333333</longitude>
  </city>
  <city name="Accocerca">
    <latitude>-13.1333333</latitude>
    <longitude>-74.95</longitude>
  </city>
  <city name="Accocucho">
    <latitude>-13.1833333</latitude>
    <longitude>-74.6166667</longitude>
  </city>
  <city name="Accocunca">
    <latitude>-13.8833333</latitude>
    <longitude>-74.0166667</longitude>
  </city>
  <city name="Acco Cunca">
    <latitude>-14.7694444</latitude>
    <longitude>-71.2541667</longitude>
  </city>
  <city name="Accocunta">
    <latitude>-15.2063889</latitude>
    <longitude>-71.6852778</longitude>
  </city>
  <city name="Accohuasa">
    <latitude>-14.9227778</latitude>
    <longitude>-71.5041667</longitude>
  </city>
  <city name="Accohuaycco">
    <latitude>-15.1333333</latitude>
    <longitude>-74.25</longitude>
  </city>
  <city name="Accoma">
    <latitude>-15.7466667</latitude>
    <longitude>-71.3697222</longitude>
  </city>
  <city name="Accomarca">
    <latitude>-13.8033333</latitude>
    <longitude>-73.9041667</longitude>
  </city>
  <city name="Accomocco">
    <latitude>-13.5833333</latitude>
    <longitude>-74.2</longitude>
  </city>
  <city name="Accontaña">
    <latitude>-15.5333333</latitude>
    <longitude>-71.3291667</longitude>
  </city>
  <city name="Acco-Pampa">
    <latitude>-9.2833333</latitude>
    <longitude>-77.6</longitude>
  </city>
  <city name="Accopampa">
    <latitude>-13.0833333</latitude>
    <longitude>-74.9333333</longitude>
  </city>
  <city name="Accopata">
    <latitude>-15.3502778</latitude>
    <longitude>-71.3563889</longitude>
  </city>
  <city name="Accopiñata">
    <latitude>-15.1908333</latitude>
    <longitude>-71.3830556</longitude>
  </city>
  <city name="Accopunco">
    <latitude>-14.9363889</latitude>
    <longitude>-71.825</longitude>
  </city>
  <city name="Accopuquío">
    <latitude>-13.1833333</latitude>
    <longitude>-74.3833333</longitude>
  </city>
  <city name="Acco Rana">
    <latitude>-15.3994444</latitude>
    <longitude>-71.2555556</longitude>
  </city>
  <city name="Accorane">
    <latitude>-15.2322222</latitude>
    <longitude>-71.3933333</longitude>
  </city>
  <city name="Accoro">
    <latitude>-13.4666667</latitude>
    <longitude>-74.6666667</longitude>
  </city>
  <city name="Accosanqui">
    <latitude>-15.0833333</latitude>
    <longitude>-73.7833333</longitude>
  </city>
  <city name="Accositanga">
    <latitude>-15.2036111</latitude>
    <longitude>-73.1869444</longitude>
  </city>
  <city name="Accosora">
    <latitude>-15.2266667</latitude>
    <longitude>-71.3133333</longitude>
  </city>
  <city name="Acco Sututo">
    <latitude>-14.6130556</latitude>
    <longitude>-71.9197222</longitude>
  </city>
  <city name="Accota">
    <latitude>-15.6672222</latitude>
    <longitude>-72.4911111</longitude>
  </city>
  <city name="Accotaña">
    <latitude>-15.2727778</latitude>
    <longitude>-71.8858333</longitude>
  </city>
  <city name="Accotira">
    <latitude>-15.0997222</latitude>
    <longitude>-71.24</longitude>
  </city>
  <city name="Accoytanca">
    <latitude>-15.2008333</latitude>
    <longitude>-71.2594444</longitude>
  </city>
  <city name="Accpitán">
    <latitude>-13.85</latitude>
    <longitude>-72.4333333</longitude>
  </city>
  <city name="Accsahua">
    <latitude>-13.15</latitude>
    <longitude>-74.9</longitude>
  </city>
  <city name="Acctapa">
    <latitude>-14.4666667</latitude>
    <longitude>-74.3</longitude>
  </city>
  <city name="Accuata">
    <latitude>-15.0888889</latitude>
    <longitude>-70.9169444</longitude>
  </city>
  <city name="Acequia Alta">
    <latitude>-16.36</latitude>
    <longitude>-71.5430556</longitude>
  </city>
  <city name="Acerca">
    <latitude>-11.0958333</latitude>
    <longitude>-76.6986111</longitude>
  </city>
  <city name="Aceroccollo">
    <latitude>-14.8005556</latitude>
    <longitude>-71.79</longitude>
  </city>
  <city name="Acero Patjata">
    <latitude>-16.25</latitude>
    <longitude>-69.1333333</longitude>
  </city>
  <city name="Achacala">
    <latitude>-16.7166667</latitude>
    <longitude>-70.35</longitude>
  </city>
  <city name="Achacalane">
    <latitude>-16.6833333</latitude>
    <longitude>-70.5666667</longitude>
  </city>
  <city name="Achacana">
    <latitude>-13.6166667</latitude>
    <longitude>-74.9666667</longitude>
  </city>
  <city name="Achacarca">
    <latitude>-15.0166667</latitude>
    <longitude>-69.55</longitude>
  </city>
  <city name="Achacco">
    <latitude>-15.1536111</latitude>
    <longitude>-71.6205556</longitude>
  </city>
  <city name="Achachorcro">
    <latitude>-15.335</latitude>
    <longitude>-71.7627778</longitude>
  </city>
  <city name="Achaco">
    <latitude>-15.2244444</latitude>
    <longitude>-72.4822222</longitude>
  </city>
  <city name="Achaco Bajo">
    <latitude>-14.8333333</latitude>
    <longitude>-74.9833333</longitude>
  </city>
  <city name="Achaco Hacienda">
    <latitude>-14.8333333</latitude>
    <longitude>-74.9833333</longitude>
  </city>
  <city name="Achacota">
    <latitude>-15.5727778</latitude>
    <longitude>-71.4338889</longitude>
  </city>
  <city name="Achacota Hacienda">
    <latitude>-15.5727778</latitude>
    <longitude>-71.4338889</longitude>
  </city>
  <city name="Achacpujo">
    <latitude>-16.8333333</latitude>
    <longitude>-70.1</longitude>
  </city>
  <city name="Achacuas">
    <latitude>-9.1166667</latitude>
    <longitude>-78.0333333</longitude>
  </city>
  <city name="Achacune">
    <latitude>-16.0333333</latitude>
    <longitude>-71.0333333</longitude>
  </city>
  <city name="Achacutaña">
    <latitude>-15.5016667</latitude>
    <longitude>-71.1555556</longitude>
  </city>
  <city name="Achaguay Alto">
    <latitude>-5.5897222</latitude>
    <longitude>-78.4741667</longitude>
  </city>
  <city name="Achaguay Bajo">
    <latitude>-5.6013889</latitude>
    <longitude>-78.5083333</longitude>
  </city>
  <city name="Achaguay Medio">
    <latitude>-5.5963889</latitude>
    <longitude>-78.495</longitude>
  </city>
  <city name="Achahue">
    <latitude>-14.7786111</latitude>
    <longitude>-71.6636111</longitude>
  </city>
  <city name="Achajrane">
    <latitude>-14.9622222</latitude>
    <longitude>-71.5488889</longitude>
  </city>
  <city name="Achalaca">
    <latitude>-15.3005556</latitude>
    <longitude>-71.3936111</longitude>
  </city>
  <city name="Achaluke">
    <latitude>-14.7133333</latitude>
    <longitude>-71.6808333</longitude>
  </city>
  <city name="Achamocco">
    <latitude>-16.4166667</latitude>
    <longitude>-69.6</longitude>
  </city>
  <city name="Achancayra">
    <latitude>-13.85</latitude>
    <longitude>-72.2333333</longitude>
  </city>
  <city name="Achanizo">
    <latitude>-15.8061111</latitude>
    <longitude>-73.9669444</longitude>
  </city>
  <city name="Achao">
    <latitude>-11.0022222</latitude>
    <longitude>-76.7019444</longitude>
  </city>
  <city name="Achapicuta">
    <latitude>-14.7155556</latitude>
    <longitude>-71.6066667</longitude>
  </city>
  <city name="Achara">
    <latitude>-12.0666667</latitude>
    <longitude>-76.2166667</longitude>
  </city>
  <city name="Acharrape">
    <latitude>-15.2444444</latitude>
    <longitude>-71.8527778</longitude>
  </city>
  <city name="Achatayhua">
    <latitude>-15.45</latitude>
    <longitude>-73.8333333</longitude>
  </city>
  <city name="Achaya">
    <latitude>-15.2666667</latitude>
    <longitude>-70.15</longitude>
  </city>
  <city name="Achaypiña">
    <latitude>-16.4</latitude>
    <longitude>-69.85</longitude>
  </city>
  <city name="Achcahuasi">
    <latitude>-13.3833333</latitude>
    <longitude>-74.6666667</longitude>
  </city>
  <city name="Achcarajay">
    <latitude>-13.6833333</latitude>
    <longitude>-74.9166667</longitude>
  </city>
  <city name="Achico">
    <latitude>-13.1833333</latitude>
    <longitude>-74.8333333</longitude>
  </city>
  <city name="Achimpa">
    <latitude>-10.0366667</latitude>
    <longitude>-76.4663889</longitude>
  </city>
  <city name="Achinamisa">
    <latitude>-6.4166667</latitude>
    <longitude>-75.9</longitude>
  </city>
  <city name="Achipina">
    <latitude>-15.2205556</latitude>
    <longitude>-71.3263889</longitude>
  </city>
  <city name="Achira">
    <latitude>-5.6975</latitude>
    <longitude>-79.6636111</longitude>
  </city>
  <city name="Achiras">
    <latitude>-8.65</latitude>
    <longitude>-76.5333333</longitude>
  </city>
  <city name="Acho">
    <latitude>-15.6561111</latitude>
    <longitude>-72.3077778</longitude>
  </city>
  <city name="Achoacorral">
    <latitude>-14.3127778</latitude>
    <longitude>-73.7141667</longitude>
  </city>
  <city name="Achoma">
    <latitude>-15.6608333</latitude>
    <longitude>-71.7008333</longitude>
  </city>
  <city name="Achombi">
    <latitude>-15.2030556</latitude>
    <longitude>-72.8175</longitude>
  </city>
  <city name="Achotal">
    <latitude>-6.3911111</latitude>
    <longitude>-79.7977778</longitude>
  </city>
  <city name="Achoucco">
    <latitude>-16.3333333</latitude>
    <longitude>-69.85</longitude>
  </city>
  <city name="Achual Tipisca">
    <latitude>-5.4505556</latitude>
    <longitude>-75.8155556</longitude>
  </city>
  <city name="Achucala">
    <latitude>-6.3188889</latitude>
    <longitude>-79.2608333</longitude>
  </city>
  <city name="Achuchata">
    <latitude>-13.2666667</latitude>
    <longitude>-74.0333333</longitude>
  </city>
  <city name="Achullane">
    <latitude>-15.0</latitude>
    <longitude>-69.5333333</longitude>
  </city>
  <city name="Achumane">
    <latitude>-15.1166667</latitude>
    <longitude>-71.465</longitude>
  </city>
  <city name="Achumoyo">
    <latitude>-14.4269444</latitude>
    <longitude>-71.0602778</longitude>
  </city>
  <city name="Achupallane">
    <latitude>-15.1341667</latitude>
    <longitude>-71.5511111</longitude>
  </city>
  <city name="Achuranja">
    <latitude>-15.2986111</latitude>
    <longitude>-71.1327778</longitude>
  </city>
  <city name="Achuta">
    <latitude>-17.35</latitude>
    <longitude>-69.7166667</longitude>
  </city>
  <city name="Achutaña">
    <latitude>-15.2044444</latitude>
    <longitude>-71.2736111</longitude>
  </city>
  <city name="Achuyo">
    <latitude>-15.2063889</latitude>
    <longitude>-71.6186111</longitude>
  </city>
  <city name="Acllacancha">
    <latitude>-14.6</latitude>
    <longitude>-74.2833333</longitude>
  </city>
  <city name="Acllahuasi">
    <latitude>-13.0</latitude>
    <longitude>-74.1833333</longitude>
  </city>
  <city name="Acmanunpata">
    <latitude>-15.2833333</latitude>
    <longitude>-70.1666667</longitude>
  </city>
  <city name="Acmanupampa">
    <latitude>-15.2833333</latitude>
    <longitude>-70.1666667</longitude>
  </city>
  <city name="Acno">
    <latitude>-12.4666667</latitude>
    <longitude>-75.5833333</longitude>
  </city>
  <city name="Aco">
    <latitude>-10.5</latitude>
    <longitude>-77.2333333</longitude>
  </city>
  <city name="Acobamba">
    <latitude>-14.25</latitude>
    <longitude>-72.2</longitude>
  </city>
  <city name="Acobamba Hacienda">
    <latitude>-14.25</latitude>
    <longitude>-72.2</longitude>
  </city>
  <city name="Acobambilla">
    <latitude>-12.6166667</latitude>
    <longitude>-74.9833333</longitude>
  </city>
  <city name="Acoccunca">
    <latitude>-14.7694444</latitude>
    <longitude>-71.2541667</longitude>
  </city>
  <city name="Acochaca">
    <latitude>-15.8983333</latitude>
    <longitude>-71.1269444</longitude>
  </city>
  <city name="Acochacra">
    <latitude>-13.1833333</latitude>
    <longitude>-75.8333333</longitude>
  </city>
  <city name="Acochupa">
    <latitude>-15.6</latitude>
    <longitude>-70.25</longitude>
  </city>
  <city name="Acococha">
    <latitude>-10.1788889</latitude>
    <longitude>-76.3947222</longitude>
  </city>
  <city name="Acocollo">
    <latitude>-14.8044444</latitude>
    <longitude>-71.8261111</longitude>
  </city>
  <city name="Acocollocucho">
    <latitude>-15.5802778</latitude>
    <longitude>-70.8094444</longitude>
  </city>
  <city name="Acocoto">
    <latitude>-10.7833333</latitude>
    <longitude>-77.3333333</longitude>
  </city>
  <city name="Acocra">
    <latitude>-15.8205556</latitude>
    <longitude>-72.6577778</longitude>
  </city>
  <city name="Acocro">
    <latitude>-13.2177778</latitude>
    <longitude>-74.0433333</longitude>
  </city>
  <city name="Acocunca">
    <latitude>-14.7694444</latitude>
    <longitude>-71.2541667</longitude>
  </city>
  <city name="Acohuarma">
    <latitude>-12.7833333</latitude>
    <longitude>-74.9833333</longitude>
  </city>
  <city name="Acohuito">
    <latitude>-15.2694444</latitude>
    <longitude>-71.3847222</longitude>
  </city>
  <city name="Acoichinca">
    <latitude>-15.3169444</latitude>
    <longitude>-71.0344444</longitude>
  </city>
  <city name="Acoita">
    <latitude>-15.8361111</latitude>
    <longitude>-70.8186111</longitude>
  </city>
  <city name="Acola">
    <latitude>-14.6666667</latitude>
    <longitude>-74.2</longitude>
  </city>
  <city name="Acolla">
    <latitude>-11.7333333</latitude>
    <longitude>-75.5666667</longitude>
  </city>
  <city name="Acomachay">
    <latitude>-11.3302778</latitude>
    <longitude>-76.6166667</longitude>
  </city>
  <city name="Acomani">
    <latitude>-15.8438889</latitude>
    <longitude>-71.2377778</longitude>
  </city>
  <city name="Acomarca">
    <latitude>-12.7833333</latitude>
    <longitude>-74.9833333</longitude>
  </city>
  <city name="Acomayo">
    <latitude>-15.8113889</latitude>
    <longitude>-71.2372222</longitude>
  </city>
  <city name="Acomayopata">
    <latitude>-13.4666667</latitude>
    <longitude>-74.1333333</longitude>
  </city>
  <city name="Acomeríne">
    <latitude>-15.5</latitude>
    <longitude>-70.25</longitude>
  </city>
  <city name="Acón">
    <latitude>-12.1</latitude>
    <longitude>-73.8666667</longitude>
  </city>
  <city name="Acoñaguin">
    <latitude>-11.0097222</latitude>
    <longitude>-76.8019444</longitude>
  </city>
  <city name="Acongollo">
    <latitude>-17.5216667</latitude>
    <longitude>-70.59</longitude>
  </city>
  <city name="Acopallpa">
    <latitude>-15.6647222</latitude>
    <longitude>-72.4925</longitude>
  </city>
  <city name="Acopampa">
    <latitude>-9.2833333</latitude>
    <longitude>-77.6</longitude>
  </city>
  <city name="Acopara">
    <latitude>-11.0986111</latitude>
    <longitude>-76.985</longitude>
  </city>
  <city name="Acopata">
    <latitude>-14.4672222</latitude>
    <longitude>-71.1886111</longitude>
  </city>
  <city name="Acopecho">
    <latitude>-15.6861111</latitude>
    <longitude>-71.2488889</longitude>
  </city>
  <city name="Acopía">
    <latitude>-14.0586111</latitude>
    <longitude>-71.4938889</longitude>
  </city>
  <city name="Acopiñata">
    <latitude>-15.2766667</latitude>
    <longitude>-71.3744444</longitude>
  </city>
  <city name="Acopucllo">
    <latitude>-15.3372222</latitude>
    <longitude>-72.6325</longitude>
  </city>
  <city name="Aco Pucro">
    <latitude>-15.1572222</latitude>
    <longitude>-71.2733333</longitude>
  </city>
  <city name="Acopugio">
    <latitude>-14.2383333</latitude>
    <longitude>-71.2377778</longitude>
  </city>
  <city name="Acopunco">
    <latitude>-15.6475</latitude>
    <longitude>-71.3838889</longitude>
  </city>
  <city name="Acoquipa">
    <latitude>-15.2622222</latitude>
    <longitude>-73.4261111</longitude>
  </city>
  <city name="Acoquipe">
    <latitude>-15.2622222</latitude>
    <longitude>-73.4261111</longitude>
  </city>
  <city name="Acora">
    <latitude>-13.7833333</latitude>
    <longitude>-75.3666667</longitude>
  </city>
  <city name="Acoria">
    <latitude>-12.6166667</latitude>
    <longitude>-74.8833333</longitude>
  </city>
  <city name="Acos">
    <latitude>-12.1</latitude>
    <longitude>-73.8666667</longitude>
  </city>
  <city name="Acospampa">
    <latitude>-13.4</latitude>
    <longitude>-73.8833333</longitude>
  </city>
  <city name="Acos Pueblo">
    <latitude>-13.9508333</latitude>
    <longitude>-71.7372222</longitude>
  </city>
  <city name="Acostambo">
    <latitude>-12.4</latitude>
    <longitude>-75.1</longitude>
  </city>
  <city name="Acosvinchos">
    <latitude>-13.1138889</latitude>
    <longitude>-74.0977778</longitude>
  </city>
  <city name="Acota">
    <latitude>-14.2827778</latitude>
    <longitude>-71.2341667</longitude>
  </city>
  <city name="Acotera">
    <latitude>-15.8161111</latitude>
    <longitude>-71.4897222</longitude>
  </city>
  <city name="Acotira">
    <latitude>-15.3775</latitude>
    <longitude>-71.0952778</longitude>
  </city>
  <city name="Acoya">
    <latitude>-13.1666667</latitude>
    <longitude>-74.2833333</longitude>
  </city>
  <city name="Acoy">
    <latitude>-16.0205556</latitude>
    <longitude>-72.4861111</longitude>
  </city>
  <city name="Acoyra">
    <latitude>-14.0</latitude>
    <longitude>-72.0833333</longitude>
  </city>
  <city name="Acoyto">
    <latitude>-14.3833333</latitude>
    <longitude>-72.2166667</longitude>
  </city>
  <city name="Acracocha">
    <latitude>-11.3108333</latitude>
    <longitude>-75.695</longitude>
  </city>
  <city name="Acrocancha">
    <latitude>-11.2244444</latitude>
    <longitude>-75.8</longitude>
  </city>
  <city name="Acsamacha">
    <latitude>-13.0977778</latitude>
    <longitude>-73.8541667</longitude>
  </city>
  <city name="Acsamachay">
    <latitude>-13.0977778</latitude>
    <longitude>-73.8541667</longitude>
  </city>
  <city name="Acshomachay">
    <latitude>-11.3477778</latitude>
    <longitude>-76.6619444</longitude>
  </city>
  <city name="Acsuchacra">
    <latitude>-11.1447222</latitude>
    <longitude>-75.5975</longitude>
  </city>
  <city name="Actapata">
    <latitude>-15.6005556</latitude>
    <longitude>-71.3452778</longitude>
  </city>
  <city name="Actual Tipishca">
    <latitude>-5.4505556</latitude>
    <longitude>-75.8155556</longitude>
  </city>
  <city name="Acuay">
    <latitude>-13.05</latitude>
    <longitude>-74.6833333</longitude>
  </city>
  <city name="Acucancha">
    <latitude>-12.45</latitude>
    <longitude>-75.3333333</longitude>
  </city>
  <city name="Acuchay">
    <latitude>-11.5016667</latitude>
    <longitude>-75.7019444</longitude>
  </city>
  <city name="Acuisho">
    <latitude>-11.5494444</latitude>
    <longitude>-76.29</longitude>
  </city>
  <city name="Acumayo">
    <latitude>-13.5333333</latitude>
    <longitude>-74.1666667</longitude>
  </city>
  <city name="Acuñaya">
    <latitude>-15.8138889</latitude>
    <longitude>-70.7766667</longitude>
  </city>
  <city name="Acupacha">
    <latitude>-12.9166667</latitude>
    <longitude>-75.7863889</longitude>
  </city>
  <city name="Acupampa">
    <latitude>-12.7922222</latitude>
    <longitude>-75.9041667</longitude>
  </city>
  <city name="Acupata">
    <latitude>-11.0022222</latitude>
    <longitude>-76.7038889</longitude>
  </city>
  <city name="Acurucay">
    <latitude>-4.95</latitude>
    <longitude>-75.5</longitude>
  </city>
  <city name="Acushica">
    <latitude>-11.6938889</latitude>
    <longitude>-76.4183333</longitude>
  </city>
  <city name="Acutaña">
    <latitude>-15.35</latitude>
    <longitude>-70.7333333</longitude>
  </city>
  <city name="Aczo">
    <latitude>-9.2166667</latitude>
    <longitude>-76.9666667</longitude>
  </city>
  <city name="Adope">
    <latitude>-6.5727778</latitude>
    <longitude>-79.1880556</longitude>
  </city>
  <city name="Adriana">
    <latitude>-7.7336111</latitude>
    <longitude>-79.4052778</longitude>
  </city>
  <city name="Afiladera">
    <latitude>-5.4</latitude>
    <longitude>-79.6333333</longitude>
  </city>
  <city name="Afilayocc">
    <latitude>-14.2925</latitude>
    <longitude>-73.7816667</longitude>
  </city>
  <city name="Agallpampa">
    <latitude>-7.9833333</latitude>
    <longitude>-78.55</longitude>
  </city>
  <city name="Agchi">
    <latitude>-14.55</latitude>
    <longitude>-73.8333333</longitude>
  </city>
  <city name="Agocancha">
    <latitude>-11.7252778</latitude>
    <longitude>-76.1622222</longitude>
  </city>
  <city name="Agocasa">
    <latitude>-7.73</latitude>
    <longitude>-77.9711111</longitude>
  </city>
  <city name="Agochinchan">
    <latitude>-10.2063889</latitude>
    <longitude>-76.2688889</longitude>
  </city>
  <city name="Agopampa">
    <latitude>-6.0172222</latitude>
    <longitude>-79.15</longitude>
  </city>
  <city name="Agoshusha Pampa">
    <latitude>-11.7283333</latitude>
    <longitude>-76.1736111</longitude>
  </city>
  <city name="Agrio">
    <latitude>-15.2166667</latitude>
    <longitude>-74.2166667</longitude>
  </city>
  <city name="Agua">
    <latitude>-11.835</latitude>
    <longitude>-76.2319444</longitude>
  </city>
  <city name="Agua Azul">
    <latitude>-5.3833333</latitude>
    <longitude>-79.65</longitude>
  </city>
  <city name="Agua Bianca">
    <latitude>-6.7166667</latitude>
    <longitude>-76.5833333</longitude>
  </city>
  <city name="Agua Blanca">
    <latitude>-6.3019444</latitude>
    <longitude>-79.0202778</longitude>
  </city>
  <city name="Agua Blanca Hacienda">
    <latitude>-7.05</latitude>
    <longitude>-78.9833333</longitude>
  </city>
  <city name="Agua Buena">
    <latitude>-16.5558333</latitude>
    <longitude>-71.3158333</longitude>
  </city>
  <city name="Agua Caliente">
    <latitude>-16.2241667</latitude>
    <longitude>-71.7088889</longitude>
  </city>
  <city name="Aguacancha">
    <latitude>-12.0</latitude>
    <longitude>-76.2113889</longitude>
  </city>
  <city name="Aguachini">
    <latitude>-10.5133333</latitude>
    <longitude>-74.9213889</longitude>
  </city>
  <city name="Agua Colorada">
    <latitude>-6.4975</latitude>
    <longitude>-79.2747222</longitude>
  </city>
  <city name="Aguada">
    <latitude>-15.1958333</latitude>
    <longitude>-72.3222222</longitude>
  </city>
  <city name="Aguada de la Zorra">
    <latitude>-15.95</latitude>
    <longitude>-74.0333333</longitude>
  </city>
  <city name="Aguada de Lomas">
    <latitude>-15.5094444</latitude>
    <longitude>-74.7991667</longitude>
  </city>
  <city name="Aguada de Palos">
    <latitude>-14.3088889</latitude>
    <longitude>-75.6738889</longitude>
  </city>
  <city name="Agua de Palos">
    <latitude>-14.3088889</latitude>
    <longitude>-75.6738889</longitude>
  </city>
  <city name="Agua Dulce">
    <latitude>-16.3833333</latitude>
    <longitude>-71.4166667</longitude>
  </city>
  <city name="Aguajal">
    <latitude>-12.25</latitude>
    <longitude>-69.2333333</longitude>
  </city>
  <city name="Agualani">
    <latitude>-14.1</latitude>
    <longitude>-69.7</longitude>
  </city>
  <city name="Agualegua">
    <latitude>-15.6205556</latitude>
    <longitude>-72.0638889</longitude>
  </city>
  <city name="Aguallane">
    <latitude>-15.3833333</latitude>
    <longitude>-69.9666667</longitude>
  </city>
  <city name="Agua Milagro">
    <latitude>-16.7833333</latitude>
    <longitude>-69.1833333</longitude>
  </city>
  <city name="Aguana Cancha">
    <latitude>-14.4205556</latitude>
    <longitude>-69.9163889</longitude>
  </city>
  <city name="Aguana Muyuna">
    <latitude>-6.6166667</latitude>
    <longitude>-76.1666667</longitude>
  </city>
  <city name="Aguanana Muyuna">
    <latitude>-6.6166667</latitude>
    <longitude>-76.1666667</longitude>
  </city>
  <city name="Aguano Muyuna">
    <latitude>-6.6166667</latitude>
    <longitude>-76.1666667</longitude>
  </city>
  <city name="Aguapichuana">
    <latitude>-14.5869444</latitude>
    <longitude>-71.9122222</longitude>
  </city>
  <city name="Aguaquita">
    <latitude>-8.9</latitude>
    <longitude>-78.1666667</longitude>
  </city>
  <city name="Aguar">
    <latitude>-10.835</latitude>
    <longitude>-76.9858333</longitude>
  </city>
  <city name="Agua Salada">
    <latitude>-16.2936111</latitude>
    <longitude>-71.7791667</longitude>
  </city>
  <city name="Agua Salada Hacienda">
    <latitude>-14.7666667</latitude>
    <longitude>-75.2333333</longitude>
  </city>
  <city name="Agua Santa">
    <latitude>-15.6922222</latitude>
    <longitude>-72.4911111</longitude>
  </city>
  <city name="Aguasbamba">
    <latitude>-13.9</latitude>
    <longitude>-72.05</longitude>
  </city>
  <city name="Aguas Blanca">
    <latitude>-7.2333333</latitude>
    <longitude>-78.05</longitude>
  </city>
  <city name="Aguas Caliente">
    <latitude>-8.8333333</latitude>
    <longitude>-74.6833333</longitude>
  </city>
  <city name="Aguas Calientes">
    <latitude>-8.8333333</latitude>
    <longitude>-74.6833333</longitude>
  </city>
  <city name="Aguashuarco">
    <latitude>-11.0813889</latitude>
    <longitude>-76.8388889</longitude>
  </city>
  <city name="Aguas Muertas">
    <latitude>-17.1702778</latitude>
    <longitude>-70.9133333</longitude>
  </city>
  <city name="Aguas Negras">
    <latitude>-0.4333333</latitude>
    <longitude>-75.35</longitude>
  </city>
  <city name="Aguas Verdes">
    <latitude>-3.4813889</latitude>
    <longitude>-80.245</longitude>
  </city>
  <city name="Aguaylla">
    <latitude>-13.0333333</latitude>
    <longitude>-73.9333333</longitude>
  </city>
  <city name="Aguaytane">
    <latitude>-13.9666667</latitude>
    <longitude>-72.5333333</longitude>
  </city>
  <city name="Aguaytía">
    <latitude>-9.05</latitude>
    <longitude>-75.5</longitude>
  </city>
  <city name="Aguen">
    <latitude>-10.8952778</latitude>
    <longitude>-76.8211111</longitude>
  </city>
  <city name="Aguila">
    <latitude>-11.0633333</latitude>
    <longitude>-76.6955556</longitude>
  </city>
  <city name="Aguirre">
    <latitude>-3.6</latitude>
    <longitude>-70.95</longitude>
  </city>
  <city name="Agupampa">
    <latitude>-5.3666667</latitude>
    <longitude>-79.3833333</longitude>
  </city>
  <city name="Agupampa Hacienda">
    <latitude>-5.3666667</latitude>
    <longitude>-79.3833333</longitude>
  </city>
  <city name="Agustino">
    <latitude>-12.0666667</latitude>
    <longitude>-77.0166667</longitude>
  </city>
  <city name="Ahorca">
    <latitude>-17.0497222</latitude>
    <longitude>-71.7077778</longitude>
  </city>
  <city name="Ahuac">
    <latitude>-12.0666667</latitude>
    <longitude>-75.35</longitude>
  </city>
  <city name="Ahuajo">
    <latitude>-13.4605556</latitude>
    <longitude>-73.9663889</longitude>
  </city>
  <city name="Ahuancata">
    <latitude>-14.8666667</latitude>
    <longitude>-71.2833333</longitude>
  </city>
  <city name="Ahuashiyacu">
    <latitude>-6.5066667</latitude>
    <longitude>-76.3369444</longitude>
  </city>
  <city name="Ahuay">
    <latitude>-13.0166667</latitude>
    <longitude>-74.6666667</longitude>
  </city>
  <city name="Ahuituyoc">
    <latitude>-11.3347222</latitude>
    <longitude>-75.9788889</longitude>
  </city>
  <city name="Aicagranga">
    <latitude>-11.8341667</latitude>
    <longitude>-76.1322222</longitude>
  </city>
  <city name="Aichamarca">
    <latitude>-13.8666667</latitude>
    <longitude>-74.6333333</longitude>
  </city>
  <city name="Aichi">
    <latitude>-13.1833333</latitude>
    <longitude>-75.9166667</longitude>
  </city>
  <city name="Aichune">
    <latitude>-15.5191667</latitude>
    <longitude>-74.0219444</longitude>
  </city>
  <city name="Aichuta Chico">
    <latitude>-17.35</latitude>
    <longitude>-69.7333333</longitude>
  </city>
  <city name="Aichuta Grande">
    <latitude>-17.35</latitude>
    <longitude>-69.7166667</longitude>
  </city>
  <city name="Aigarrobo">
    <latitude>-4.5319444</latitude>
    <longitude>-81.1616667</longitude>
  </city>
  <city name="Aiguay">
    <latitude>-10.0666667</latitude>
    <longitude>-78.1</longitude>
  </city>
  <city name="Aihuarinca">
    <latitude>-15.6163889</latitude>
    <longitude>-71.2472222</longitude>
  </city>
  <city name="Aija">
    <latitude>-9.7666667</latitude>
    <longitude>-77.6333333</longitude>
  </city>
  <city name="Aijadero">
    <latitude>-10.7261111</latitude>
    <longitude>-76.72</longitude>
  </city>
  <city name="Aillo Ccollana">
    <latitude>-14.7333333</latitude>
    <longitude>-70.3333333</longitude>
  </city>
  <city name="Aillo Sillata">
    <latitude>-14.6833333</latitude>
    <longitude>-70.3833333</longitude>
  </city>
  <city name="Aillo Silluta">
    <latitude>-14.6833333</latitude>
    <longitude>-70.3833333</longitude>
  </city>
  <city name="Aiparipa">
    <latitude>-15.8205556</latitude>
    <longitude>-74.3722222</longitude>
  </city>
  <city name="Aipena">
    <latitude>-5.1</latitude>
    <longitude>-75.65</longitude>
  </city>
  <city name="Airabamba">
    <latitude>-13.4913889</latitude>
    <longitude>-73.8288889</longitude>
  </city>
  <city name="Airabamba Hacienda">
    <latitude>-13.4913889</latitude>
    <longitude>-73.8288889</longitude>
  </city>
  <city name="Airampuycco">
    <latitude>-15.6166667</latitude>
    <longitude>-73.9166667</longitude>
  </city>
  <city name="Airihuanca">
    <latitude>-14.1047222</latitude>
    <longitude>-72.6125</longitude>
  </city>
  <city name="Airijas">
    <latitude>-10.6944444</latitude>
    <longitude>-73.7883333</longitude>
  </city>
  <city name="Airiputi">
    <latitude>-15.9833333</latitude>
    <longitude>-69.5166667</longitude>
  </city>
  <city name="Airoca">
    <latitude>-15.45</latitude>
    <longitude>-73.5</longitude>
  </city>
  <city name="Aisan">
    <latitude>-15.4</latitude>
    <longitude>-70.3833333</longitude>
  </city>
  <city name="Aja">
    <latitude>-14.8166667</latitude>
    <longitude>-74.95</longitude>
  </city>
  <city name="Aja Hacienda">
    <latitude>-14.8166667</latitude>
    <longitude>-74.95</longitude>
  </city>
  <city name="Ajalle">
    <latitude>-13.4833333</latitude>
    <longitude>-74.6666667</longitude>
  </city>
  <city name="Ajana">
    <latitude>-16.2333333</latitude>
    <longitude>-70.9833333</longitude>
  </city>
  <city name="Ajapata">
    <latitude>-14.4433333</latitude>
    <longitude>-69.6141667</longitude>
  </city>
  <city name="Ajepata">
    <latitude>-15.3216667</latitude>
    <longitude>-71.1636111</longitude>
  </city>
  <city name="Ají">
    <latitude>-8.3011111</latitude>
    <longitude>-76.6713889</longitude>
  </city>
  <city name="Ajicata">
    <latitude>-15.2575</latitude>
    <longitude>-72.2244444</longitude>
  </city>
  <city name="Ajlahuito">
    <latitude>-15.1</latitude>
    <longitude>-74.4666667</longitude>
  </city>
  <city name="Ajo">
    <latitude>-13.1833333</latitude>
    <longitude>-74.3166667</longitude>
  </city>
  <city name="Ajobamaba">
    <latitude>-12.7291667</latitude>
    <longitude>-75.8644444</longitude>
  </city>
  <city name="Ajocancha">
    <latitude>-15.8666667</latitude>
    <longitude>-70.1666667</longitude>
  </city>
  <city name="Ajoccasa">
    <latitude>-13.35</latitude>
    <longitude>-74.2666667</longitude>
  </city>
  <city name="Ajococha">
    <latitude>-13.0666667</latitude>
    <longitude>-74.3833333</longitude>
  </city>
  <city name="Ajocucho">
    <latitude>-15.6833333</latitude>
    <longitude>-70.1666667</longitude>
  </city>
  <city name="Ajo Cunca">
    <latitude>-14.2408333</latitude>
    <longitude>-69.9883333</longitude>
  </city>
  <city name="Ajolla">
    <latitude>-14.9333333</latitude>
    <longitude>-73.8333333</longitude>
  </city>
  <city name="Ajolmayo">
    <latitude>-13.1166667</latitude>
    <longitude>-74.6666667</longitude>
  </city>
  <city name="Ajomachay">
    <latitude>-13.25</latitude>
    <longitude>-74.4</longitude>
  </city>
  <city name="Ajonchi">
    <latitude>-14.6</latitude>
    <longitude>-74.9</longitude>
  </city>
  <city name="Ajopampa">
    <latitude>-13.0333333</latitude>
    <longitude>-74.7</longitude>
  </city>
  <city name="Ajopata">
    <latitude>-15.2522222</latitude>
    <longitude>-72.9083333</longitude>
  </city>
  <city name="Ajopita">
    <latitude>-14.3527778</latitude>
    <longitude>-73.8822222</longitude>
  </city>
  <city name="Ajopucro">
    <latitude>-13.1</latitude>
    <longitude>-74.75</longitude>
  </city>
  <city name="Ajopujro">
    <latitude>-15.1061111</latitude>
    <longitude>-72.3169444</longitude>
  </city>
  <city name="Ajoscca">
    <latitude>-14.9833333</latitude>
    <longitude>-73.8333333</longitude>
  </city>
  <city name="Ajoscca Hacienda">
    <latitude>-14.9833333</latitude>
    <longitude>-73.8333333</longitude>
  </city>
  <city name="Ajosmayo">
    <latitude>-6.8488889</latitude>
    <longitude>-79.1697222</longitude>
  </city>
  <city name="Ajotanapata">
    <latitude>-13.0763889</latitude>
    <longitude>-74.7458333</longitude>
  </city>
  <city name="Ajotapampa">
    <latitude>-15.9666667</latitude>
    <longitude>-69.9</longitude>
  </city>
  <city name="Ajoyane">
    <latitude>-15.3647222</latitude>
    <longitude>-71.1688889</longitude>
  </city>
  <city name="Ajoyani">
    <latitude>-14.1</latitude>
    <longitude>-70.2</longitude>
  </city>
  <city name="Ajpi">
    <latitude>-15.6241667</latitude>
    <longitude>-72.0877778</longitude>
  </city>
  <city name="Ajrata">
    <latitude>-15.9666667</latitude>
    <longitude>-69.9333333</longitude>
  </city>
  <city name="Ajtapa">
    <latitude>-14.4666667</latitude>
    <longitude>-74.3</longitude>
  </city>
  <city name="Ajuyoccota">
    <latitude>-15.3652778</latitude>
    <longitude>-71.7566667</longitude>
  </city>
  <city name="Alachay">
    <latitude>-16.8969444</latitude>
    <longitude>-71.3922222</longitude>
  </city>
  <city name="Alacocha">
    <latitude>-10.55</latitude>
    <longitude>-76.2</longitude>
  </city>
  <city name="Alacoto">
    <latitude>-7.8525</latitude>
    <longitude>-77.55</longitude>
  </city>
  <city name="Alamatin">
    <latitude>-11.0458333</latitude>
    <longitude>-75.9011111</longitude>
  </city>
  <city name="Alameda">
    <latitude>-17.4238889</latitude>
    <longitude>-70.5130556</longitude>
  </city>
  <city name="Alamor">
    <latitude>-4.4833333</latitude>
    <longitude>-80.4166667</longitude>
  </city>
  <city name="Alan">
    <latitude>-6.6708333</latitude>
    <longitude>-78.4677778</longitude>
  </city>
  <city name="Alancana">
    <latitude>-14.5333333</latitude>
    <longitude>-74.7833333</longitude>
  </city>
  <city name="Alania Machay">
    <latitude>-10.6591667</latitude>
    <longitude>-76.5811111</longitude>
  </city>
  <city name="Alantaya">
    <latitude>-16.7833333</latitude>
    <longitude>-69.25</longitude>
  </city>
  <city name="Alanya">
    <latitude>-13.2</latitude>
    <longitude>-74.1166667</longitude>
  </city>
  <city name="Alao">
    <latitude>-6.5</latitude>
    <longitude>-76.7166667</longitude>
  </city>
  <city name="Alaspaya">
    <latitude>-16.7666667</latitude>
    <longitude>-70.7333333</longitude>
  </city>
  <city name="Alaucana">
    <latitude>-14.5333333</latitude>
    <longitude>-74.7833333</longitude>
  </city>
  <city name="Alaypampa">
    <latitude>-8.4166667</latitude>
    <longitude>-78.0</longitude>
  </city>
  <city name="Albacas">
    <latitude>-4.5172222</latitude>
    <longitude>-80.6072222</longitude>
  </city>
  <city name="Albaja">
    <latitude>-17.0833333</latitude>
    <longitude>-71.7666667</longitude>
  </city>
  <city name="Albaja Hacienda">
    <latitude>-17.0833333</latitude>
    <longitude>-71.7666667</longitude>
  </city>
  <city name="Alberca">
    <latitude>-5.3833333</latitude>
    <longitude>-79.8166667</longitude>
  </city>
  <city name="Alberto Fujimori">
    <latitude>-7.1075</latitude>
    <longitude>-79.5888889</longitude>
  </city>
  <city name="Alca">
    <latitude>-15.1347222</latitude>
    <longitude>-72.7647222</longitude>
  </city>
  <city name="Alcacocha">
    <latitude>-11.0538889</latitude>
    <longitude>-75.905</longitude>
  </city>
  <city name="Alcacoto">
    <latitude>-11.7166667</latitude>
    <longitude>-76.8833333</longitude>
  </city>
  <city name="Alcahuarinan">
    <latitude>-10.6222222</latitude>
    <longitude>-76.5108333</longitude>
  </city>
  <city name="Alcahuito">
    <latitude>-15.7438889</latitude>
    <longitude>-71.4091667</longitude>
  </city>
  <city name="Alcamarine">
    <latitude>-14.0713889</latitude>
    <longitude>-71.0563889</longitude>
  </city>
  <city name="Alcamarine Muto">
    <latitude>-15.0883333</latitude>
    <longitude>-71.1488889</longitude>
  </city>
  <city name="Alcamarini">
    <latitude>-15.6238889</latitude>
    <longitude>-70.9486111</longitude>
  </city>
  <city name="Alcamenca">
    <latitude>-13.6638889</latitude>
    <longitude>-74.1047222</longitude>
  </city>
  <city name="Alcaña">
    <latitude>-15.5827778</latitude>
    <longitude>-71.2688889</longitude>
  </city>
  <city name="Alcania">
    <latitude>-15.1213889</latitude>
    <longitude>-71.9583333</longitude>
  </city>
  <city name="Alcántara">
    <latitude>-2.6</latitude>
    <longitude>-76.6166667</longitude>
  </city>
  <city name="Alcantarilla">
    <latitude>-11.0833333</latitude>
    <longitude>-77.55</longitude>
  </city>
  <city name="Alcantarilla Hacienda">
    <latitude>-11.0833333</latitude>
    <longitude>-77.55</longitude>
  </city>
  <city name="Alcata">
    <latitude>-15.43</latitude>
    <longitude>-71.7155556</longitude>
  </city>
  <city name="Alccamarine">
    <latitude>-15.5605556</latitude>
    <longitude>-70.9147222</longitude>
  </city>
  <city name="Alco-Llacta">
    <latitude>-15.4861111</latitude>
    <longitude>-72.5491667</longitude>
  </city>
  <city name="Aldabas">
    <latitude>-16.15</latitude>
    <longitude>-71.1166667</longitude>
  </city>
  <city name="Alegoma Hacienda">
    <latitude>-17.0863889</latitude>
    <longitude>-70.8597222</longitude>
  </city>
  <city name="Alegría">
    <latitude>-12.0666667</latitude>
    <longitude>-69.2</longitude>
  </city>
  <city name="Alejo Pata">
    <latitude>-13.65</latitude>
    <longitude>-73.5</longitude>
  </city>
  <city name="Aleluyoc">
    <latitude>-10.9975</latitude>
    <longitude>-76.7027778</longitude>
  </city>
  <city name="Alenya">
    <latitude>-5.6866667</latitude>
    <longitude>-78.4811111</longitude>
  </city>
  <city name="Alenya Palacios">
    <latitude>-5.6802778</latitude>
    <longitude>-78.4925</longitude>
  </city>
  <city name="Aleria">
    <latitude>-10.75</latitude>
    <longitude>-71.8166667</longitude>
  </city>
  <city name="Alerta">
    <latitude>-0.1666667</latitude>
    <longitude>-75.1333333</longitude>
  </city>
  <city name="Alfachayoc">
    <latitude>-14.7</latitude>
    <longitude>-74.6166667</longitude>
  </city>
  <city name="Alfalfia">
    <latitude>-5.5719444</latitude>
    <longitude>-79.3744444</longitude>
  </city>
  <city name="Alfalfilla">
    <latitude>-6.9047222</latitude>
    <longitude>-79.0938889</longitude>
  </city>
  <city name="Alfarillo">
    <latitude>-17.85</latitude>
    <longitude>-71.0333333</longitude>
  </city>
  <city name="Alfaro">
    <latitude>-3.9738889</latitude>
    <longitude>-70.9330556</longitude>
  </city>
  <city name="Alfayoc">
    <latitude>-15.1166667</latitude>
    <longitude>-74.2333333</longitude>
  </city>
  <city name="Alfonso Ugarte">
    <latitude>-7.8280556</latitude>
    <longitude>-74.8236111</longitude>
  </city>
  <city name="Algamarca">
    <latitude>-7.6</latitude>
    <longitude>-78.25</longitude>
  </city>
  <city name="Algamarca Hacienda">
    <latitude>-7.6</latitude>
    <longitude>-78.25</longitude>
  </city>
  <city name="Algamarce Hacienda">
    <latitude>-7.6</latitude>
    <longitude>-78.25</longitude>
  </city>
  <city name="Algarrabo">
    <latitude>-3.4508333</latitude>
    <longitude>-80.28</longitude>
  </city>
  <city name="Algarrobal">
    <latitude>-9.1333333</latitude>
    <longitude>-78.1833333</longitude>
  </city>
  <city name="Algarrobillo">
    <latitude>-4.5044444</latitude>
    <longitude>-80.3830556</longitude>
  </city>
  <city name="Algarrobito">
    <latitude>-6.0522222</latitude>
    <longitude>-79.1672222</longitude>
  </city>
  <city name="Algarrobo">
    <latitude>-4.5319444</latitude>
    <longitude>-81.1616667</longitude>
  </city>
  <city name="Algarrobo Grande">
    <latitude>-6.2547222</latitude>
    <longitude>-79.575</longitude>
  </city>
  <city name="Algarrovillo">
    <latitude>-4.5594444</latitude>
    <longitude>-80.7402778</longitude>
  </city>
  <city name="Algodona">
    <latitude>-5.8552778</latitude>
    <longitude>-79.6519444</longitude>
  </city>
  <city name="Algodonal">
    <latitude>-7.7472222</latitude>
    <longitude>-79.3519444</longitude>
  </city>
  <city name="Algodonales">
    <latitude>-5.1488889</latitude>
    <longitude>-79.9166667</longitude>
  </city>
  <city name="Algodón">
    <latitude>-7.8766667</latitude>
    <longitude>-77.6519444</longitude>
  </city>
  <city name="Algodonalillo">
    <latitude>-4.4663889</latitude>
    <longitude>-80.6647222</longitude>
  </city>
  <city name="Algodoncillo">
    <latitude>-4.4663889</latitude>
    <longitude>-80.6647222</longitude>
  </city>
  <city name="Algohuain">
    <latitude>-10.0333333</latitude>
    <longitude>-76.5666667</longitude>
  </city>
  <city name="Alhacone">
    <latitude>-14.8</latitude>
    <longitude>-73.55</longitude>
  </city>
  <city name="Alhua">
    <latitude>-10.6027778</latitude>
    <longitude>-76.9236111</longitude>
  </city>
  <city name="Aliaga">
    <latitude>-12.0166667</latitude>
    <longitude>-77.0666667</longitude>
  </city>
  <city name="Aliaga Hacienda">
    <latitude>-12.0166667</latitude>
    <longitude>-77.0666667</longitude>
  </city>
  <city name="Ali">
    <latitude>-8.6333333</latitude>
    <longitude>-76.5166667</longitude>
  </city>
  <city name="Alianza">
    <latitude>-4.6666667</latitude>
    <longitude>-78.15</longitude>
  </city>
  <city name="Alianza Cristiana">
    <latitude>-3.4752778</latitude>
    <longitude>-76.4344444</longitude>
  </city>
  <city name="Alican">
    <latitude>-6.8313889</latitude>
    <longitude>-79.7916667</longitude>
  </city>
  <city name="Alican Chico">
    <latitude>-6.8313889</latitude>
    <longitude>-79.7916667</longitude>
  </city>
  <city name="Alicia">
    <latitude>-5.8063889</latitude>
    <longitude>-79.78</longitude>
  </city>
  <city name="Alico">
    <latitude>-16.2094444</latitude>
    <longitude>-73.6222222</longitude>
  </city>
  <city name="Alicta">
    <latitude>-12.9833333</latitude>
    <longitude>-71.1666667</longitude>
  </city>
  <city name="Aliluyane">
    <latitude>-16.0833333</latitude>
    <longitude>-69.9</longitude>
  </city>
  <city name="Alipadja">
    <latitude>-15.9666667</latitude>
    <longitude>-69.75</longitude>
  </city>
  <city name="Alip">
    <latitude>-12.2666667</latitude>
    <longitude>-75.7833333</longitude>
  </city>
  <city name="Alisal">
    <latitude>-5.3166667</latitude>
    <longitude>-79.2666667</longitude>
  </city>
  <city name="Alis">
    <latitude>-12.2666667</latitude>
    <longitude>-75.7833333</longitude>
  </city>
  <city name="Aliso">
    <latitude>-6.65</latitude>
    <longitude>-78.2166667</longitude>
  </city>
  <city name="Alisopata">
    <latitude>-7.05</latitude>
    <longitude>-78.4666667</longitude>
  </city>
  <city name="Aliso-Pata">
    <latitude>-7.3</latitude>
    <longitude>-78.0</longitude>
  </city>
  <city name="Alisopat">
    <latitude>-7.3</latitude>
    <longitude>-78.0</longitude>
  </city>
  <city name="Alisos">
    <latitude>-4.7833333</latitude>
    <longitude>-79.9166667</longitude>
  </city>
  <city name="Alito">
    <latitude>-16.7666667</latitude>
    <longitude>-70.7</longitude>
  </city>
  <city name="Alizal">
    <latitude>-7.5833333</latitude>
    <longitude>-78.35</longitude>
  </city>
  <city name="Alizar">
    <latitude>-7.9716667</latitude>
    <longitude>-77.6811111</longitude>
  </city>
  <city name="Alizo">
    <latitude>-10.05</latitude>
    <longitude>-77.4666667</longitude>
  </city>
  <city name="Allacas">
    <latitude>-14.5666667</latitude>
    <longitude>-73.6333333</longitude>
  </city>
  <city name="Allachay">
    <latitude>-15.5233333</latitude>
    <longitude>-72.2572222</longitude>
  </city>
  <city name="Allacoracca">
    <latitude>-15.2072222</latitude>
    <longitude>-73.1655556</longitude>
  </city>
  <city name="Allacro">
    <latitude>-13.5333333</latitude>
    <longitude>-73.7333333</longitude>
  </city>
  <city name="Allactaocpata">
    <latitude>-15.7702778</latitude>
    <longitude>-71.2241667</longitude>
  </city>
  <city name="Allacurán">
    <latitude>-11.2308333</latitude>
    <longitude>-75.8902778</longitude>
  </city>
  <city name="Allahuay">
    <latitude>-15.2502778</latitude>
    <longitude>-72.8758333</longitude>
  </city>
  <city name="Allanca">
    <latitude>-13.8</latitude>
    <longitude>-75.4833333</longitude>
  </city>
  <city name="Allancay">
    <latitude>-15.2583333</latitude>
    <longitude>-73.0502778</longitude>
  </city>
  <city name="Allapata">
    <latitude>-13.3388889</latitude>
    <longitude>-73.8327778</longitude>
  </city>
  <city name="Allarpo">
    <latitude>-13.05</latitude>
    <longitude>-74.5166667</longitude>
  </city>
  <city name="Allasura">
    <latitude>-15.4594444</latitude>
    <longitude>-71.3163889</longitude>
  </city>
  <city name="Allate">
    <latitude>-15.3833333</latitude>
    <longitude>-73.9833333</longitude>
  </city>
  <city name="Allato">
    <latitude>-12.9666667</latitude>
    <longitude>-74.7333333</longitude>
  </city>
  <city name="Allauca">
    <latitude>-14.3166667</latitude>
    <longitude>-72.5333333</longitude>
  </city>
  <city name="Allaymucha">
    <latitude>-8.2666667</latitude>
    <longitude>-78.0333333</longitude>
  </city>
  <city name="Allayu">
    <latitude>-10.5447222</latitude>
    <longitude>-76.5094444</longitude>
  </city>
  <city name="Allcas">
    <latitude>-13.1</latitude>
    <longitude>-75.65</longitude>
  </city>
  <city name="Allccane">
    <latitude>-13.85</latitude>
    <longitude>-74.8666667</longitude>
  </city>
  <city name="Allccanja">
    <latitude>-14.0094444</latitude>
    <longitude>-75.0969444</longitude>
  </city>
  <city name="Allcuhuilcca">
    <latitude>-13.0</latitude>
    <longitude>-74.25</longitude>
  </city>
  <city name="Allhuire">
    <latitude>-15.3019444</latitude>
    <longitude>-72.2913889</longitude>
  </city>
  <city name="Allhuiscca">
    <latitude>-14.35</latitude>
    <longitude>-74.1833333</longitude>
  </city>
  <city name="Allipachaca">
    <latitude>-14.1719444</latitude>
    <longitude>-73.6958333</longitude>
  </city>
  <city name="Alloca">
    <latitude>-12.2833333</latitude>
    <longitude>-76.25</longitude>
  </city>
  <city name="Allpabamba">
    <latitude>-15.0622222</latitude>
    <longitude>-73.315</longitude>
  </city>
  <city name="Allpacancha">
    <latitude>-14.2833333</latitude>
    <longitude>-72.1</longitude>
  </city>
  <city name="Allpacancha Hacienda">
    <latitude>-14.2833333</latitude>
    <longitude>-72.1</longitude>
  </city>
  <city name="Allpachaca">
    <latitude>-13.3897222</latitude>
    <longitude>-74.2661111</longitude>
  </city>
  <city name="Allpacopa">
    <latitude>-10.8833333</latitude>
    <longitude>-77.5333333</longitude>
  </city>
  <city name="Allpacoto">
    <latitude>-10.8833333</latitude>
    <longitude>-77.5333333</longitude>
  </city>
  <city name="Allpacoto Hacienda">
    <latitude>-10.8833333</latitude>
    <longitude>-77.5333333</longitude>
  </city>
  <city name="Allpas">
    <latitude>-13.3833333</latitude>
    <longitude>-75.6166667</longitude>
  </city>
  <city name="Allpaspina">
    <latitude>-14.4833333</latitude>
    <longitude>-74.2333333</longitude>
  </city>
  <city name="Allpaurccuna">
    <latitude>-13.0333333</latitude>
    <longitude>-74.25</longitude>
  </city>
  <city name="Allurán">
    <latitude>-11.8111111</latitude>
    <longitude>-76.2569444</longitude>
  </city>
  <city name="Almacén">
    <latitude>-13.2666667</latitude>
    <longitude>-75.8833333</longitude>
  </city>
  <city name="Almacén Hacienda">
    <latitude>-13.2666667</latitude>
    <longitude>-75.8833333</longitude>
  </city>
  <city name="Almajasa">
    <latitude>-14.1666667</latitude>
    <longitude>-74.1666667</longitude>
  </city>
  <city name="Almenares">
    <latitude>-13.0666667</latitude>
    <longitude>-76.3333333</longitude>
  </city>
  <city name="Almendral">
    <latitude>-5.6258333</latitude>
    <longitude>-78.4397222</longitude>
  </city>
  <city name="Almendras">
    <latitude>-9.3833333</latitude>
    <longitude>-75.9333333</longitude>
  </city>
  <city name="Almendro">
    <latitude>-5.2641667</latitude>
    <longitude>-78.3738889</longitude>
  </city>
  <city name="Aloacocha">
    <latitude>-6.9338889</latitude>
    <longitude>-78.1825</longitude>
  </city>
  <city name="Alolpuqio">
    <latitude>-12.15</latitude>
    <longitude>-75.3666667</longitude>
  </city>
  <city name="Alonso">
    <latitude>-10.15</latitude>
    <longitude>-77.5333333</longitude>
  </city>
  <city name="Alonsohue">
    <latitude>-16.2333333</latitude>
    <longitude>-69.5333333</longitude>
  </city>
  <city name="Alpabamba">
    <latitude>-15.0622222</latitude>
    <longitude>-73.315</longitude>
  </city>
  <city name="Alpacollo">
    <latitude>-15.5061111</latitude>
    <longitude>-70.7069444</longitude>
  </city>
  <city name="Alpaluce">
    <latitude>-15.2</latitude>
    <longitude>-73.8833333</longitude>
  </city>
  <city name="Alpamarca">
    <latitude>-10.7911111</latitude>
    <longitude>-76.5230556</longitude>
  </city>
  <city name="Alpamina">
    <latitude>-11.6061111</latitude>
    <longitude>-76.1016667</longitude>
  </city>
  <city name="Alpas">
    <latitude>-10.6333333</latitude>
    <longitude>-77.5333333</longitude>
  </city>
  <city name="Alpasca">
    <latitude>-15.0</latitude>
    <longitude>-73.95</longitude>
  </city>
  <city name="Alpas Hacienda">
    <latitude>-10.6333333</latitude>
    <longitude>-77.5333333</longitude>
  </city>
  <city name="Alpayoc">
    <latitude>-15.1</latitude>
    <longitude>-74.2333333</longitude>
  </city>
  <city name="Alpechín">
    <latitude>-17.29</latitude>
    <longitude>-71.4619444</longitude>
  </city>
  <city name="Altamioc">
    <latitude>-13.7833333</latitude>
    <longitude>-74.6833333</longitude>
  </city>
  <city name="Altamisa">
    <latitude>-5.5041667</latitude>
    <longitude>-78.8958333</longitude>
  </city>
  <city name="Alta Perilla">
    <latitude>-7.0666667</latitude>
    <longitude>-75.0166667</longitude>
  </city>
  <city name="Altarane">
    <latitude>-16.05</latitude>
    <longitude>-71.0333333</longitude>
  </city>
  <city name="Altarani">
    <latitude>-14.4144444</latitude>
    <longitude>-69.7486111</longitude>
  </city>
  <city name="Altaruma">
    <latitude>-15.2716667</latitude>
    <longitude>-71.5136111</longitude>
  </city>
  <city name="Alterpampa">
    <latitude>-14.3666667</latitude>
    <longitude>-74.2666667</longitude>
  </city>
  <city name="Altillo">
    <latitude>-17.2130556</latitude>
    <longitude>-70.9786111</longitude>
  </city>
  <city name="Alto Anapatí">
    <latitude>-11.7577778</latitude>
    <longitude>-74.3238889</longitude>
  </city>
  <city name="Alto Angara">
    <latitude>-15.0163889</latitude>
    <longitude>-70.5158333</longitude>
  </city>
  <city name="Alto Ashaninga">
    <latitude>-10.9938889</latitude>
    <longitude>-74.8138889</longitude>
  </city>
  <city name="Alto Azupizu">
    <latitude>-10.6561111</latitude>
    <longitude>-74.9241667</longitude>
  </city>
  <city name="Alto Blanco">
    <latitude>-7.82</latitude>
    <longitude>-77.6105556</longitude>
  </city>
  <city name="Alto Calera">
    <latitude>-15.3833333</latitude>
    <longitude>-73.6166667</longitude>
  </city>
  <city name="Alto Chirireni">
    <latitude>-11.8516667</latitude>
    <longitude>-74.2113889</longitude>
  </city>
  <city name="Alto de Canchas">
    <latitude>-7.8166667</latitude>
    <longitude>-78.5</longitude>
  </city>
  <city name="Alto de Carrillo">
    <latitude>-5.3166667</latitude>
    <longitude>-80.7166667</longitude>
  </city>
  <city name="Alto de Chapi">
    <latitude>-17.8230556</latitude>
    <longitude>-70.5172222</longitude>
  </city>
  <city name="Alto de la Cruz">
    <latitude>-5.3333333</latitude>
    <longitude>-80.7666667</longitude>
  </city>
  <city name="Alto de la Cruz Hacienda">
    <latitude>-5.3333333</latitude>
    <longitude>-80.7666667</longitude>
  </city>
  <city name="Alto de la Luna">
    <latitude>-15.7011111</latitude>
    <longitude>-73.8252778</longitude>
  </city>
  <city name="Alto de la Paloma">
    <latitude>-4.9</latitude>
    <longitude>-81.1166667</longitude>
  </city>
  <city name="Alto del Molino">
    <latitude>-15.7611111</latitude>
    <longitude>-73.3719444</longitude>
  </city>
  <city name="Alto de los Carrillo">
    <latitude>-5.3333333</latitude>
    <longitude>-80.75</longitude>
  </city>
  <city name="Alto de los Castillo">
    <latitude>-5.35</latitude>
    <longitude>-80.7166667</longitude>
  </city>
  <city name="Alto de los More">
    <latitude>-5.3333333</latitude>
    <longitude>-80.6833333</longitude>
  </city>
  <city name="Alto de Roque">
    <latitude>-5.9447222</latitude>
    <longitude>-80.2283333</longitude>
  </city>
  <city name="Alto Grande">
    <latitude>-15.4333333</latitude>
    <longitude>-74.8666667</longitude>
  </city>
  <city name="Alto Huarangal">
    <latitude>-5.8566667</latitude>
    <longitude>-78.3683333</longitude>
  </city>
  <city name="Alto Kimiriki">
    <latitude>-10.9905556</latitude>
    <longitude>-74.8808333</longitude>
  </city>
  <city name="Alto La Hilaria">
    <latitude>-7.6911111</latitude>
    <longitude>-79.3202778</longitude>
  </city>
  <city name="Alto Laran">
    <latitude>-14.4636111</latitude>
    <longitude>-75.2419444</longitude>
  </city>
  <city name="Alto La Villa">
    <latitude>-17.18</latitude>
    <longitude>-70.9405556</longitude>
  </city>
  <city name="Alto Machay">
    <latitude>-6.9952778</latitude>
    <longitude>-78.4433333</longitude>
  </city>
  <city name="Altomira">
    <latitude>-4.9186111</latitude>
    <longitude>-81.0858333</longitude>
  </city>
  <city name="Alto Pacae">
    <latitude>-9.0138889</latitude>
    <longitude>-76.0377778</longitude>
  </city>
  <city name="Alto Pacuy">
    <latitude>-5.2341667</latitude>
    <longitude>-78.2566667</longitude>
  </city>
  <city name="Alto Paiján">
    <latitude>-7.7175</latitude>
    <longitude>-79.3086111</longitude>
  </city>
  <city name="Alto Patacollo">
    <latitude>-16.45</latitude>
    <longitude>-69.2166667</longitude>
  </city>
  <city name="Alto Pauji">
    <latitude>-14.0055556</latitude>
    <longitude>-68.9722222</longitude>
  </city>
  <city name="Alto Perú">
    <latitude>-15.75</latitude>
    <longitude>-73.8166667</longitude>
  </city>
  <city name="Alto Peru">
    <latitude>-7.1833333</latitude>
    <longitude>-79.4833333</longitude>
  </city>
  <city name="Alto Puyeni">
    <latitude>-10.9558333</latitude>
    <longitude>-74.8891667</longitude>
  </city>
  <city name="Alto San Iidefonzo">
    <latitude>-7.1444444</latitude>
    <longitude>-79.5844444</longitude>
  </city>
  <city name="Alto San Ildefonso">
    <latitude>-7.1444444</latitude>
    <longitude>-79.5844444</longitude>
  </city>
  <city name="Altos de Amado">
    <latitude>-16.4252778</latitude>
    <longitude>-71.5888889</longitude>
  </city>
  <city name="Altosillata">
    <latitude>-15.1666667</latitude>
    <longitude>-69.6666667</longitude>
  </city>
  <city name="Alto Somabeni">
    <latitude>-11.9516667</latitude>
    <longitude>-74.1766667</longitude>
  </city>
  <city name="Alto Tincabeni">
    <latitude>-11.8830556</latitude>
    <longitude>-74.2177778</longitude>
  </city>
  <city name="Alto Urubamba">
    <latitude>-14.0555556</latitude>
    <longitude>-68.9416667</longitude>
  </city>
  <city name="Alto Zotani">
    <latitude>-10.8244444</latitude>
    <longitude>-74.9280556</longitude>
  </city>
  <city name="Alumbre">
    <latitude>-6.8813889</latitude>
    <longitude>-78.4355556</longitude>
  </city>
  <city name="Ama">
    <latitude>-11.4686111</latitude>
    <longitude>-76.8858333</longitude>
  </city>
  <city name="Amabula">
    <latitude>-10.0369444</latitude>
    <longitude>-76.0527778</longitude>
  </city>
  <city name="Ama Cancha">
    <latitude>-13.5166667</latitude>
    <longitude>-74.95</longitude>
  </city>
  <city name="Amaclle">
    <latitude>-13.75</latitude>
    <longitude>-75.3333333</longitude>
  </city>
  <city name="Amadochacra">
    <latitude>-10.6333333</latitude>
    <longitude>-76.55</longitude>
  </city>
  <city name="Amadochacra Hacienda">
    <latitude>-10.6333333</latitude>
    <longitude>-76.55</longitude>
  </city>
  <city name="Amado Grande">
    <latitude>-10.6333333</latitude>
    <longitude>-76.55</longitude>
  </city>
  <city name="Amailaca">
    <latitude>-15.3047222</latitude>
    <longitude>-71.4116667</longitude>
  </city>
  <city name="Amailayo">
    <latitude>-15.6016667</latitude>
    <longitude>-70.5238889</longitude>
  </city>
  <city name="Amailla">
    <latitude>-13.1666667</latitude>
    <longitude>-75.65</longitude>
  </city>
  <city name="Amaizama Pata">
    <latitude>-16.4333333</latitude>
    <longitude>-69.0666667</longitude>
  </city>
  <city name="Amancaes">
    <latitude>-13.4833333</latitude>
    <longitude>-73.55</longitude>
  </city>
  <city name="Amani">
    <latitude>-14.4961111</latitude>
    <longitude>-69.6713889</longitude>
  </city>
  <city name="Amantañi">
    <latitude>-15.5333333</latitude>
    <longitude>-70.0</longitude>
  </city>
  <city name="Amapaya">
    <latitude>-18.0027778</latitude>
    <longitude>-70.6513889</longitude>
  </city>
  <city name="Amarani">
    <latitude>-15.7305556</latitude>
    <longitude>-71.4108333</longitude>
  </city>
  <city name="Amarcos">
    <latitude>-3.8861111</latitude>
    <longitude>-80.7911111</longitude>
  </city>
  <city name="Amargoso">
    <latitude>-15.7647222</latitude>
    <longitude>-73.3569444</longitude>
  </city>
  <city name="Amaroucho">
    <latitude>-6.9358333</latitude>
    <longitude>-78.2397222</longitude>
  </city>
  <city name="Amaruyoc">
    <latitude>-14.0888889</latitude>
    <longitude>-73.7605556</longitude>
  </city>
  <city name="Amaruyocc">
    <latitude>-15.05</latitude>
    <longitude>-74.3666667</longitude>
  </city>
  <city name="Amashca">
    <latitude>-9.2333333</latitude>
    <longitude>-77.65</longitude>
  </city>
  <city name="Amata">
    <latitude>-16.6166667</latitude>
    <longitude>-71.085</longitude>
  </city>
  <city name="Amauta">
    <latitude>-10.9947222</latitude>
    <longitude>-74.7872222</longitude>
  </city>
  <city name="Amay">
    <latitude>-11.1166667</latitude>
    <longitude>-77.6</longitude>
  </city>
  <city name="Amayamaya">
    <latitude>-15.5638889</latitude>
    <longitude>-71.3122222</longitude>
  </city>
  <city name="Amayane">
    <latitude>-15.3455556</latitude>
    <longitude>-71.5902778</longitude>
  </city>
  <city name="Amayani">
    <latitude>-15.05</latitude>
    <longitude>-69.4</longitude>
  </city>
  <city name="Amayaque">
    <latitude>-15.3041667</latitude>
    <longitude>-71.5375</longitude>
  </city>
  <city name="Amaycollo">
    <latitude>-15.4333333</latitude>
    <longitude>-69.2666667</longitude>
  </city>
  <city name="Ambar">
    <latitude>-10.7333333</latitude>
    <longitude>-77.2666667</longitude>
  </city>
  <city name="Ambasal">
    <latitude>-4.5833333</latitude>
    <longitude>-79.75</longitude>
  </city>
  <city name="Ambasal Ciudad">
    <latitude>-4.5833333</latitude>
    <longitude>-79.75</longitude>
  </city>
  <city name="Ambato">
    <latitude>-12.75</latitude>
    <longitude>-74.85</longitude>
  </city>
  <city name="Ambisuo">
    <latitude>-5.9833333</latitude>
    <longitude>-76.0666667</longitude>
  </city>
  <city name="Ambo">
    <latitude>-10.1308333</latitude>
    <longitude>-76.2047222</longitude>
  </city>
  <city name="Amboraccay">
    <latitude>-13.2666667</latitude>
    <longitude>-74.2166667</longitude>
  </city>
  <city name="Ambrocio">
    <latitude>-5.9833333</latitude>
    <longitude>-76.0666667</longitude>
  </city>
  <city name="Ambrosio">
    <latitude>-5.9833333</latitude>
    <longitude>-76.0666667</longitude>
  </city>
  <city name="Ambulco">
    <latitude>-4.7666667</latitude>
    <longitude>-79.5333333</longitude>
  </city>
  <city name="Ambulco Ciudad">
    <latitude>-4.7666667</latitude>
    <longitude>-79.5333333</longitude>
  </city>
  <city name="Amelia">
    <latitude>-4.3316667</latitude>
    <longitude>-70.1988889</longitude>
  </city>
  <city name="Americas Unidas">
    <latitude>-15.6505556</latitude>
    <longitude>-74.6372222</longitude>
  </city>
  <city name="Amo">
    <latitude>-11.4686111</latitude>
    <longitude>-76.8858333</longitude>
  </city>
  <city name="Amopaya">
    <latitude>-18.0027778</latitude>
    <longitude>-70.6513889</longitude>
  </city>
  <city name="Amoquinto">
    <latitude>-17.2813889</latitude>
    <longitude>-71.4725</longitude>
  </city>
  <city name="Amotape">
    <latitude>-4.8816667</latitude>
    <longitude>-81.0155556</longitude>
  </city>
  <city name="Amotire">
    <latitude>-16.8</latitude>
    <longitude>-69.3666667</longitude>
  </city>
  <city name="Ampama">
    <latitude>-3.2452778</latitude>
    <longitude>-77.8769444</longitude>
  </city>
  <city name="Ampanú">
    <latitude>-9.9166667</latitude>
    <longitude>-78.1666667</longitude>
  </city>
  <city name="Amparaes">
    <latitude>-13.1666667</latitude>
    <longitude>-71.9</longitude>
  </city>
  <city name="Amparani">
    <latitude>-16.1</latitude>
    <longitude>-69.7</longitude>
  </city>
  <city name="Ampas Pampa">
    <latitude>-13.5666667</latitude>
    <longitude>-73.8166667</longitude>
  </city>
  <city name="Ampato">
    <latitude>-15.1813889</latitude>
    <longitude>-71.4069444</longitude>
  </city>
  <city name="Ampaturi">
    <latitude>-16.3333333</latitude>
    <longitude>-69.9333333</longitude>
  </city>
  <city name="Ampe">
    <latitude>-12.2</latitude>
    <longitude>-76.2</longitude>
  </city>
  <city name="Ampi">
    <latitude>-14.9166667</latitude>
    <longitude>-73.3833333</longitude>
  </city>
  <city name="Ampiyacu">
    <latitude>-3.8652778</latitude>
    <longitude>-70.6886111</longitude>
  </city>
  <city name="Ampoca">
    <latitude>-12.7333333</latitude>
    <longitude>-76.1</longitude>
  </city>
  <city name="Ampuccasa">
    <latitude>-13.2</latitude>
    <longitude>-74.2666667</longitude>
  </city>
  <city name="Amusuy">
    <latitude>-6.2161111</latitude>
    <longitude>-79.4113889</longitude>
  </city>
  <city name="Anacallo">
    <latitude>-17.2333333</latitude>
    <longitude>-69.7833333</longitude>
  </city>
  <city name="Añacaña">
    <latitude>-15.3102778</latitude>
    <longitude>-71.5044444</longitude>
  </city>
  <city name="Anac Ccoponeta">
    <latitude>-15.5416667</latitude>
    <longitude>-71.3866667</longitude>
  </city>
  <city name="Anaccocha">
    <latitude>-14.1713889</latitude>
    <longitude>-73.6230556</longitude>
  </city>
  <city name="Anac-Huito">
    <latitude>-15.5969444</latitude>
    <longitude>-71.0766667</longitude>
  </city>
  <city name="Anacota">
    <latitude>-17.1</latitude>
    <longitude>-69.4666667</longitude>
  </city>
  <city name="Anadiaz">
    <latitude>-7.6405556</latitude>
    <longitude>-77.9897222</longitude>
  </city>
  <city name="Anahuanca">
    <latitude>-14.8166667</latitude>
    <longitude>-70.85</longitude>
  </city>
  <city name="Añahuane">
    <latitude>-17.1833333</latitude>
    <longitude>-69.65</longitude>
  </city>
  <city name="Anahuili">
    <latitude>-15.1177778</latitude>
    <longitude>-70.7766667</longitude>
  </city>
  <city name="Anahuita">
    <latitude>-14.9372222</latitude>
    <longitude>-71.6605556</longitude>
  </city>
  <city name="Analachayoc">
    <latitude>-14.2111111</latitude>
    <longitude>-73.8188889</longitude>
  </city>
  <city name="Analayoc">
    <latitude>-14.0741667</latitude>
    <longitude>-73.7480556</longitude>
  </city>
  <city name="Anama">
    <latitude>-13.2063889</latitude>
    <longitude>-73.6597222</longitude>
  </city>
  <city name="Anamaray">
    <latitude>-11.1075</latitude>
    <longitude>-76.5519444</longitude>
  </city>
  <city name="Ana María">
    <latitude>-7.1</latitude>
    <longitude>-79.5833333</longitude>
  </city>
  <city name="Anamias">
    <latitude>-14.05</latitude>
    <longitude>-75.7166667</longitude>
  </city>
  <city name="Ananea">
    <latitude>-14.7</latitude>
    <longitude>-69.55</longitude>
  </city>
  <city name="Anansalla">
    <latitude>-15.7019444</latitude>
    <longitude>-72.1341667</longitude>
  </city>
  <city name="Anansaya">
    <latitude>-14.1769444</latitude>
    <longitude>-71.3705556</longitude>
  </city>
  <city name="Anansaya Huasca">
    <latitude>-14.3333333</latitude>
    <longitude>-72.0666667</longitude>
  </city>
  <city name="Ananta">
    <latitude>-15.7883333</latitude>
    <longitude>-73.3347222</longitude>
  </city>
  <city name="Añapaca">
    <latitude>-17.45</latitude>
    <longitude>-69.5666667</longitude>
  </city>
  <city name="Añaque Putina">
    <latitude>-17.4</latitude>
    <longitude>-69.9166667</longitude>
  </city>
  <city name="Añarane">
    <latitude>-15.7905556</latitude>
    <longitude>-70.5991667</longitude>
  </city>
  <city name="Anarqui">
    <latitude>-13.7</latitude>
    <longitude>-72.4166667</longitude>
  </city>
  <city name="Anarqui Hacienda">
    <latitude>-13.7</latitude>
    <longitude>-72.4166667</longitude>
  </city>
  <city name="Anascancha">
    <latitude>-13.1</latitude>
    <longitude>-74.6833333</longitude>
  </city>
  <city name="Añascancha">
    <latitude>-13.0833333</latitude>
    <longitude>-75.8833333</longitude>
  </city>
  <city name="Añascanchanan">
    <latitude>-13.0027778</latitude>
    <longitude>-75.8422222</longitude>
  </city>
  <city name="Anascapa">
    <latitude>-16.4166667</latitude>
    <longitude>-70.8333333</longitude>
  </city>
  <city name="Añascipina">
    <latitude>-14.65</latitude>
    <longitude>-74.3</longitude>
  </city>
  <city name="Anascocha">
    <latitude>-15.0</latitude>
    <longitude>-73.7833333</longitude>
  </city>
  <city name="Anas Orco">
    <latitude>-7.65</latitude>
    <longitude>-78.0166667</longitude>
  </city>
  <city name="Anaspampa">
    <latitude>-8.9166667</latitude>
    <longitude>-78.1666667</longitude>
  </city>
  <city name="Añaspampa">
    <latitude>-10.35</latitude>
    <longitude>-76.75</longitude>
  </city>
  <city name="Anatico">
    <latitude>-3.4972222</latitude>
    <longitude>-76.4488889</longitude>
  </city>
  <city name="Añatoyoc">
    <latitude>-15.2777778</latitude>
    <longitude>-72.5008333</longitude>
  </city>
  <city name="Anavlli Hacienda">
    <latitude>-15.8583333</latitude>
    <longitude>-70.5475</longitude>
  </city>
  <city name="Añay">
    <latitude>-10.2797222</latitude>
    <longitude>-76.2355556</longitude>
  </city>
  <city name="Anay">
    <latitude>-11.8444444</latitude>
    <longitude>-76.3625</longitude>
  </city>
  <city name="Añaycancha">
    <latitude>-13.4833333</latitude>
    <longitude>-74.05</longitude>
  </city>
  <city name="Añaypampa">
    <latitude>-11.1275</latitude>
    <longitude>-76.7841667</longitude>
  </city>
  <city name="Añaza">
    <latitude>-13.5333333</latitude>
    <longitude>-75.0166667</longitude>
  </city>
  <city name="Ancacc">
    <latitude>-13.0833333</latitude>
    <longitude>-75.95</longitude>
  </city>
  <city name="Ancache">
    <latitude>-15.3980556</latitude>
    <longitude>-71.4241667</longitude>
  </city>
  <city name="Ancacollo">
    <latitude>-17.2333333</latitude>
    <longitude>-69.7833333</longitude>
  </city>
  <city name="Ancahuachana">
    <latitude>-13.55</latitude>
    <longitude>-72.7333333</longitude>
  </city>
  <city name="Ancahuasi">
    <latitude>-13.45</latitude>
    <longitude>-72.3</longitude>
  </city>
  <city name="Ancallachi">
    <latitude>-15.4416667</latitude>
    <longitude>-71.3944444</longitude>
  </city>
  <city name="Ancamani">
    <latitude>-15.6927778</latitude>
    <longitude>-71.0930556</longitude>
  </city>
  <city name="Ancamarca">
    <latitude>-13.2180556</latitude>
    <longitude>-73.8713889</longitude>
  </city>
  <city name="Ancapampa">
    <latitude>-7.9277778</latitude>
    <longitude>-77.5861111</longitude>
  </city>
  <city name="Ancaro">
    <latitude>-15.2563889</latitude>
    <longitude>-72.9091667</longitude>
  </city>
  <city name="Ancas">
    <latitude>-16.0008333</latitude>
    <longitude>-71.2402778</longitude>
  </city>
  <city name="Ancasccocha">
    <latitude>-14.9333333</latitude>
    <longitude>-73.8333333</longitude>
  </city>
  <city name="Ancascocha">
    <latitude>-11.0955556</latitude>
    <longitude>-76.9513889</longitude>
  </city>
  <city name="Ancascocha Dique">
    <latitude>-14.9333333</latitude>
    <longitude>-73.8333333</longitude>
  </city>
  <city name="Ancasi">
    <latitude>-16.4</latitude>
    <longitude>-71.0666667</longitude>
  </city>
  <city name="Ancata">
    <latitude>-16.1833333</latitude>
    <longitude>-70.5</longitude>
  </city>
  <city name="Ancaya Pampa">
    <latitude>-13.6333333</latitude>
    <longitude>-75.5333333</longitude>
  </city>
  <city name="Anccas">
    <latitude>-13.8666667</latitude>
    <longitude>-74.8833333</longitude>
  </city>
  <city name="Anccase">
    <latitude>-15.9441667</latitude>
    <longitude>-71.1088889</longitude>
  </city>
  <city name="Anccasuyo">
    <latitude>-15.4927778</latitude>
    <longitude>-71.4241667</longitude>
  </city>
  <city name="Ancco">
    <latitude>-10.5077778</latitude>
    <longitude>-76.9341667</longitude>
  </city>
  <city name="Anccoccahua">
    <latitude>-15.2538889</latitude>
    <longitude>-71.7686111</longitude>
  </city>
  <city name="Anccoccota">
    <latitude>-15.2413889</latitude>
    <longitude>-71.7694444</longitude>
  </city>
  <city name="Anccochoco">
    <latitude>-15.1547222</latitude>
    <longitude>-71.3086111</longitude>
  </city>
  <city name="Anccontaña">
    <latitude>-15.6519444</latitude>
    <longitude>-71.1263889</longitude>
  </city>
  <city name="Anchaca">
    <latitude>-15.0041667</latitude>
    <longitude>-71.8891667</longitude>
  </city>
  <city name="Anchacahuasi">
    <latitude>-13.2833333</latitude>
    <longitude>-74.3333333</longitude>
  </city>
  <city name="Anchacalla">
    <latitude>-15.9088889</latitude>
    <longitude>-71.5811111</longitude>
  </city>
  <city name="Anchaccui">
    <latitude>-14.6983333</latitude>
    <longitude>-71.5769444</longitude>
  </city>
  <city name="Anchacotana">
    <latitude>-15.2333333</latitude>
    <longitude>-70.75</longitude>
  </city>
  <city name="Anchala">
    <latitude>-4.65</latitude>
    <longitude>-79.6166667</longitude>
  </city>
  <city name="Anchalay">
    <latitude>-4.5</latitude>
    <longitude>-79.8166667</longitude>
  </city>
  <city name="Anchalcapo">
    <latitude>-4.65</latitude>
    <longitude>-79.6166667</longitude>
  </city>
  <city name="Ancha Palca">
    <latitude>-15.4169444</latitude>
    <longitude>-71.4933333</longitude>
  </city>
  <city name="Anchapalla">
    <latitude>-15.5641667</latitude>
    <longitude>-72.4158333</longitude>
  </city>
  <city name="Anchapilla">
    <latitude>-15.3333333</latitude>
    <longitude>-73.7166667</longitude>
  </city>
  <city name="Anchapillay">
    <latitude>-14.0166667</latitude>
    <longitude>-72.4</longitude>
  </city>
  <city name="Anchaqui">
    <latitude>-15.75</latitude>
    <longitude>-73.3805556</longitude>
  </city>
  <city name="Anchayaque">
    <latitude>-14.6197222</latitude>
    <longitude>-72.0666667</longitude>
  </city>
  <city name="Anchayllioc">
    <latitude>-14.32</latitude>
    <longitude>-71.9983333</longitude>
  </city>
  <city name="Anche">
    <latitude>-11.7302778</latitude>
    <longitude>-76.2636111</longitude>
  </city>
  <city name="Anchicha">
    <latitude>-13.9833333</latitude>
    <longitude>-73.0</longitude>
  </city>
  <city name="Anchicocha">
    <latitude>-12.2</latitude>
    <longitude>-76.4</longitude>
  </city>
  <city name="Anchicocha Bajo">
    <latitude>-12.1833333</latitude>
    <longitude>-76.4</longitude>
  </city>
  <city name="Anchiguay">
    <latitude>-13.0058333</latitude>
    <longitude>-73.7730556</longitude>
  </city>
  <city name="Anchihuay">
    <latitude>-13.0166667</latitude>
    <longitude>-73.7333333</longitude>
  </city>
  <city name="Anchilhuay">
    <latitude>-13.0166667</latitude>
    <longitude>-73.7333333</longitude>
  </city>
  <city name="Anchimaja">
    <latitude>-11.8694444</latitude>
    <longitude>-76.4352778</longitude>
  </city>
  <city name="Anchivay">
    <latitude>-12.3166667</latitude>
    <longitude>-72.8333333</longitude>
  </city>
  <city name="Anchocotaña">
    <latitude>-15.2333333</latitude>
    <longitude>-70.75</longitude>
  </city>
  <city name="Anchocotara">
    <latitude>-15.2333333</latitude>
    <longitude>-70.75</longitude>
  </city>
  <city name="Anchonga">
    <latitude>-12.8833333</latitude>
    <longitude>-74.7</longitude>
  </city>
  <city name="Anchovira Alta">
    <latitude>-6.2755556</latitude>
    <longitude>-79.7422222</longitude>
  </city>
  <city name="Anchovira">
    <latitude>-6.2755556</latitude>
    <longitude>-79.7422222</longitude>
  </city>
  <city name="Anchovira Baja">
    <latitude>-6.2858333</latitude>
    <longitude>-79.7422222</longitude>
  </city>
  <city name="Anchuara">
    <latitude>-14.4763889</latitude>
    <longitude>-71.3733333</longitude>
  </city>
  <city name="Anchuyo">
    <latitude>-15.2833333</latitude>
    <longitude>-69.5166667</longitude>
  </city>
  <city name="Ancoamaya">
    <latitude>-16.1166667</latitude>
    <longitude>-69.9666667</longitude>
  </city>
  <city name="Ancoamayo">
    <latitude>-16.15</latitude>
    <longitude>-69.5833333</longitude>
  </city>
  <city name="Anco">
    <latitude>-15.5080556</latitude>
    <longitude>-73.895</longitude>
  </city>
  <city name="Anco Anco">
    <latitude>-15.4569444</latitude>
    <longitude>-71.2141667</longitude>
  </city>
  <city name="Ancoanco">
    <latitude>-16.95</latitude>
    <longitude>-69.7666667</longitude>
  </city>
  <city name="Ancobamba">
    <latitude>-14.0491667</latitude>
    <longitude>-73.0938889</longitude>
  </city>
  <city name="Ancocahua">
    <latitude>-15.2011111</latitude>
    <longitude>-71.4230556</longitude>
  </city>
  <city name="Ancocala">
    <latitude>-14.55</latitude>
    <longitude>-69.6</longitude>
  </city>
  <city name="Ancocamaña">
    <latitude>-16.9333333</latitude>
    <longitude>-69.5</longitude>
  </city>
  <city name="Ancoccahua">
    <latitude>-15.5958333</latitude>
    <longitude>-70.9719444</longitude>
  </city>
  <city name="Ancochaque">
    <latitude>-16.5333333</latitude>
    <longitude>-69.2833333</longitude>
  </city>
  <city name="Ancochuco">
    <latitude>-15.1611111</latitude>
    <longitude>-71.2311111</longitude>
  </city>
  <city name="Ancocirca">
    <latitude>-17.4180556</latitude>
    <longitude>-70.3983333</longitude>
  </city>
  <city name="Ancocollo">
    <latitude>-17.2547222</latitude>
    <longitude>-70.0980556</longitude>
  </city>
  <city name="Ancocoto">
    <latitude>-10.9833333</latitude>
    <longitude>-76.5</longitude>
  </city>
  <city name="Ancocucho">
    <latitude>-12.5230556</latitude>
    <longitude>-75.5952778</longitude>
  </city>
  <city name="Ancocullo">
    <latitude>-15.1916667</latitude>
    <longitude>-71.2072222</longitude>
  </city>
  <city name="Ancohaque">
    <latitude>-17.115</latitude>
    <longitude>-70.0613889</longitude>
  </city>
  <city name="Ancohuyo">
    <latitude>-17.2333333</latitude>
    <longitude>-69.7833333</longitude>
  </city>
  <city name="Ancolacaya">
    <latitude>-15.7616667</latitude>
    <longitude>-71.0230556</longitude>
  </city>
  <city name="Ancolaccaya">
    <latitude>-15.8238889</latitude>
    <longitude>-70.9563889</longitude>
  </city>
  <city name="Ancolaya">
    <latitude>-16.5666667</latitude>
    <longitude>-69.4</longitude>
  </city>
  <city name="Ancol Chico">
    <latitude>-5.9227778</latitude>
    <longitude>-80.0063889</longitude>
  </city>
  <city name="Ancol Chiquito">
    <latitude>-5.9227778</latitude>
    <longitude>-80.0063889</longitude>
  </city>
  <city name="Ancol Grande">
    <latitude>-5.9077778</latitude>
    <longitude>-80.0611111</longitude>
  </city>
  <city name="Ancollagua">
    <latitude>-15.3975</latitude>
    <longitude>-71.7808333</longitude>
  </city>
  <city name="Ancollo">
    <latitude>-15.1666667</latitude>
    <longitude>-69.3</longitude>
  </city>
  <city name="Ancoma">
    <latitude>-17.6208333</latitude>
    <longitude>-69.9580556</longitude>
  </city>
  <city name="Anco Marca">
    <latitude>-15.1980556</latitude>
    <longitude>-71.1833333</longitude>
  </city>
  <city name="Ancomarca">
    <latitude>-17.2</latitude>
    <longitude>-69.65</longitude>
  </city>
  <city name="Ancomarca Hacienda">
    <latitude>-17.2</latitude>
    <longitude>-69.65</longitude>
  </city>
  <city name="Ancón">
    <latitude>-11.7702778</latitude>
    <longitude>-77.1730556</longitude>
  </city>
  <city name="Anconasa">
    <latitude>-16.6</latitude>
    <longitude>-69.75</longitude>
  </city>
  <city name="Ancopadre">
    <latitude>-16.6333333</latitude>
    <longitude>-69.5833333</longitude>
  </city>
  <city name="Ancoparqui">
    <latitude>-15.25</latitude>
    <longitude>-69.15</longitude>
  </city>
  <city name="Ancopiteac">
    <latitude>-10.0</latitude>
    <longitude>-76.6</longitude>
  </city>
  <city name="Ancopoto">
    <latitude>-16.4666667</latitude>
    <longitude>-69.1666667</longitude>
  </city>
  <city name="Ancoquishcachayoj">
    <latitude>-14.8333333</latitude>
    <longitude>-74.55</longitude>
  </city>
  <city name="Ancorane">
    <latitude>-17.1333333</latitude>
    <longitude>-69.6166667</longitude>
  </city>
  <city name="Ancos">
    <latitude>-8.4833333</latitude>
    <longitude>-78.1</longitude>
  </city>
  <city name="Ancoyane">
    <latitude>-17.3333333</latitude>
    <longitude>-69.9666667</longitude>
  </city>
  <city name="Ancoyo">
    <latitude>-15.4430556</latitude>
    <longitude>-72.1272222</longitude>
  </city>
  <city name="Ancuna">
    <latitude>-15.5763889</latitude>
    <longitude>-70.5386111</longitude>
  </city>
  <city name="Ancuylla">
    <latitude>-14.85</latitude>
    <longitude>-73.5333333</longitude>
  </city>
  <city name="Ancuyo">
    <latitude>-17.6002778</latitude>
    <longitude>-69.6258333</longitude>
  </city>
  <city name="Anda">
    <latitude>-9.0544444</latitude>
    <longitude>-76.0738889</longitude>
  </city>
  <city name="Andabamba">
    <latitude>-12.65</latitude>
    <longitude>-74.6166667</longitude>
  </city>
  <city name="Andabay">
    <latitude>-17.4022222</latitude>
    <longitude>-70.3558333</longitude>
  </city>
  <city name="Andacancha Viejo">
    <latitude>-10.6716667</latitude>
    <longitude>-76.5469444</longitude>
  </city>
  <city name="Andachaca">
    <latitude>-10.6333333</latitude>
    <longitude>-76.55</longitude>
  </city>
  <city name="Andachaca Viejo">
    <latitude>-10.6722222</latitude>
    <longitude>-76.5708333</longitude>
  </city>
  <city name="Andagua">
    <latitude>-15.4986111</latitude>
    <longitude>-72.3552778</longitude>
  </city>
  <city name="Andahua">
    <latitude>-15.4986111</latitude>
    <longitude>-72.3552778</longitude>
  </city>
  <city name="Andahuailas">
    <latitude>-13.6605556</latitude>
    <longitude>-73.3866667</longitude>
  </city>
  <city name="Andahuailillas">
    <latitude>-13.6725</latitude>
    <longitude>-71.6794444</longitude>
  </city>
  <city name="Andahuasi">
    <latitude>-11.1166667</latitude>
    <longitude>-77.25</longitude>
  </city>
  <city name="Andahuavlas">
    <latitude>-13.6605556</latitude>
    <longitude>-73.3866667</longitude>
  </city>
  <city name="Andahuayasi">
    <latitude>-10.3166667</latitude>
    <longitude>-76.5333333</longitude>
  </city>
  <city name="Andahuaylas">
    <latitude>-13.6605556</latitude>
    <longitude>-73.3866667</longitude>
  </city>
  <city name="Andahuaylillas">
    <latitude>-13.6725</latitude>
    <longitude>-71.6794444</longitude>
  </city>
  <city name="Andahuaylla">
    <latitude>-10.4</latitude>
    <longitude>-76.5833333</longitude>
  </city>
  <city name="Andaimarca">
    <latitude>-13.9333333</latitude>
    <longitude>-75.3333333</longitude>
  </city>
  <city name="Andajes">
    <latitude>-10.7922222</latitude>
    <longitude>-76.9094444</longitude>
  </city>
  <city name="Andalaca">
    <latitude>-15.7680556</latitude>
    <longitude>-71.1561111</longitude>
  </city>
  <city name="Andalmailillas">
    <latitude>-13.6725</latitude>
    <longitude>-71.6794444</longitude>
  </city>
  <city name="Andalucia">
    <latitude>-7.2666667</latitude>
    <longitude>-78.0166667</longitude>
  </city>
  <city name="Andamarca">
    <latitude>-15.2208333</latitude>
    <longitude>-73.0066667</longitude>
  </city>
  <city name="Andamarca Hacienda">
    <latitude>-15.6383333</latitude>
    <longitude>-70.5875</longitude>
  </city>
  <city name="Andamayo">
    <latitude>-8.6666667</latitude>
    <longitude>-77.6333333</longitude>
  </city>
  <city name="Andamayo Hacienda">
    <latitude>-15.8436111</latitude>
    <longitude>-72.4508333</longitude>
  </city>
  <city name="Andanjo">
    <latitude>-5.3666667</latitude>
    <longitude>-79.6333333</longitude>
  </city>
  <city name="Andapicho">
    <latitude>-15.6547222</latitude>
    <longitude>-71.3075</longitude>
  </city>
  <city name="Andarapa">
    <latitude>-13.5277778</latitude>
    <longitude>-73.3633333</longitude>
  </city>
  <city name="Andaray">
    <latitude>-15.7966667</latitude>
    <longitude>-72.8605556</longitude>
  </city>
  <city name="Andaymarca">
    <latitude>-13.9333333</latitude>
    <longitude>-75.3333333</longitude>
  </city>
  <city name="Andaymayo">
    <latitude>-8.6666667</latitude>
    <longitude>-77.6333333</longitude>
  </city>
  <city name="Andaymayo Hacienda">
    <latitude>-8.6666667</latitude>
    <longitude>-77.6333333</longitude>
  </city>
  <city name="Andenes">
    <latitude>-15.4833333</latitude>
    <longitude>-73.8666667</longitude>
  </city>
  <city name="Andenes Hacienda">
    <latitude>-13.45</latitude>
    <longitude>-72.25</longitude>
  </city>
  <city name="Andoas">
    <latitude>-2.9</latitude>
    <longitude>-76.4</longitude>
  </city>
  <city name="Anduma">
    <latitude>-15.4152778</latitude>
    <longitude>-71.1413889</longitude>
  </city>
  <city name="Andumayo">
    <latitude>-15.8436111</latitude>
    <longitude>-72.4508333</longitude>
  </city>
  <city name="Anduyu">
    <latitude>-15.735</latitude>
    <longitude>-71.0805556</longitude>
  </city>
  <city name="Anexo">
    <latitude>-14.1833333</latitude>
    <longitude>-75.7</longitude>
  </city>
  <city name="Anexo de la Hacienda Ongoro">
    <latitude>-15.9102778</latitude>
    <longitude>-72.4786111</longitude>
  </city>
  <city name="Angamos">
    <latitude>-8.4166667</latitude>
    <longitude>-74.4833333</longitude>
  </city>
  <city name="Angana">
    <latitude>-15.0666667</latitude>
    <longitude>-74.3833333</longitude>
  </city>
  <city name="Angaraya">
    <latitude>-4.8666667</latitude>
    <longitude>-79.5333333</longitude>
  </city>
  <city name="Angarayo">
    <latitude>-4.8666667</latitude>
    <longitude>-79.5333333</longitude>
  </city>
  <city name="Angas">
    <latitude>-13.7833333</latitude>
    <longitude>-74.5666667</longitude>
  </city>
  <city name="Angasha">
    <latitude>-5.6077778</latitude>
    <longitude>-79.3725</longitude>
  </city>
  <city name="Angashi">
    <latitude>-2.8166667</latitude>
    <longitude>-76.7166667</longitude>
  </city>
  <city name="Angasjucha">
    <latitude>-14.05</latitude>
    <longitude>-73.5333333</longitude>
  </city>
  <city name="Angasjuclia">
    <latitude>-14.0647222</latitude>
    <longitude>-73.5311111</longitude>
  </city>
  <city name="Angasllanche">
    <latitude>-7.5552778</latitude>
    <longitude>-77.78</longitude>
  </city>
  <city name="Angasmarca">
    <latitude>-10.2405556</latitude>
    <longitude>-76.2322222</longitude>
  </city>
  <city name="Angasmarca Hacienda">
    <latitude>-8.1333333</latitude>
    <longitude>-78.0666667</longitude>
  </city>
  <city name="Angasmarquilla">
    <latitude>-7.7166667</latitude>
    <longitude>-78.1333333</longitude>
  </city>
  <city name="Angasmayo">
    <latitude>-13.3333333</latitude>
    <longitude>-74.3666667</longitude>
  </city>
  <city name="Angayaco">
    <latitude>-7.5344444</latitude>
    <longitude>-77.5780556</longitude>
  </city>
  <city name="Angaypahua">
    <latitude>-13.75</latitude>
    <longitude>-73.55</longitude>
  </city>
  <city name="Angela Arellano">
    <latitude>-10.7163889</latitude>
    <longitude>-73.7597222</longitude>
  </city>
  <city name="Angelo Tiana">
    <latitude>-6.945</latitude>
    <longitude>-78.16</longitude>
  </city>
  <city name="Angelpata">
    <latitude>-12.1666667</latitude>
    <longitude>-74.6833333</longitude>
  </city>
  <city name="Angiay">
    <latitude>-13.1116667</latitude>
    <longitude>-73.7825</longitude>
  </city>
  <city name="Angleya">
    <latitude>-16.8</latitude>
    <longitude>-70.75</longitude>
  </city>
  <city name="Ango">
    <latitude>-10.6905556</latitude>
    <longitude>-76.6963889</longitude>
  </city>
  <city name="Angola">
    <latitude>-4.1144444</latitude>
    <longitude>-80.9925</longitude>
  </city>
  <city name="Angolla">
    <latitude>-8.2333333</latitude>
    <longitude>-78.3333333</longitude>
  </city>
  <city name="Angolo">
    <latitude>-6.5263889</latitude>
    <longitude>-80.0430556</longitude>
  </city>
  <city name="Angomachay">
    <latitude>-13.2166667</latitude>
    <longitude>-74.8833333</longitude>
  </city>
  <city name="Angosteros">
    <latitude>-1.5833333</latitude>
    <longitude>-74.5833333</longitude>
  </city>
  <city name="Angostura">
    <latitude>-15.3666667</latitude>
    <longitude>-74.15</longitude>
  </city>
  <city name="Angostura Ciudad">
    <latitude>-5.9833333</latitude>
    <longitude>-80.3333333</longitude>
  </city>
  <city name="Angostura Hacienda">
    <latitude>-4.9419444</latitude>
    <longitude>-80.3777778</longitude>
  </city>
  <city name="Angoteros">
    <latitude>-1.5833333</latitude>
    <longitude>-74.5833333</longitude>
  </city>
  <city name="Anguia">
    <latitude>-13.2</latitude>
    <longitude>-73.6333333</longitude>
  </city>
  <city name="Anguía">
    <latitude>-6.3166667</latitude>
    <longitude>-78.6</longitude>
  </city>
  <city name="Angulis">
    <latitude>-6.36</latitude>
    <longitude>-79.3661111</longitude>
  </city>
  <city name="Angulis Hacienda">
    <latitude>-6.36</latitude>
    <longitude>-79.3661111</longitude>
  </city>
  <city name="Angura">
    <latitude>-6.3166667</latitude>
    <longitude>-78.6</longitude>
  </city>
  <city name="Angurgo">
    <latitude>-4.9833333</latitude>
    <longitude>-80.0333333</longitude>
  </city>
  <city name="Angusilla">
    <latitude>-0.4333333</latitude>
    <longitude>-75.15</longitude>
  </city>
  <city name="Anguy">
    <latitude>-8.95</latitude>
    <longitude>-78.1166667</longitude>
  </city>
  <city name="Anguyo">
    <latitude>-14.1494444</latitude>
    <longitude>-71.1686111</longitude>
  </city>
  <city name="Anillune">
    <latitude>-16.8333333</latitude>
    <longitude>-70.5333333</longitude>
  </city>
  <city name="Animas">
    <latitude>-15.6780556</latitude>
    <longitude>-73.8138889</longitude>
  </city>
  <city name="Ánimas">
    <latitude>-6.9666667</latitude>
    <longitude>-79.6</longitude>
  </city>
  <city name="Animascancha">
    <latitude>-11.2272222</latitude>
    <longitude>-75.9208333</longitude>
  </city>
  <city name="Aniso">
    <latitude>-14.8086111</latitude>
    <longitude>-73.2911111</longitude>
  </city>
  <city name="Aniuma">
    <latitude>-14.9611111</latitude>
    <longitude>-71.9338889</longitude>
  </city>
  <city name="Anjolajaya">
    <latitude>-14.4463889</latitude>
    <longitude>-69.9122222</longitude>
  </city>
  <city name="Anjolla">
    <latitude>-13.4166667</latitude>
    <longitude>-74.6833333</longitude>
  </city>
  <city name="Anjo Uta">
    <latitude>-14.3672222</latitude>
    <longitude>-69.9383333</longitude>
  </city>
  <city name="Annape">
    <latitude>-6.5180556</latitude>
    <longitude>-80.0027778</longitude>
  </city>
  <city name="Annatira">
    <latitude>-15.5705556</latitude>
    <longitude>-71.2902778</longitude>
  </city>
  <city name="Añocalla">
    <latitude>-13.9666667</latitude>
    <longitude>-72.2666667</longitude>
  </city>
  <city name="Añoccalla">
    <latitude>-14.3833333</latitude>
    <longitude>-72.5333333</longitude>
  </city>
  <city name="Anoccara Pampa">
    <latitude>-13.95</latitude>
    <longitude>-74.0166667</longitude>
  </city>
  <city name="Anosmarca">
    <latitude>-13.5166667</latitude>
    <longitude>-74.5833333</longitude>
  </city>
  <city name="Anqui">
    <latitude>-15.4333333</latitude>
    <longitude>-74.3833333</longitude>
  </city>
  <city name="Anquicha">
    <latitude>-15.3094444</latitude>
    <longitude>-72.4086111</longitude>
  </city>
  <city name="Ansiacasa">
    <latitude>-15.3</latitude>
    <longitude>-69.8666667</longitude>
  </city>
  <city name="Anta">
    <latitude>-9.25</latitude>
    <longitude>-78.05</longitude>
  </city>
  <city name="Anta Anta">
    <latitude>-14.2333333</latitude>
    <longitude>-72.2833333</longitude>
  </city>
  <city name="Antabamba">
    <latitude>-13.4872222</latitude>
    <longitude>-73.5119444</longitude>
  </city>
  <city name="Antabamba Hacienda">
    <latitude>-13.4833333</latitude>
    <longitude>-72.55</longitude>
  </city>
  <city name="Antacalla">
    <latitude>-14.3866667</latitude>
    <longitude>-71.3586111</longitude>
  </city>
  <city name="Antacancha">
    <latitude>-12.9905556</latitude>
    <longitude>-75.5213889</longitude>
  </city>
  <city name="Antacarana">
    <latitude>-14.1833333</latitude>
    <longitude>-71.2075</longitude>
  </city>
  <city name="Antacarca">
    <latitude>-15.2038889</latitude>
    <longitude>-72.0011111</longitude>
  </city>
  <city name="Antaccahua">
    <latitude>-15.8186111</latitude>
    <longitude>-71.3938889</longitude>
  </city>
  <city name="Antaccasa">
    <latitude>-13.5</latitude>
    <longitude>-72.9666667</longitude>
  </city>
  <city name="Antaccollo">
    <latitude>-15.3138889</latitude>
    <longitude>-71.7041667</longitude>
  </city>
  <city name="Antacocha">
    <latitude>-11.2111111</latitude>
    <longitude>-75.7927778</longitude>
  </city>
  <city name="Antacollo">
    <latitude>-15.2219444</latitude>
    <longitude>-71.9486111</longitude>
  </city>
  <city name="Antacolpa">
    <latitude>-10.25</latitude>
    <longitude>-76.6833333</longitude>
  </city>
  <city name="Antacorral">
    <latitude>-13.1166667</latitude>
    <longitude>-73.8</longitude>
  </city>
  <city name="Antacucho">
    <latitude>-13.0666667</latitude>
    <longitude>-74.2833333</longitude>
  </city>
  <city name="Antacunca">
    <latitude>-15.0166667</latitude>
    <longitude>-69.7166667</longitude>
  </city>
  <city name="Anta Hacienda">
    <latitude>-15.2833333</latitude>
    <longitude>-69.3833333</longitude>
  </city>
  <city name="Anta Huaca">
    <latitude>-11.1394444</latitude>
    <longitude>-76.7455556</longitude>
  </city>
  <city name="Anta Huaico">
    <latitude>-14.9666667</latitude>
    <longitude>-73.6666667</longitude>
  </city>
  <city name="Antahualla">
    <latitude>-12.8833333</latitude>
    <longitude>-76.0833333</longitude>
  </city>
  <city name="Antahuancan">
    <latitude>-10.5808333</latitude>
    <longitude>-76.9130556</longitude>
  </city>
