<?xml version="1.0" encoding="UTF-8"?>
<country code="sa" name="Arabie saoudite">
  <city name="Aalia">
    <latitude>19.619748</latitude>
    <longitude>41.971411</longitude>
  </city>
  <city name="Aba ad Dud">
    <latitude>27.025827</latitude>
    <longitude>44.073113</longitude>
  </city>
  <city name="Aba al Hiran">
    <latitude>27.051129</latitude>
    <longitude>40.948246</longitude>
  </city>
  <city name="Aba al Kibash">
    <latitude>24.797022</latitude>
    <longitude>46.430446</longitude>
  </city>
  <city name="Aba ar Ruwath">
    <latitude>30.456319</latitude>
    <longitude>42.005962</longitude>
  </city>
  <city name="Aba as Su`ud">
    <latitude>17.466667</latitude>
    <longitude>44.1</longitude>
  </city>
  <city name="Abab">
    <latitude>25.25</latitude>
    <longitude>44.6</longitude>
  </city>
  <city name="Ab-ad-Dud">
    <latitude>27.025827</latitude>
    <longitude>44.073113</longitude>
  </city>
  <city name="Abalah">
    <latitude>18.733333</latitude>
    <longitude>42.266667</longitude>
  </city>
  <city name="Abal Dud">
    <latitude>27.025827</latitude>
    <longitude>44.073113</longitude>
  </city>
  <city name="Abaqaiq">
    <latitude>25.937103</latitude>
    <longitude>49.677613</longitude>
  </city>
  <city name="Abarahee at Taybi">
    <latitude>23.966667</latitude>
    <longitude>45.033333</longitude>
  </city>
  <city name="Abar el-Shifaiya">
    <latitude>23.822608</latitude>
    <longitude>39.135681</longitude>
  </city>
  <city name="Aba Sa`ud">
    <latitude>17.466667</latitude>
    <longitude>44.1</longitude>
  </city>
  <city name="`Abassah">
    <latitude>21.131878</latitude>
    <longitude>40.581478</longitude>
  </city>
  <city name="`Abd al Mutliq">
    <latitude>23.922197</latitude>
    <longitude>46.955926</longitude>
  </city>
  <city name="Abd Mutliq">
    <latitude>23.922197</latitude>
    <longitude>46.955926</longitude>
  </city>
  <city name="Abha">
    <latitude>18.216389</latitude>
    <longitude>42.505278</longitude>
  </city>
  <city name="Abhur al Janubiyah">
    <latitude>21.68231</latitude>
    <longitude>39.096272</longitude>
  </city>
  <city name="Abi `Arish">
    <latitude>16.968872</latitude>
    <longitude>42.832512</longitude>
  </city>
  <city name="Abkayk">
    <latitude>25.937103</latitude>
    <longitude>49.677613</longitude>
  </city>
  <city name="Abqaik">
    <latitude>25.937103</latitude>
    <longitude>49.677613</longitude>
  </city>
  <city name="Abqaiq">
    <latitude>25.937103</latitude>
    <longitude>49.677613</longitude>
  </city>
  <city name="Abqayq">
    <latitude>25.937103</latitude>
    <longitude>49.677613</longitude>
  </city>
  <city name="Abraqiyah">
    <latitude>24.491944</latitude>
    <longitude>46.035</longitude>
  </city>
  <city name="`Absiya">
    <latitude>17.264653</latitude>
    <longitude>43.118969</longitude>
  </city>
  <city name="`Absiyah">
    <latitude>17.264653</latitude>
    <longitude>43.118969</longitude>
  </city>
  <city name="Abu `Alaq">
    <latitude>24.816667</latitude>
    <longitude>38.783333</longitude>
  </city>
  <city name="Abu al `Arish">
    <latitude>16.968872</latitude>
    <longitude>42.832512</longitude>
  </city>
  <city name="Abu al Kibash">
    <latitude>24.817948</latitude>
    <longitude>46.474234</longitude>
  </city>
  <city name="Abu al Qa`a'id">
    <latitude>17.271367</latitude>
    <longitude>42.607708</longitude>
  </city>
  <city name="Abu al Qa`ayid">
    <latitude>17.271367</latitude>
    <longitude>42.607708</longitude>
  </city>
  <city name="Abu an Na`am">
    <latitude>25.228056</latitude>
    <longitude>38.828333</longitude>
  </city>
  <city name="Abu `Arish">
    <latitude>16.968872</latitude>
    <longitude>42.832512</longitude>
  </city>
  <city name="Abu ar Radif">
    <latitude>16.618547</latitude>
    <longitude>43.131197</longitude>
  </city>
  <city name="Abu `Ashirah">
    <latitude>24.531944</latitude>
    <longitude>43.582222</longitude>
  </city>
  <city name="Abu as Suwadi">
    <latitude>19.45</latitude>
    <longitude>40.916667</longitude>
  </city>
  <city name="Abu at Tuyur">
    <latitude>17.159321</latitude>
    <longitude>42.499816</longitude>
  </city>
  <city name="Abu Dhiba">
    <latitude>23.198874</latitude>
    <longitude>39.55367</longitude>
  </city>
  <city name="Abu Diba`">
    <latitude>23.198874</latitude>
    <longitude>39.55367</longitude>
  </city>
  <city name="Abu Diha`">
    <latitude>23.198874</latitude>
    <longitude>39.55367</longitude>
  </city>
  <city name="Abu Duba`">
    <latitude>23.198874</latitude>
    <longitude>39.55367</longitude>
  </city>
  <city name="Abu Duda">
    <latitude>20.566667</latitude>
    <longitude>39.6</longitude>
  </city>
  <city name="Abu Dudah">
    <latitude>20.566667</latitude>
    <longitude>39.6</longitude>
  </city>
  <city name="Abu es Suadi">
    <latitude>19.45</latitude>
    <longitude>40.916667</longitude>
  </city>
  <city name="Abu Hadriya">
    <latitude>27.333333</latitude>
    <longitude>48.966667</longitude>
  </city>
  <city name="Abu Hadriya Camp">
    <latitude>27.333333</latitude>
    <longitude>48.966667</longitude>
  </city>
  <city name="Abu Hadriyah">
    <latitude>27.333333</latitude>
    <longitude>48.966667</longitude>
  </city>
  <city name="Abu Hajar A`la">
    <latitude>16.680925</latitude>
    <longitude>43.021126</longitude>
  </city>
  <city name="Abu Hajar al A`la">
    <latitude>16.680925</latitude>
    <longitude>43.021126</longitude>
  </city>
  <city name="Abu Hajar Ula">
    <latitude>16.682521</latitude>
    <longitude>43.055643</longitude>
  </city>
  <city name="Abu Hanash">
    <latitude>19.366667</latitude>
    <longitude>40.983333</longitude>
  </city>
  <city name="Abu Hanesh">
    <latitude>19.366667</latitude>
    <longitude>40.983333</longitude>
  </city>
  <city name="Abu Hasani">
    <latitude>21.730556</latitude>
    <longitude>39.783333</longitude>
  </city>
  <city name="Abu Hathrah">
    <latitude>17.916667</latitude>
    <longitude>43.383333</longitude>
  </city>
  <city name="Abu Hisani">
    <latitude>21.730556</latitude>
    <longitude>39.783333</longitude>
  </city>
  <city name="Abu `Irwah">
    <latitude>21.647778</latitude>
    <longitude>39.705556</longitude>
  </city>
  <city name="Abu Jassa">
    <latitude>25.866667</latitude>
    <longitude>44.216667</longitude>
  </city>
  <city name="Abu Jilal">
    <latitude>25.143952</latitude>
    <longitude>43.482521</longitude>
  </city>
  <city name="Abu Jissah">
    <latitude>25.866667</latitude>
    <longitude>44.216667</longitude>
  </city>
  <city name="Abu Jusaysah">
    <latitude>25.521774</latitude>
    <longitude>42.671132</longitude>
  </city>
  <city name="Abu Khusayfa'">
    <latitude>25.764784</latitude>
    <longitude>45.849252</longitude>
  </city>
  <city name="Abu Kirsh">
    <latitude>16.683333</latitude>
    <longitude>43.033333</longitude>
  </city>
  <city name="Abul Kabash">
    <latitude>24.817948</latitude>
    <longitude>46.474234</longitude>
  </city>
  <city name="Abu Makhruq">
    <latitude>24.783056</latitude>
    <longitude>46.635278</longitude>
  </city>
  <city name="Abu Maragh">
    <latitude>21.529512</latitude>
    <longitude>39.791099</longitude>
  </city>
  <city name="Abu Ma`raj">
    <latitude>17.203004</latitude>
    <longitude>42.915172</longitude>
  </city>
  <city name="Abu Ma`rij">
    <latitude>17.203004</latitude>
    <longitude>42.915172</longitude>
  </city>
  <city name="Abu Markha">
    <latitude>25.116667</latitude>
    <longitude>38.25</longitude>
  </city>
  <city name="Abu Markhah">
    <latitude>25.116667</latitude>
    <longitude>38.25</longitude>
  </city>
  <city name="Abu Marwa">
    <latitude>25.866667</latitude>
    <longitude>43.4</longitude>
  </city>
  <city name="Abu Marwah">
    <latitude>25.866667</latitude>
    <longitude>43.4</longitude>
  </city>
  <city name="Abumnura">
    <latitude>17.05</latitude>
    <longitude>42.883333</longitude>
  </city>
  <city name="Abu Nakhla">
    <latitude>24.983333</latitude>
    <longitude>44.716667</longitude>
  </city>
  <city name="Abu Nakhlah">
    <latitude>24.983333</latitude>
    <longitude>44.716667</longitude>
  </city>
  <city name="Abu Qa`ar">
    <latitude>28.384341</latitude>
    <longitude>45.957103</longitude>
  </city>
  <city name="Abu Qirfah">
    <latitude>21.772513</latitude>
    <longitude>39.679223</longitude>
  </city>
  <city name="Abu Radif">
    <latitude>16.618547</latitude>
    <longitude>43.131197</longitude>
  </city>
  <city name="Abu Rijum">
    <latitude>24.057316</latitude>
    <longitude>45.036145</longitude>
  </city>
  <city name="Abu Rubaiq">
    <latitude>23.728596</latitude>
    <longitude>39.75434</longitude>
  </city>
  <city name="Abu Rubayq">
    <latitude>23.728596</latitude>
    <longitude>39.75434</longitude>
  </city>
  <city name="Abu Rukab">
    <latitude>25.105726</latitude>
    <longitude>43.461992</longitude>
  </city>
  <city name="Abu Salama">
    <latitude>27.15</latitude>
    <longitude>35.783333</longitude>
  </city>
  <city name="Abu Salma">
    <latitude>27.15</latitude>
    <longitude>35.783333</longitude>
  </city>
  <city name="Abu Sawr">
    <latitude>29.032006</latitude>
    <longitude>44.422762</longitude>
  </city>
  <city name="Abu Sha`ib">
    <latitude>21.581341</latitude>
    <longitude>39.701447</longitude>
  </city>
  <city name="Abu Shaibana">
    <latitude>23.877029</latitude>
    <longitude>38.368889</longitude>
  </city>
  <city name="Abu Shaitana">
    <latitude>23.877029</latitude>
    <longitude>38.368889</longitude>
  </city>
  <city name="Abu Shauk">
    <latitude>20.016667</latitude>
    <longitude>42.6</longitude>
  </city>
  <city name="Abu Shawk">
    <latitude>20.016667</latitude>
    <longitude>42.6</longitude>
  </city>
  <city name="Abu Shaytanah">
    <latitude>23.877029</latitude>
    <longitude>38.368889</longitude>
  </city>
  <city name="Abu Sheitana">
    <latitude>23.877029</latitude>
    <longitude>38.368889</longitude>
  </city>
  <city name="Abu Shu`ayb">
    <latitude>21.581341</latitude>
    <longitude>39.701447</longitude>
  </city>
  <city name="Abu Sidayrah">
    <latitude>24.442778</latitude>
    <longitude>43.658056</longitude>
  </city>
  <city name="Abu Sulal">
    <latitude>22.633889</latitude>
    <longitude>41.3675</longitude>
  </city>
  <city name="Abu Talh">
    <latitude>25.426704</latitude>
    <longitude>42.8343</longitude>
  </city>
  <city name="Abu Tutah">
    <latitude>28.825872</latitude>
    <longitude>45.12515</longitude>
  </city>
  <city name="Abu `Urwah">
    <latitude>21.647778</latitude>
    <longitude>39.705556</longitude>
  </city>
  <city name="Abyar `Ali">
    <latitude>24.413283</latitude>
    <longitude>39.538306</longitude>
  </city>
  <city name="Ac-Chafe">
    <latitude>27.076955</latitude>
    <longitude>43.023196</longitude>
  </city>
  <city name="A`dabi">
    <latitude>17.233368</latitude>
    <longitude>42.941897</longitude>
  </city>
  <city name="Adaim">
    <latitude>26.183333</latitude>
    <longitude>44.0</longitude>
  </city>
  <city name="Adan">
    <latitude>25.852066</latitude>
    <longitude>44.226865</longitude>
  </city>
  <city name="Adaya">
    <latitude>17.165189</latitude>
    <longitude>42.550134</longitude>
  </city>
  <city name="Ad Da`abah">
    <latitude>20.25</latitude>
    <longitude>41.3</longitude>
  </city>
  <city name="Ad Dabbah">
    <latitude>25.993851</latitude>
    <longitude>44.136475</longitude>
  </city>
  <city name="Ad Dabbiyat al Janubiyat">
    <latitude>25.377127</latitude>
    <longitude>45.356365</longitude>
  </city>
  <city name="Ad Dabbiyat ash Shamaliyat">
    <latitude>25.411231</latitude>
    <longitude>45.324975</longitude>
  </city>
  <city name="Ad Dab`iyah">
    <latitude>24.098063</latitude>
    <longitude>47.171935</longitude>
  </city>
  <city name="Ad Dadiyah">
    <latitude>24.271389</latitude>
    <longitude>43.533333</longitude>
  </city>
  <city name="Ad Daff">
    <latitude>22.094503</latitude>
    <longitude>39.319371</longitude>
  </city>
  <city name="Ad Dafinah">
    <latitude>23.303562</latitude>
    <longitude>41.994897</longitude>
  </city>
  <city name="Ad Dafinan">
    <latitude>23.303562</latitude>
    <longitude>41.994897</longitude>
  </city>
  <city name="Ad Dagharir">
    <latitude>16.677648</latitude>
    <longitude>42.959213</longitude>
  </city>
  <city name="Ad Dahinah">
    <latitude>25.578728</latitude>
    <longitude>45.280929</longitude>
  </city>
  <city name="Ad Dahis">
    <latitude>18.057951</latitude>
    <longitude>42.990021</longitude>
  </city>
  <city name="Ad Dahlah">
    <latitude>25.930647</latitude>
    <longitude>43.671731</longitude>
  </city>
  <city name="Ad Dahw">
    <latitude>20.11195</latitude>
    <longitude>42.655341</longitude>
  </city>
  <city name="Ad Dahya'">
    <latitude>21.286667</latitude>
    <longitude>40.276667</longitude>
  </city>
  <city name="Ad Dakhilah">
    <latitude>25.624991</latitude>
    <longitude>45.570333</longitude>
  </city>
  <city name="Ad Dal`ah">
    <latitude>25.978727</latitude>
    <longitude>43.965196</longitude>
  </city>
  <city name="Ad Dalfa`ah">
    <latitude>26.320405</latitude>
    <longitude>43.675886</longitude>
  </city>
  <city name="Ad Dam">
    <latitude>20.468604</latitude>
    <longitude>44.78716</longitude>
  </city>
  <city name="Ad Dammam">
    <latitude>26.434417</latitude>
    <longitude>50.103263</longitude>
  </city>
  <city name="Ad Damthi">
    <latitude>25.381944</latitude>
    <longitude>44.461389</longitude>
  </city>
  <city name="Ad Darah">
    <latitude>27.002188</latitude>
    <longitude>41.447176</longitude>
  </city>
  <city name="Ad Dar al Bayda'">
    <latitude>24.562099</latitude>
    <longitude>46.763425</longitude>
  </city>
  <city name="Ad Dar as Sufla">
    <latitude>18.216667</latitude>
    <longitude>42.55</longitude>
  </city>
  <city name="Ad Darb">
    <latitude>18.028956</latitude>
    <longitude>43.120606</longitude>
  </city>
  <city name="Ad Dath">
    <latitude>25.579821</latitude>
    <longitude>43.15944</longitude>
  </city>
  <city name="Ad Dathir">
    <latitude>24.926764</latitude>
    <longitude>40.120063</longitude>
  </city>
  <city name="Ad Dawadami">
    <latitude>24.507719</latitude>
    <longitude>44.392367</longitude>
  </city>
  <city name="Ad Dawadimi">
    <latitude>24.507719</latitude>
    <longitude>44.392367</longitude>
  </city>
  <city name="Ad Dawh">
    <latitude>21.54978</latitude>
    <longitude>39.641518</longitude>
  </city>
  <city name="Ad Dawh al Kabir">
    <latitude>21.556276</latitude>
    <longitude>39.657903</longitude>
  </city>
  <city name="Ad Dawh as Saghir">
    <latitude>21.54978</latitude>
    <longitude>39.641518</longitude>
  </city>
  <city name="Ad Dawqah">
    <latitude>19.600942</latitude>
    <longitude>40.918492</longitude>
  </city>
  <city name="Ad Dhid">
    <latitude>18.05</latitude>
    <longitude>42.733333</longitude>
  </city>
  <city name="Ad Digayik">
    <latitude>19.26761</latitude>
    <longitude>42.074294</longitude>
  </city>
  <city name="Ad Dihalah">
    <latitude>25.401886</latitude>
    <longitude>43.408321</longitude>
  </city>
  <city name="Ad Dihasiyah">
    <latitude>21.435768</latitude>
    <longitude>40.532939</longitude>
  </city>
  <city name="Ad Dihwah">
    <latitude>24.181489</latitude>
    <longitude>45.886133</longitude>
  </city>
  <city name="Ad Dilam">
    <latitude>23.991459</latitude>
    <longitude>47.162655</longitude>
  </city>
  <city name="Ad Dilaymiyah">
    <latitude>26.029465</latitude>
    <longitude>43.276529</longitude>
  </city>
  <city name="Ad Dimasah">
    <latitude>26.424749</latitude>
    <longitude>42.214209</longitude>
  </city>
  <city name="Ad Dirah">
    <latitude>24.634444</latitude>
    <longitude>46.708056</longitude>
  </city>
  <city name="Ad Dir`iyah">
    <latitude>26.223494</latitude>
    <longitude>42.517913</longitude>
  </city>
  <city name="Ad Diriyah">
    <latitude>25.213016</latitude>
    <longitude>44.220632</longitude>
  </city>
  <city name="Ad Dirs">
    <latitude>21.761065</latitude>
    <longitude>39.876672</longitude>
  </city>
  <city name="Ad Du`abah">
    <latitude>20.25</latitude>
    <longitude>41.3</longitude>
  </city>
  <city name="Ad Dubay`ah">
    <latitude>24.098063</latitude>
    <longitude>47.171935</longitude>
  </city>
  <city name="Ad Dubayjah">
    <latitude>24.968672</latitude>
    <longitude>45.755396</longitude>
  </city>
  <city name="Ad Dubayyah">
    <latitude>22.424722</latitude>
    <longitude>39.446111</longitude>
  </city>
  <city name="Ad Dubbat">
    <latitude>24.670556</latitude>
    <longitude>46.723333</longitude>
  </city>
  <city name="Ad Dubiyah">
    <latitude>25.6</latitude>
    <longitude>45.766667</longitude>
  </city>
  <city name="Ad Duhu">
    <latitude>23.815925</latitude>
    <longitude>39.650145</longitude>
  </city>
  <city name="Ad Dulaymiyah">
    <latitude>26.029465</latitude>
    <longitude>43.276529</longitude>
  </city>
  <city name="Ad Dulu`">
    <latitude>24.768889</latitude>
    <longitude>39.540833</longitude>
  </city>
  <city name="Ad Dumayriyah">
    <latitude>23.988158</latitude>
    <longitude>40.369986</longitude>
  </city>
  <city name="Ad Duqah">
    <latitude>19.600942</latitude>
    <longitude>40.918492</longitude>
  </city>
  <city name="Ad Dur">
    <latitude>21.818635</latitude>
    <longitude>39.758802</longitude>
  </city>
  <city name="Ad Durayhamiyah">
    <latitude>24.588611</latitude>
    <longitude>46.693056</longitude>
  </city>
  <city name="Ad Duray`iyah">
    <latitude>16.584167</latitude>
    <longitude>42.843056</longitude>
  </city>
  <city name="Ad Dur`iyah">
    <latitude>16.584167</latitude>
    <longitude>42.843056</longitude>
  </city>
  <city name="Ad Duwadami">
    <latitude>24.507719</latitude>
    <longitude>44.392367</longitude>
  </city>
  <city name="Ad Duwayd">
    <latitude>30.227745</latitude>
    <longitude>42.330583</longitude>
  </city>
  <city name="Ad Duwayhirah">
    <latitude>26.206204</latitude>
    <longitude>44.313187</longitude>
  </city>
  <city name="A`dhabi">
    <latitude>17.233368</latitude>
    <longitude>42.941897</longitude>
  </city>
  <city name="Adhaim">
    <latitude>26.59045</latitude>
    <longitude>42.470893</longitude>
  </city>
  <city name="Adh Dhabiyah">
    <latitude>25.6</latitude>
    <longitude>45.766667</longitude>
  </city>
  <city name="Adh Dhagharir">
    <latitude>16.677648</latitude>
    <longitude>42.959213</longitude>
  </city>
  <city name="Adh Dhanbah">
    <latitude>17.879166</latitude>
    <longitude>42.570741</longitude>
  </city>
  <city name="Adh Dharma">
    <latitude>24.607049</latitude>
    <longitude>46.12611</longitude>
  </city>
  <city name="Adh Dhibah">
    <latitude>21.046111</latitude>
    <longitude>40.703333</longitude>
  </city>
  <city name="Adh Dhibiyah">
    <latitude>26.062009</latitude>
    <longitude>43.161887</longitude>
  </city>
  <city name="Adh Dhirwayin">
    <latitude>20.5</latitude>
    <longitude>45.583333</longitude>
  </city>
  <city name="`Adimah ash Shamran">
    <latitude>19.716667</latitude>
    <longitude>41.933333</longitude>
  </city>
  <city name="`Adimat ash Shumran">
    <latitude>19.716667</latitude>
    <longitude>41.933333</longitude>
  </city>
  <city name="`Afif">
    <latitude>23.906503</latitude>
    <longitude>42.91724</longitude>
  </city>
  <city name="Aftara">
    <latitude>24.568056</latitude>
    <longitude>44.052222</longitude>
  </city>
  <city name="Ahad al Masarihah">
    <latitude>16.709845</latitude>
    <longitude>42.955002</longitude>
  </city>
  <city name="Ahad Marrat">
    <latitude>18.184528</latitude>
    <longitude>42.560166</longitude>
  </city>
  <city name="Ahlab-ad-Dud">
    <latitude>27.025827</latitude>
    <longitude>44.073113</longitude>
  </city>
  <city name="Ahl al Ash`af">
    <latitude>17.863257</latitude>
    <longitude>43.377871</longitude>
  </city>
  <city name="Ahl Dhuwaiyan">
    <latitude>20.5</latitude>
    <longitude>45.583333</longitude>
  </city>
  <city name="Ahl Hanaish">
    <latitude>20.466667</latitude>
    <longitude>45.583333</longitude>
  </city>
  <city name="Ahl Hunaysh">
    <latitude>20.466667</latitude>
    <longitude>45.583333</longitude>
  </city>
  <city name="Ahl Muhammad">
    <latitude>20.483333</latitude>
    <longitude>45.6</longitude>
  </city>
  <city name="Ahl Sufran">
    <latitude>17.942206</latitude>
    <longitude>43.309743</longitude>
  </city>
  <city name="Ahl Zurqan">
    <latitude>17.962283</latitude>
    <longitude>43.36364</longitude>
  </city>
  <city name="`Ainah">
    <latitude>17.983333</latitude>
    <longitude>42.266667</longitude>
  </city>
  <city name="`Ain">
    <latitude>19.0</latitude>
    <longitude>42.883333</longitude>
  </city>
  <city name="Ainain">
    <latitude>27.011222</latitude>
    <longitude>49.658255</longitude>
  </city>
  <city name="Ainan">
    <latitude>27.011222</latitude>
    <longitude>49.658255</longitude>
  </city>
  <city name="Ain Dar">
    <latitude>25.946111</latitude>
    <longitude>49.424722</longitude>
  </city>
  <city name="Ain ibn Fuhaid">
    <latitude>26.774525</latitude>
    <longitude>44.210791</longitude>
  </city>
  <city name="Ain Lebdah">
    <latitude>23.6</latitude>
    <longitude>45.45</longitude>
  </city>
  <city name="Ain Rig">
    <latitude>29.08199</latitude>
    <longitude>46.638197</longitude>
  </city>
  <city name="`Ainuna">
    <latitude>28.094455</latitude>
    <longitude>35.20027</longitude>
  </city>
  <city name="`Ajaj">
    <latitude>24.168006</latitude>
    <longitude>46.439494</longitude>
  </city>
  <city name="Ajama">
    <latitude>19.033333</latitude>
    <longitude>41.883333</longitude>
  </city>
  <city name="Ajam">
    <latitude>26.563242</latitude>
    <longitude>49.943309</longitude>
  </city>
  <city name="`Ajam">
    <latitude>16.783996</latitude>
    <longitude>43.21782</longitude>
  </city>
  <city name="Ajam al Qatif">
    <latitude>26.563242</latitude>
    <longitude>49.943309</longitude>
  </city>
  <city name="`Ajibah">
    <latitude>19.683333</latitude>
    <longitude>41.95</longitude>
  </city>
  <city name="`Ajjah">
    <latitude>18.716074</latitude>
    <longitude>41.353881</longitude>
  </city>
  <city name="`Ajmiya">
    <latitude>24.216667</latitude>
    <longitude>38.5</longitude>
  </city>
  <city name="`Ajmiyah">
    <latitude>24.216667</latitude>
    <longitude>38.5</longitude>
  </city>
  <city name="`Ajnuna'">
    <latitude>28.094455</latitude>
    <longitude>35.20027</longitude>
  </city>
  <city name="Ajyad">
    <latitude>21.420278</latitude>
    <longitude>39.836667</longitude>
  </city>
  <city name="`Akar">
    <latitude>21.659518</latitude>
    <longitude>40.070754</longitude>
  </city>
  <city name="`Akaz">
    <latitude>20.583333</latitude>
    <longitude>40.966667</longitude>
  </city>
  <city name="Al `Aba">
    <latitude>26.747196</latitude>
    <longitude>49.766821</longitude>
  </city>
  <city name="Al `Ababid">
    <latitude>21.334318</latitude>
    <longitude>40.431994</longitude>
  </city>
  <city name="`Alabah">
    <latitude>18.2</latitude>
    <longitude>42.45</longitude>
  </city>
  <city name="Al Abar">
    <latitude>21.094687</latitude>
    <longitude>39.911417</longitude>
  </city>
  <city name="Al `Abbas">
    <latitude>18.666667</latitude>
    <longitude>42.416667</longitude>
  </city>
  <city name="Al `Abbasiyah">
    <latitude>24.474508</latitude>
    <longitude>45.482854</longitude>
  </city>
  <city name="Al `Abdaliyah">
    <latitude>25.910565</latitude>
    <longitude>43.667518</longitude>
  </city>
  <city name="Al `Abidiyah">
    <latitude>17.969576</latitude>
    <longitude>43.13968</longitude>
  </city>
  <city name="Al `Abis">
    <latitude>18.066995</latitude>
    <longitude>43.16065</longitude>
  </city>
  <city name="Al Abtiyat">
    <latitude>26.412222</latitude>
    <longitude>43.976111</longitude>
  </city>
  <city name="Al `Adamah">
    <latitude>26.439167</latitude>
    <longitude>50.1</longitude>
  </city>
  <city name="Al `Adan">
    <latitude>25.848611</latitude>
    <longitude>44.227778</longitude>
  </city>
  <city name="Al ad Dahis">
    <latitude>18.057951</latitude>
    <longitude>42.990021</longitude>
  </city>
  <city name="Al ad Daramah">
    <latitude>17.937564</latitude>
    <longitude>43.150793</longitude>
  </city>
  <city name="Al ad Duwayh">
    <latitude>18.1</latitude>
    <longitude>42.7</longitude>
  </city>
  <city name="Al `Adhabah">
    <latitude>18.089762</latitude>
    <longitude>42.990267</longitude>
  </city>
  <city name="Al `Adhar">
    <latitude>23.981777</latitude>
    <longitude>47.152743</longitude>
  </city>
  <city name="Al Adh'dhah">
    <latitude>18.089762</latitude>
    <longitude>42.990267</longitude>
  </city>
  <city name="Al `Adhiriyah">
    <latitude>27.039167</latitude>
    <longitude>47.038889</longitude>
  </city>
  <city name="Al `Adl">
    <latitude>21.443611</latitude>
    <longitude>39.856111</longitude>
  </city>
  <city name="Al `Afus">
    <latitude>20.066667</latitude>
    <longitude>41.366667</longitude>
  </city>
  <city name="Al Agrabiyak">
    <latitude>26.296667</latitude>
    <longitude>50.198611</longitude>
  </city>
  <city name="Al Ahad al Masarihah">
    <latitude>16.709845</latitude>
    <longitude>42.955002</longitude>
  </city>
  <city name="Al Ahmar">
    <latitude>22.440408</latitude>
    <longitude>46.190246</longitude>
  </city>
  <city name="Al `A'id">
    <latitude>18.15</latitude>
    <longitude>43.105689</longitude>
  </city>
  <city name="Al Ajam">
    <latitude>26.563242</latitude>
    <longitude>49.943309</longitude>
  </city>
  <city name="Al Ajfar">
    <latitude>27.473055</latitude>
    <longitude>42.991004</longitude>
  </city>
  <city name="Al Ajfur">
    <latitude>27.473055</latitude>
    <longitude>42.991004</longitude>
  </city>
  <city name="Al `Ajjabat">
    <latitude>25.251038</latitude>
    <longitude>44.466639</longitude>
  </city>
  <city name="Al `Ajrumiyah">
    <latitude>29.956944</latitude>
    <longitude>43.081488</longitude>
  </city>
  <city name="Al `Akarah">
    <latitude>16.557866</latitude>
    <longitude>42.94648</longitude>
  </city>
  <city name="Al-`Akejla">
    <latitude>31.331764</latitude>
    <longitude>37.342815</longitude>
  </city>
  <city name="Al Akhal">
    <latitude>23.312925</latitude>
    <longitude>39.857536</longitude>
  </city>
  <city name="Al Akhdar">
    <latitude>24.205146</latitude>
    <longitude>45.103144</longitude>
  </city>
  <city name="Al `Alawah">
    <latitude>24.677199</latitude>
    <longitude>46.017535</longitude>
  </city>
  <city name="Al `Alayyah">
    <latitude>19.619748</latitude>
    <longitude>41.971411</longitude>
  </city>
  <city name="Al `Allayyah">
    <latitude>19.619748</latitude>
    <longitude>41.971411</longitude>
  </city>
  <city name="Al `Alyan">
    <latitude>19.925556</latitude>
    <longitude>41.437778</longitude>
  </city>
  <city name="Al `Ama'ir">
    <latitude>19.416667</latitude>
    <longitude>42.816667</longitude>
  </city>
  <city name="Al `Amal">
    <latitude>24.644722</latitude>
    <longitude>46.720833</longitude>
  </city>
  <city name="Al Amarah">
    <latitude>18.122039</latitude>
    <longitude>42.974536</longitude>
  </city>
  <city name="Al `Amar">
    <latitude>23.833333</latitude>
    <longitude>45.083333</longitude>
  </city>
  <city name="Al `Amayir">
    <latitude>19.416667</latitude>
    <longitude>42.816667</longitude>
  </city>
  <city name="Al Amghar">
    <latitude>30.836984</latitude>
    <longitude>37.954281</longitude>
  </city>
  <city name="Al Amira">
    <latitude>20.1</latitude>
    <longitude>41.433333</longitude>
  </city>
  <city name="Al `Amirah">
    <latitude>20.1</latitude>
    <longitude>41.433333</longitude>
  </city>
  <city name="Al `Amir">
    <latitude>18.083333</latitude>
    <longitude>42.8</longitude>
  </city>
  <city name="Al Amiriyah">
    <latitude>24.6075</latitude>
    <longitude>43.590556</longitude>
  </city>
  <city name="Al Amlah">
    <latitude>21.16965</latitude>
    <longitude>42.715262</longitude>
  </city>
  <city name="Al `Ammaj">
    <latitude>24.440221</latitude>
    <longitude>46.978201</longitude>
  </city>
  <city name="Al `Ammariya">
    <latitude>24.803054</latitude>
    <longitude>46.422568</longitude>
  </city>
  <city name="Al `Ammariyah">
    <latitude>24.803054</latitude>
    <longitude>46.422568</longitude>
  </city>
  <city name="Al `Amrah">
    <latitude>18.122039</latitude>
    <longitude>42.974536</longitude>
  </city>
  <city name="Al `Amudah">
    <latitude>25.371219</latitude>
    <longitude>42.878939</longitude>
  </city>
  <city name="Al Andalus">
    <latitude>24.735833</latitude>
    <longitude>46.771111</longitude>
  </city>
  <city name="Al an Nanisah">
    <latitude>18.059375</latitude>
    <longitude>42.943478</longitude>
  </city>
  <city name="`Alaqan">
    <latitude>29.150267</latitude>
    <longitude>35.402163</longitude>
  </city>
  <city name="Al `Aqaylah">
    <latitude>31.331764</latitude>
    <longitude>37.342815</longitude>
  </city>
  <city name="Al `Aqiq">
    <latitude>24.759167</latitude>
    <longitude>46.615278</longitude>
  </city>
  <city name="Al `Aqir">
    <latitude>25.106502</latitude>
    <longitude>42.645031</longitude>
  </city>
  <city name="Al `Aqrabiya">
    <latitude>26.296667</latitude>
    <longitude>50.198611</longitude>
  </city>
  <city name="Al `Aqrabiyah">
    <latitude>26.296667</latitude>
    <longitude>50.198611</longitude>
  </city>
  <city name="Al `Arfajiyah">
    <latitude>28.037668</latitude>
    <longitude>42.319019</longitude>
  </city>
  <city name="Al`Aridah">
    <latitude>17.039352</latitude>
    <longitude>43.085903</longitude>
  </city>
  <city name="Al `Arin">
    <latitude>18.233333</latitude>
    <longitude>42.533333</longitude>
  </city>
  <city name="Al `Arine">
    <latitude>18.566099</latitude>
    <longitude>43.390339</longitude>
  </city>
  <city name="Al `Arja'">
    <latitude>18.716074</latitude>
    <longitude>41.353881</longitude>
  </city>
  <city name="Al Artawi">
    <latitude>25.378218</latitude>
    <longitude>44.495612</longitude>
  </city>
  <city name="Al Artawi ash Shamali">
    <latitude>26.631544</latitude>
    <longitude>42.691322</longitude>
  </city>
  <city name="Al Artawiyah">
    <latitude>26.505258</latitude>
    <longitude>45.344373</longitude>
  </city>
  <city name="Al Asamilah">
    <latitude>16.867778</latitude>
    <longitude>42.7575</longitude>
  </city>
  <city name="Al Asamir">
    <latitude>25.64364</latitude>
    <longitude>43.22614</longitude>
  </city>
  <city name="Al Ash`ariyah">
    <latitude>24.358417</latitude>
    <longitude>43.001342</longitude>
  </city>
  <city name="Al `Ashash">
    <latitude>21.7</latitude>
    <longitude>39.9</longitude>
  </city>
  <city name="Al `Ashayr">
    <latitude>19.333333</latitude>
    <longitude>42.05</longitude>
  </city>
  <city name="Al Ashraf">
    <latitude>21.513562</latitude>
    <longitude>39.62042</longitude>
  </city>
  <city name="Al Ashram">
    <latitude>18.262678</latitude>
    <longitude>42.573625</longitude>
  </city>
  <city name="Al ash Shaykh">
    <latitude>18.033333</latitude>
    <longitude>42.933333</longitude>
  </city>
  <city name="Al `Asibat">
    <latitude>24.852778</latitude>
    <longitude>39.378611</longitude>
  </city>
  <city name="Al `Assafiyah">
    <latitude>28.268695</latitude>
    <longitude>38.979144</longitude>
  </city>
  <city name="Al Assan">
    <latitude>18.25</latitude>
    <longitude>42.583333</longitude>
  </city>
  <city name="Al as Sawat">
    <latitude>18.116197</latitude>
    <longitude>42.971453</longitude>
  </city>
  <city name="Al Astral">
    <latitude>19.433333</latitude>
    <longitude>41.733333</longitude>
  </city>
  <city name="Al `Ataya">
    <latitude>17.165189</latitude>
    <longitude>42.550134</longitude>
  </city>
  <city name="Al `Ateefah">
    <latitude>19.333333</latitude>
    <longitude>42.05</longitude>
  </city>
  <city name="Al Athalah">
    <latitude>25.295918</latitude>
    <longitude>43.885346</longitude>
  </city>
  <city name="Al Athamah">
    <latitude>20.066667</latitude>
    <longitude>41.45</longitude>
  </city>
  <city name="Al Athlah">
    <latitude>25.295918</latitude>
    <longitude>43.885346</longitude>
  </city>
  <city name="Al at Tafilah">
    <latitude>17.983333</latitude>
    <longitude>43.116667</longitude>
  </city>
  <city name="Al `Attar">
    <latitude>25.56821</latitude>
    <longitude>45.638997</longitude>
  </city>
  <city name="Al at Tawil">
    <latitude>18.013458</latitude>
    <longitude>42.954411</longitude>
  </city>
  <city name="Al `Atyan">
    <latitude>23.472213</latitude>
    <longitude>46.829125</longitude>
  </city>
  <city name="Al `Awajiyah">
    <latitude>21.44769</latitude>
    <longitude>40.548422</longitude>
  </city>
  <city name="Al `Awali">
    <latitude>24.438117</latitude>
    <longitude>39.634915</longitude>
  </city>
  <city name="Al `Awamiyah">
    <latitude>26.593611</latitude>
    <longitude>49.9875</longitude>
  </city>
  <city name="Al `Awazim">
    <latitude>22.846134</latitude>
    <longitude>41.156913</longitude>
  </city>
  <city name="Al-`Awda">
    <latitude>25.551642</latitude>
    <longitude>45.6776</longitude>
  </city>
  <city name="Al `Awdah">
    <latitude>25.551642</latitude>
    <longitude>45.6776</longitude>
  </city>
  <city name="Al `Awd">
    <latitude>26.233333</latitude>
    <longitude>44.1</longitude>
  </city>
  <city name="Al Awjam">
    <latitude>26.563242</latitude>
    <longitude>49.943309</longitude>
  </city>
  <city name="Al Awqair">
    <latitude>25.644361</latitude>
    <longitude>50.214533</longitude>
  </city>
  <city name="Al Awqayr">
    <latitude>25.644361</latitude>
    <longitude>50.214533</longitude>
  </city>
  <city name="Al `Awran">
    <latitude>17.85</latitude>
    <longitude>43.4</longitude>
  </city>
  <city name="Al `Awsajiyah">
    <latitude>26.064166</latitude>
    <longitude>44.132192</longitude>
  </city>
  <city name="Al Awsat">
    <latitude>24.373056</latitude>
    <longitude>46.438333</longitude>
  </city>
  <city name="Al `Awshaziyah">
    <latitude>24.004817</latitude>
    <longitude>45.019001</longitude>
  </city>
  <city name="Al `Ayayyah">
    <latitude>19.619748</latitude>
    <longitude>41.971411</longitude>
  </city>
  <city name="Al `Aydah">
    <latitude>18.516667</latitude>
    <longitude>42.183333</longitude>
  </city>
  <city name="Al `Ayfah">
    <latitude>17.834222</latitude>
    <longitude>43.409485</longitude>
  </city>
  <city name="Al `Ayid">
    <latitude>18.15</latitude>
    <longitude>43.105689</longitude>
  </city>
  <city name="Al `Ayinah">
    <latitude>19.201667</latitude>
    <longitude>41.223611</longitude>
  </city>
  <city name="Al Ayish">
    <latitude>18.353447</latitude>
    <longitude>42.842965</longitude>
  </city>
  <city name="Al `Ayn">
    <latitude>22.891389</latitude>
    <longitude>40.583611</longitude>
  </city>
  <city name="Al `Ayn al Bayda'">
    <latitude>31.156798</latitude>
    <longitude>37.626176</longitude>
  </city>
  <city name="Al `Ays">
    <latitude>25.063488</latitude>
    <longitude>38.108743</longitude>
  </city>
  <city name="Al `Aysh">
    <latitude>18.353447</latitude>
    <longitude>42.842965</longitude>
  </city>
  <city name="Al `Aytaliyah">
    <latitude>26.565833</latitude>
    <longitude>47.070805</longitude>
  </city>
  <city name="Al `Azamiyah">
    <latitude>24.511944</latitude>
    <longitude>43.583056</longitude>
  </city>
  <city name="Al `Azazah">
    <latitude>18.133333</latitude>
    <longitude>42.65</longitude>
  </city>
  <city name="Al `Aziziyah">
    <latitude>26.178639</latitude>
    <longitude>50.201062</longitude>
  </city>
  <city name="Al Ba`a'ith">
    <latitude>26.025638</latitude>
    <longitude>41.804102</longitude>
  </city>
  <city name="`Alba'">
    <latitude>25.486515</latitude>
    <longitude>43.846027</longitude>
  </city>
  <city name="Al Ba`ayith">
    <latitude>26.025638</latitude>
    <longitude>41.804102</longitude>
  </city>
  <city name="Al Bada'i`">
    <latitude>27.445612</latitude>
    <longitude>42.981278</longitude>
  </city>
  <city name="Al Bada'i` al `Ulya">
    <latitude>25.961056</latitude>
    <longitude>43.697417</longitude>
  </city>
  <city name="Al Bada'i` al Wusta">
    <latitude>25.998346</latitude>
    <longitude>43.731181</longitude>
  </city>
  <city name="Al Bad`">
    <latitude>24.207468</latitude>
    <longitude>47.274824</longitude>
  </city>
  <city name="Al Bad` al Qadim">
    <latitude>24.188452</latitude>
    <longitude>47.267077</longitude>
  </city>
  <city name="Al Badawi">
    <latitude>16.633198</latitude>
    <longitude>42.864934</longitude>
  </city>
  <city name="Al Badi`ah">
    <latitude>24.476117</latitude>
    <longitude>46.405724</longitude>
  </city>
  <city name="Al Badi`">
    <latitude>22.021481</latitude>
    <longitude>46.567451</longitude>
  </city>
  <city name="Al Badi'">
    <latitude>23.007222</latitude>
    <longitude>44.136111</longitude>
  </city>
  <city name="Al Badiriyah">
    <latitude>22.921531</latitude>
    <longitude>41.637157</longitude>
  </city>
  <city name="Al Badiyah">
    <latitude>26.431667</latitude>
    <longitude>50.096111</longitude>
  </city>
  <city name="Al Badiyi`">
    <latitude>30.986126</latitude>
    <longitude>37.762527</longitude>
  </city>
  <city name="Al Badr">
    <latitude>21.3925</latitude>
    <longitude>39.840556</longitude>
  </city>
  <city name="Al Bahadah">
    <latitude>19.6</latitude>
    <longitude>41.966667</longitude>
  </city>
  <city name="Al Bahah">
    <latitude>20.012883</latitude>
    <longitude>41.467671</longitude>
  </city>
  <city name="Al Baharah">
    <latitude>22.941944</latitude>
    <longitude>41.669444</longitude>
  </city>
  <city name="Al Bahawal">
    <latitude>22.429444</latitude>
    <longitude>39.429444</longitude>
  </city>
  <city name="Al Ba`id">
    <latitude>17.05</latitude>
    <longitude>42.833333</longitude>
  </city>
  <city name="Al Ba`ja'">
    <latitude>25.198298</latitude>
    <longitude>42.224169</longitude>
  </city>
  <city name="Al Ba`jah">
    <latitude>25.198298</latitude>
    <longitude>42.224169</longitude>
  </city>
  <city name="Al Bakhra'">
    <latitude>24.166217</latitude>
    <longitude>46.187597</longitude>
  </city>
  <city name="Al Bakrah">
    <latitude>25.930043</latitude>
    <longitude>42.328448</longitude>
  </city>
  <city name="Al Balad">
    <latitude>21.487778</latitude>
    <longitude>39.193611</longitude>
  </city>
  <city name="Al Bani Thawr">
    <latitude>18.35</latitude>
    <longitude>42.833333</longitude>
  </city>
  <city name="Al Bani Thur">
    <latitude>18.35</latitude>
    <longitude>42.833333</longitude>
  </city>
  <city name="Al Baqaq">
    <latitude>19.866667</latitude>
    <longitude>41.616667</longitude>
  </city>
  <city name="Al Barabir">
    <latitude>21.520959</latitude>
    <longitude>39.632049</longitude>
  </city>
  <city name="Al Bardiyah">
    <latitude>24.045465</latitude>
    <longitude>39.602411</longitude>
  </city>
  <city name="Al Barik">
    <latitude>18.933836</latitude>
    <longitude>41.946215</longitude>
  </city>
  <city name="Al Barjasiyah">
    <latitude>26.206204</latitude>
    <longitude>44.313187</longitude>
  </city>
  <city name="Al Barkah">
    <latitude>19.866667</latitude>
    <longitude>41.583333</longitude>
  </city>
  <city name="Al Barrah">
    <latitude>24.916618</latitude>
    <longitude>45.865366</longitude>
  </city>
  <city name="Al Barraq">
    <latitude>19.40306</latitude>
    <longitude>41.79507</longitude>
  </city>
  <city name="Al Barraqiyah">
    <latitude>22.829385</latitude>
    <longitude>40.424152</longitude>
  </city>
  <city name="Al Barud">
    <latitude>26.879218</latitude>
    <longitude>44.158863</longitude>
  </city>
  <city name="Al Barzah">
    <latitude>21.979643</latitude>
    <longitude>39.681346</longitude>
  </city>
  <city name="Al Basam">
    <latitude>18.056783</latitude>
    <longitude>43.186396</longitude>
  </city>
  <city name="Al Basar">
    <latitude>26.2853</latitude>
    <longitude>43.869726</longitude>
  </city>
  <city name="Al Bashir">
    <latitude>20.035187</latitude>
    <longitude>41.462636</longitude>
  </city>
  <city name="Al Basirah">
    <latitude>23.316667</latitude>
    <longitude>39.616667</longitude>
  </city>
  <city name="Al Basiri">
    <latitude>25.197135</latitude>
    <longitude>42.302545</longitude>
  </city>
  <city name="Al Bathah">
    <latitude>18.066667</latitude>
    <longitude>42.8</longitude>
  </city>
  <city name="Al Batra'">
    <latitude>25.942222</latitude>
    <longitude>42.953611</longitude>
  </city>
  <city name="Al Battaliyah">
    <latitude>25.433333</latitude>
    <longitude>49.633333</longitude>
  </city>
  <city name="Al Bawathil">
    <latitude>24.487433</latitude>
    <longitude>46.359642</longitude>
  </city>
  <city name="Al Bayda`">
    <latitude>22.429885</latitude>
    <longitude>40.449386</longitude>
  </city>
  <city name="Al Bayda'">
    <latitude>30.024722</latitude>
    <longitude>40.171111</longitude>
  </city>
  <city name="Al Bazazah">
    <latitude>23.966667</latitude>
    <longitude>43.466667</longitude>
  </city>
  <city name="Al-Bed`">
    <latitude>28.474843</latitude>
    <longitude>35.014729</longitude>
  </city>
  <city name="Al Bi'ar">
    <latitude>22.65038</latitude>
    <longitude>39.672646</longitude>
  </city>
  <city name="Al Bida`">
    <latitude>28.474843</latitude>
    <longitude>35.014729</longitude>
  </city>
  <city name="Al Bid`">
    <latitude>26.272896</latitude>
    <longitude>42.353848</longitude>
  </city>
  <city name="Al Bidayyi`ah">
    <latitude>25.407912</latitude>
    <longitude>42.089124</longitude>
  </city>
  <city name="Al Bijadiyah">
    <latitude>24.2</latitude>
    <longitude>47.2</longitude>
  </city>
  <city name="Al Bikah">
    <latitude>20.966667</latitude>
    <longitude>39.816667</longitude>
  </city>
  <city name="Al Bilad al Wusta">
    <latitude>25.307178</latitude>
    <longitude>46.030604</longitude>
  </city>
  <city name="Al Biqa`">
    <latitude>24.388619</latitude>
    <longitude>38.598842</longitude>
  </city>
  <city name="Al Bir">
    <latitude>25.288458</latitude>
    <longitude>45.955797</longitude>
  </city>
  <city name="Al Bi'r">
    <latitude>28.86989</latitude>
    <longitude>36.25736</longitude>
  </city>
  <city name="Al Birk">
    <latitude>18.21631</latitude>
    <longitude>41.535933</longitude>
  </city>
  <city name="Al Biyadi">
    <latitude>27.107637</latitude>
    <longitude>42.199769</longitude>
  </city>
  <city name="Al Bu`aythiyah">
    <latitude>24.1168</latitude>
    <longitude>45.089938</longitude>
  </city>
  <city name="Al Buhrah">
    <latitude>17.283333</latitude>
    <longitude>43.166667</longitude>
  </city>
  <city name="Al Bujaydi">
    <latitude>21.478092</latitude>
    <longitude>40.11348</longitude>
  </city>
  <city name="Al Bukayriyah">
    <latitude>26.144216</latitude>
    <longitude>43.65933</longitude>
  </city>
  <city name="Al Buraik">
    <latitude>23.533333</latitude>
    <longitude>46.6</longitude>
  </city>
  <city name="Al Buraykah">
    <latitude>21.788195</latitude>
    <longitude>39.717486</longitude>
  </city>
  <city name="Al Burayk">
    <latitude>23.533333</latitude>
    <longitude>46.6</longitude>
  </city>
  <city name="Al Burud">
    <latitude>25.081293</latitude>
    <longitude>44.614681</longitude>
  </city>
  <city name="Al Bustan">
    <latitude>23.277923</latitude>
    <longitude>39.242996</longitude>
  </city>
  <city name="Al Butayn">
    <latitude>24.852222</latitude>
    <longitude>46.809722</longitude>
  </city>
  <city name="Al Butayniyat">
    <latitude>26.412222</latitude>
    <longitude>43.976111</longitude>
  </city>
  <city name="Al Butayra'">
    <latitude>26.412403</latitude>
    <longitude>45.33281</longitude>
  </city>
  <city name="Al Buwatah">
    <latitude>18.088001</latitude>
    <longitude>43.149562</longitude>
  </city>
  <city name="Al Buwaybiyah">
    <latitude>26.869786</latitude>
    <longitude>47.120247</longitude>
  </city>
  <city name="Al Buwayridah">
    <latitude>25.266667</latitude>
    <longitude>46.1</longitude>
  </city>
  <city name="Al Daff">
    <latitude>22.094503</latitude>
    <longitude>39.319371</longitude>
  </city>
  <city name="Al Dahrah">
    <latitude>17.866667</latitude>
    <longitude>43.383333</longitude>
  </city>
  <city name="Al Dalham">
    <latitude>18.046836</latitude>
    <longitude>42.953777</longitude>
  </city>
  <city name="Al-Dawadimi">
    <latitude>24.507719</latitude>
    <longitude>44.392367</longitude>
  </city>
  <city name="Al Dawdaf">
    <latitude>18.116667</latitude>
    <longitude>42.683333</longitude>
  </city>
  <city name="Al Dhuhrah">
    <latitude>18.021934</latitude>
    <longitude>42.979318</longitude>
  </city>
  <city name="Al Dibah">
    <latitude>18.1</latitude>
    <longitude>42.7</longitude>
  </city>
  <city name="Al-Dir`iyya">
    <latitude>24.741835</latitude>
    <longitude>46.572477</longitude>
  </city>
  <city name="Al Djufaydiriyya">
    <latitude>22.283333</latitude>
    <longitude>46.716667</longitude>
  </city>
  <city name="Al Duwayh">
    <latitude>23.710833</latitude>
    <longitude>44.855278</longitude>
  </city>
  <city name="Al `Erq">
    <latitude>19.233333</latitude>
    <longitude>42.116667</longitude>
  </city>
  <city name="Al Fadili">
    <latitude>26.980162</latitude>
    <longitude>49.174514</longitude>
  </city>
  <city name="Al Fahd">
    <latitude>18.659061</latitude>
    <longitude>42.439999</longitude>
  </city>
  <city name="Al Fa'ijah">
    <latitude>19.467778</latitude>
    <longitude>41.61</longitude>
  </city>
  <city name="Al Faisaliyah">
    <latitude>24.486473</latitude>
    <longitude>46.339053</longitude>
  </city>
  <city name="Al Fa'iziyah">
    <latitude>24.654959</latitude>
    <longitude>46.80268</longitude>
  </city>
  <city name="Al Fakhiriyah">
    <latitude>24.641389</latitude>
    <longitude>46.676944</longitude>
  </city>
  <city name="Al Fakhriyah">
    <latitude>24.641389</latitude>
    <longitude>46.676944</longitude>
  </city>
  <city name="Al Falah">
    <latitude>24.796389</latitude>
    <longitude>46.708889</longitude>
  </city>
  <city name="Al Falt">
    <latitude>18.233333</latitude>
    <longitude>42.55</longitude>
  </city>
  <city name="Al Fanatir">
    <latitude>27.158611</latitude>
    <longitude>49.556111</longitude>
  </city>
  <city name="Al Faqirah">
    <latitude>23.421667</latitude>
    <longitude>39.709722</longitude>
  </city>
  <city name="Al Fara`">
    <latitude>24.974363</latitude>
    <longitude>38.061903</longitude>
  </city>
  <city name="Al Far`ah">
    <latitude>23.810496</latitude>
    <longitude>38.876171</longitude>
  </city>
  <city name="Al Farah">
    <latitude>19.766667</latitude>
    <longitude>41.883333</longitude>
  </city>
  <city name="Al Far`ayn">
    <latitude>18.142584</latitude>
    <longitude>42.957292</longitude>
  </city>
  <city name="Al Farhan">
    <latitude>18.0</latitude>
    <longitude>43.133333</longitude>
  </city>
  <city name="Al Farhaniyah">
    <latitude>27.313496</latitude>
    <longitude>40.936315</longitude>
  </city>
  <city name="Al Far`iyah">
    <latitude>22.609852</latitude>
    <longitude>40.552866</longitude>
  </city>
  <city name="Al Farrash">
    <latitude>21.129167</latitude>
    <longitude>40.605556</longitude>
  </city>
  <city name="Al Farridah">
    <latitude>27.163152</latitude>
    <longitude>46.990458</longitude>
  </city>
  <city name="Al Farsah">
    <latitude>20.083333</latitude>
    <longitude>41.433333</longitude>
  </city>
  <city name="Al Farshah">
    <latitude>19.242546</latitude>
    <longitude>41.246705</longitude>
  </city>
  <city name="Al Faruq">
    <latitude>24.649444</latitude>
    <longitude>46.778611</longitude>
  </city>
  <city name="Al Faruthi">
    <latitude>25.774436</latitude>
    <longitude>45.162845</longitude>
  </city>
  <city name="Al Farwan">
    <latitude>18.116667</latitude>
    <longitude>42.666667</longitude>
  </city>
  <city name="Al Fasl">
    <latitude>27.032778</latitude>
    <longitude>49.487778</longitude>
  </city>
  <city name="Al Fatah">
    <latitude>21.216667</latitude>
    <longitude>40.516667</longitude>
  </city>
  <city name="Al Fatat">
    <latitude>21.216667</latitude>
    <longitude>40.516667</longitude>
  </city>
  <city name="Al Fatihah">
    <latitude>17.57805</latitude>
    <longitude>42.626685</longitude>
  </city>
  <city name="Al Fawwarah">
    <latitude>26.062778</latitude>
    <longitude>42.654167</longitude>
  </city>
  <city name="Al Fawwaz">
    <latitude>24.49</latitude>
    <longitude>46.618056</longitude>
  </city>
  <city name="Al Faydah">
    <latitude>24.391706</latitude>
    <longitude>45.336483</longitude>
  </city>
  <city name="Al Fayd">
    <latitude>21.571822</latitude>
    <longitude>39.675535</longitude>
  </city>
  <city name="Al Fayha'">
    <latitude>24.683333</latitude>
    <longitude>46.804444</longitude>
  </city>
  <city name="Al Fayijah">
    <latitude>19.467778</latitude>
    <longitude>41.61</longitude>
  </city>
  <city name="Al Faysaliyah">
    <latitude>26.388056</latitude>
    <longitude>50.075278</longitude>
  </city>
  <city name="Al Fayuah">
    <latitude>19.467778</latitude>
    <longitude>41.61</longitude>
  </city>
  <city name="Al Fazz">
    <latitude>21.981889</latitude>
    <longitude>39.526115</longitude>
  </city>
  <city name="Al Firqah">
    <latitude>21.396885</latitude>
    <longitude>39.423567</longitude>
  </city>
  <city name="Al Fiwan">
    <latitude>28.235361</latitude>
    <longitude>45.802712</longitude>
  </city>
  <city name="Al Fiyad">
    <latitude>30.605348</latitude>
    <longitude>38.099946</longitude>
  </city>
  <city name="Al-Fudhul">
    <latitude>25.366667</latitude>
    <longitude>49.683333</longitude>
  </city>
  <city name="Al Fudul">
    <latitude>25.366667</latitude>
    <longitude>49.683333</longitude>
  </city>
  <city name="Al Fukah">
    <latitude>19.85</latitude>
    <longitude>41.85</longitude>
  </city>
  <city name="Al Furay`">
    <latitude>22.620863</latitude>
    <longitude>40.560657</longitude>
  </city>
  <city name="Al Furaysh">
    <latitude>24.220795</latitude>
    <longitude>39.285525</longitude>
  </city>
  <city name="Al Furuthi">
    <latitude>25.774436</latitude>
    <longitude>45.162845</longitude>
  </city>
  <city name="Al Futah">
    <latitude>24.641389</latitude>
    <longitude>46.706944</longitude>
  </city>
  <city name="Al Fu'ur">
    <latitude>21.220936</latitude>
    <longitude>40.515585</longitude>
  </city>
  <city name="Al Fuwayliq">
    <latitude>24.365068</latitude>
    <longitude>45.329246</longitude>
  </city>
  <city name="Al Gaback">
    <latitude>19.283384</latitude>
    <longitude>42.098671</longitude>
  </city>
  <city name="Al Garrah">
    <latitude>19.266799</latitude>
    <longitude>42.087456</longitude>
  </city>
  <city name="Al Gattan">
    <latitude>19.2</latitude>
    <longitude>42.1</longitude>
  </city>
  <city name="Al-Getamijje">
    <latitude>27.677675</latitude>
    <longitude>41.725918</longitude>
  </city>
  <city name="Al-Gfejfe">
    <latitude>27.1</latitude>
    <longitude>41.266667</longitude>
  </city>
  <city name="Al Ghabib">
    <latitude>21.682877</latitude>
    <longitude>40.141894</longitude>
  </city>
  <city name="Al Ghabra'">
    <latitude>19.358551</latitude>
    <longitude>41.799981</longitude>
  </city>
  <city name="Al Ghadir">
    <latitude>24.774167</latitude>
    <longitude>46.655556</longitude>
  </city>
  <city name="Al Ghadya'">
    <latitude>25.568518</latitude>
    <longitude>42.713211</longitude>
  </city>
  <city name="Al Ghaf">
    <latitude>26.545</latitude>
    <longitude>43.761667</longitude>
  </city>
  <city name="Al Ghaff">
    <latitude>26.545</latitude>
    <longitude>43.761667</longitude>
  </city>
  <city name="Al Ghafiyah">
    <latitude>18.046492</latitude>
    <longitude>43.988144</longitude>
  </city>
  <city name="Al Ghamya'">
    <latitude>27.353058</latitude>
    <longitude>40.81543</longitude>
  </city>
  <city name="Al Ghanam">
    <latitude>21.595116</latitude>
    <longitude>39.803676</longitude>
  </city>
  <city name="Al Ghanamiyah">
    <latitude>24.479044</latitude>
    <longitude>46.807199</longitude>
  </city>
  <city name="Al Ghananim">
    <latitude>22.831388</latitude>
    <longitude>41.118857</longitude>
  </city>
  <city name="Al Ghanmiyah">
    <latitude>24.479044</latitude>
    <longitude>46.807199</longitude>
  </city>
  <city name="Al Ghar">
    <latitude>27.166969</latitude>
    <longitude>41.570259</longitude>
  </city>
  <city name="Al Gharif">
    <latitude>22.439444</latitude>
    <longitude>39.865278</longitude>
  </city>
  <city name="Al Gharith">
    <latitude>21.605</latitude>
    <longitude>41.878889</longitude>
  </city>
  <city name="Al Gharrah">
    <latitude>18.684228</latitude>
    <longitude>42.98198</longitude>
  </city>
  <city name="Al Ghassalah">
    <latitude>21.448056</latitude>
    <longitude>39.875</longitude>
  </city>
  <city name="Al Ghat">
    <latitude>26.545</latitude>
    <longitude>43.761667</longitude>
  </city>
  <city name="Al Ghaydaniyah">
    <latitude>25.196321</latitude>
    <longitude>43.637972</longitude>
  </city>
  <city name="Al Ghayl">
    <latitude>22.607597</latitude>
    <longitude>46.323426</longitude>
  </city>
  <city name="Al Ghaylanah">
    <latitude>25.410556</latitude>
    <longitude>47.2125</longitude>
  </city>
  <city name="Al Ghaylan">
    <latitude>18.064892</latitude>
    <longitude>42.956184</longitude>
  </city>
  <city name="Al Ghazalah">
    <latitude>26.788363</latitude>
    <longitude>41.321051</longitude>
  </city>
  <city name="Al Ghulah">
    <latitude>21.947691</latitude>
    <longitude>39.276822</longitude>
  </city>
  <city name="Al Ghumayyisah">
    <latitude>27.9</latitude>
    <longitude>42.683333</longitude>
  </city>
  <city name="Al Ghurabah">
    <latitude>25.463333</latitude>
    <longitude>45.002222</longitude>
  </city>
  <city name="Al Ghuraim">
    <latitude>25.483333</latitude>
    <longitude>49.6</longitude>
  </city>
  <city name="Al Ghurayri">
    <latitude>24.075833</latitude>
    <longitude>45.014722</longitude>
  </city>
  <city name="Al Ghutamiyah">
    <latitude>20.306121</latitude>
    <longitude>41.401294</longitude>
  </city>
  <city name="Al Ghutghut">
    <latitude>24.481111</latitude>
    <longitude>46.224167</longitude>
  </city>
  <city name="Al Ghuzayz">
    <latitude>24.670571</latitude>
    <longitude>45.841651</longitude>
  </city>
  <city name="Al Haba">
    <latitude>27.23483</latitude>
    <longitude>46.979616</longitude>
  </city>
  <city name="Al Habah">
    <latitude>27.23483</latitude>
    <longitude>46.979616</longitude>
  </city>
  <city name="Al Habashi">
    <latitude>20.05</latitude>
    <longitude>41.466667</longitude>
  </city>
  <city name="Al habil">
    <latitude>18.089207</latitude>
    <longitude>42.226975</longitude>
  </city>
  <city name="Al Hada">
    <latitude>24.657778</latitude>
    <longitude>46.659167</longitude>
  </city>
  <city name="Al Hadan">
    <latitude>19.161328</latitude>
    <longitude>41.173211</longitude>
  </city>
  <city name="Al Hadaqah">
    <latitude>28.464815</latitude>
    <longitude>44.338204</longitude>
  </city>
  <city name="Al Hadaq">
    <latitude>29.235541</latitude>
    <longitude>43.331867</longitude>
  </city>
  <city name="Al Hadba'">
    <latitude>18.595345</latitude>
    <longitude>43.208892</longitude>
  </city>
  <city name="Al Hadbah">
    <latitude>18.166667</latitude>
    <longitude>42.566667</longitude>
  </city>
  <city name="Al Haddadah">
    <latitude>17.608333</latitude>
    <longitude>43.7675</longitude>
  </city>
  <city name="Al Haddar">
    <latitude>21.983543</latitude>
    <longitude>45.95644</longitude>
  </city>
  <city name="Al Hadidah">
    <latitude>31.454449</latitude>
    <longitude>37.158921</longitude>
  </city>
  <city name="Al Hadidiyah">
    <latitude>26.902235</latitude>
    <longitude>43.35914</longitude>
  </city>
  <city name="Al hadilah">
    <latitude>18.053435</latitude>
    <longitude>42.819964</longitude>
  </city>
  <city name="Al-Hadita">
    <latitude>31.454449</latitude>
    <longitude>37.158921</longitude>
  </city>
  <city name="Al Hadithah">
    <latitude>31.454449</latitude>
    <longitude>37.158921</longitude>
  </city>
  <city name="Al Hadrur">
    <latitude>16.543699</latitude>
    <longitude>42.867105</longitude>
  </city>
  <city name="Al Hafah">
    <latitude>23.747222</latitude>
    <longitude>39.2925</longitude>
  </city>
  <city name="Al Hafar">
    <latitude>28.432791</latitude>
    <longitude>45.970766</longitude>
  </city>
  <city name="Al Hafayir">
    <latitude>22.311053</latitude>
    <longitude>40.602782</longitude>
  </city>
  <city name="Al Hafirah">
    <latitude>24.883551</latitude>
    <longitude>39.724241</longitude>
  </city>
  <city name="Al Hafnah">
    <latitude>19.348611</latitude>
    <longitude>41.809167</longitude>
  </city>
  <city name="Al Hafr">
    <latitude>24.405973</latitude>
    <longitude>39.154033</longitude>
  </city>
  <city name="Al Ha'ir">
    <latitude>24.405369</latitude>
    <longitude>46.8407</longitude>
  </city>
  <city name="Al Ha'it">
    <latitude>25.986085</latitude>
    <longitude>40.47214</longitude>
  </city>
  <city name="Al Haiyaniya">
    <latitude>28.703984</latitude>
    <longitude>42.312778</longitude>
  </city>
  <city name="Al Hajar">
    <latitude>22.75</latitude>
    <longitude>39.333333</longitude>
  </city>
  <city name="Al-Hajar">
    <latitude>26.806103</latitude>
    <longitude>37.955119</longitude>
  </city>
  <city name="Al-Hajjanijje">
    <latitude>28.703984</latitude>
    <longitude>42.312778</longitude>
  </city>
  <city name="Al Hajnawi">
    <latitude>25.936238</latitude>
    <longitude>43.636524</longitude>
  </city>
  <city name="Al Hajrah">
    <latitude>19.4</latitude>
    <longitude>41.883333</longitude>
  </city>
  <city name="Al Hajy">
    <latitude>18.55</latitude>
    <longitude>42.4</longitude>
  </city>
  <city name="Al Halaliyah">
    <latitude>26.122723</latitude>
    <longitude>43.677313</longitude>
  </city>
  <city name="Al Halami">
    <latitude>18.014332</latitude>
    <longitude>42.815428</longitude>
  </city>
  <city name="Al Halaqah">
    <latitude>21.349955</latitude>
    <longitude>40.441473</longitude>
  </city>
  <city name="Al Hamadah">
    <latitude>25.010806</latitude>
    <longitude>42.430793</longitude>
  </city>
  <city name="Al Hamar">
    <latitude>22.440408</latitude>
    <longitude>46.190246</longitude>
  </city>
  <city name="Al Hamdah">
    <latitude>20.116667</latitude>
    <longitude>41.45</longitude>
  </city>
  <city name="Al Hamd">
    <latitude>20.3</latitude>
    <longitude>41.333333</longitude>
  </city>
  <city name="Al Hamidah">
    <latitude>21.477393</latitude>
    <longitude>40.08896</longitude>
  </city>
  <city name="Al Hamimah">
    <latitude>21.509477</latitude>
    <longitude>39.632088</longitude>
  </city>
  <city name="Al Hamiriyah">
    <latitude>27.005074</latitude>
    <longitude>41.638229</longitude>
  </city>
  <city name="Al Hamjah">
    <latitude>25.495894</latitude>
    <longitude>43.068831</longitude>
  </city>
  <city name="Al Hamma">
    <latitude>20.067267</latitude>
    <longitude>42.610986</longitude>
  </city>
  <city name="Al Hammad">
    <latitude>24.034444</latitude>
    <longitude>40.495278</longitude>
  </city>
  <city name="Al Hammah">
    <latitude>20.067267</latitude>
    <longitude>42.610986</longitude>
  </city>
  <city name="Al Hamra'">
    <latitude>23.936768</latitude>
    <longitude>38.874378</longitude>
  </city>
  <city name="Al Hamr">
    <latitude>22.440408</latitude>
    <longitude>46.190246</longitude>
  </city>
  <city name="Al Hanakiya">
    <latitude>24.883746</latitude>
    <longitude>40.543953</longitude>
  </city>
  <city name="Al Hanakiyah">
    <latitude>24.883746</latitude>
    <longitude>40.543953</longitude>
  </city>
  <city name="Al Hanashah">
    <latitude>16.558056</latitude>
    <longitude>42.765278</longitude>
  </city>
  <city name="Al Hani">
    <latitude>24.966627</latitude>
    <longitude>48.754617</longitude>
  </city>
  <city name="Al Hanish">
    <latitude>20.466667</latitude>
    <longitude>45.583333</longitude>
  </city>
  <city name="Al Haql">
    <latitude>29.28627</latitude>
    <longitude>34.946871</longitude>
  </city>
  <city name="Al Haqu">
    <latitude>17.522023</latitude>
    <longitude>42.709569</longitude>
  </city>
  <city name="Al Haqw">
    <latitude>18.616667</latitude>
    <longitude>42.116667</longitude>
  </city>
  <city name="Al Harani">
    <latitude>16.774876</latitude>
    <longitude>42.909642</longitude>
  </city>
  <city name="Al Hararah">
    <latitude>24.023333</latitude>
    <longitude>44.883889</longitude>
  </city>
  <city name="Al Harasa">
    <latitude>17.983333</latitude>
    <longitude>43.133333</longitude>
  </city>
  <city name="Al Haras">
    <latitude>18.55</latitude>
    <longitude>42.416667</longitude>
  </city>
  <city name="Al Harayr">
    <latitude>18.233333</latitude>
    <longitude>42.783333</longitude>
  </city>
  <city name="Al Harf">
    <latitude>19.981783</latitude>
    <longitude>42.553678</longitude>
  </city>
  <city name="Al Harijan">
    <latitude>19.616667</latitude>
    <longitude>41.966667</longitude>
  </city>
  <city name="Al Hariq">
    <latitude>23.635461</latitude>
    <longitude>46.50638</longitude>
  </city>
  <city name="Al Harma">
    <latitude>25.925142</latitude>
    <longitude>45.333951</longitude>
  </city>
  <city name="Al Harmaliyah">
    <latitude>24.273105</latitude>
    <longitude>45.182589</longitude>
  </city>
  <city name="Al Harra'">
    <latitude>21.95339</latitude>
    <longitude>39.487649</longitude>
  </city>
  <city name="Al Hasamah">
    <latitude>16.683333</latitude>
    <longitude>42.926944</longitude>
  </city>
  <city name="Al Hasan">
    <latitude>20.3</latitude>
    <longitude>41.35</longitude>
  </city>
  <city name="Al Hasaniyah">
    <latitude>21.65</latitude>
    <longitude>39.683333</longitude>
  </city>
  <city name="Al Hasar">
    <latitude>20.3</latitude>
    <longitude>41.366667</longitude>
  </city>
  <city name="Al Hasasinah">
    <latitude>21.383407</latitude>
    <longitude>40.175849</longitude>
  </city>
  <city name="Al Hasat al Khaniqah">
    <latitude>18.369919</latitude>
    <longitude>43.554859</longitude>
  </city>
  <city name="Al Hasherij">
    <latitude>20.413426</latitude>
    <longitude>41.596232</longitude>
  </city>
  <city name="Al Hassi">
    <latitude>25.416876</latitude>
    <longitude>46.098112</longitude>
  </city>
  <city name="Al Hathirah">
    <latitude>16.431567</latitude>
    <longitude>42.93896</longitude>
  </city>
  <city name="Al Hati">
    <latitude>27.51432</latitude>
    <longitude>41.088437</longitude>
  </city>
  <city name="Al Hawatimah">
    <latitude>19.4</latitude>
    <longitude>40.95</longitude>
  </city>
  <city name="Al Hawiyah">
    <latitude>21.436833</latitude>
    <longitude>40.501981</longitude>
  </city>
  <city name="Al Hawja'">
    <latitude>28.97715</latitude>
    <longitude>38.564983</longitude>
  </city>
  <city name="Al Hawmah">
    <latitude>22.877778</latitude>
    <longitude>40.506944</longitude>
  </city>
  <city name="Al Hawrani">
    <latitude>16.774876</latitude>
    <longitude>42.909642</longitude>
  </city>
  <city name="Al Hawtah">
    <latitude>25.854791</latitude>
    <longitude>43.518272</longitude>
  </city>
  <city name="Al Hawt">
    <latitude>17.883333</latitude>
    <longitude>43.366667</longitude>
  </city>
  <city name="Al Hayathim">
    <latitude>24.164672</latitude>
    <longitude>47.238156</longitude>
  </city>
  <city name="Al Hayd">
    <latitude>24.853333</latitude>
    <longitude>43.641944</longitude>
  </city>
  <city name="Al Hayir">
    <latitude>25.790033</latitude>
    <longitude>45.388661</longitude>
  </city>
  <city name="Al Hayit">
    <latitude>25.986085</latitude>
    <longitude>40.47214</longitude>
  </city>
  <city name="Al Hayra">
    <latitude>27.695974</latitude>
    <longitude>46.623805</longitude>
  </city>
  <city name="Al Haysam">
    <latitude>18.016229</latitude>
    <longitude>42.962633</longitude>
  </city>
  <city name="Al Hayyaniyah">
    <latitude>28.703984</latitude>
    <longitude>42.312778</longitude>
  </city>
  <city name="Al Hazim">
    <latitude>24.133002</latitude>
    <longitude>47.155187</longitude>
  </city>
  <city name="Al Hazimi">
    <latitude>19.868251</latitude>
    <longitude>42.496912</longitude>
  </city>
  <city name="Al Hazm">
    <latitude>25.869559</latitude>
    <longitude>44.220187</longitude>
  </city>
  <city name="Al Hegr">
    <latitude>26.806103</latitude>
    <longitude>37.955119</longitude>
  </city>
  <city name="Al-Hfene">
    <latitude>26.583333</latitude>
    <longitude>41.6</longitude>
  </city>
  <city name="Al-Hfr">
    <latitude>27.656487</latitude>
    <longitude>41.291229</longitude>
  </city>
  <city name="Al Hidn">
    <latitude>19.161328</latitude>
    <longitude>41.173211</longitude>
  </city>
  <city name="Al Hifnah">
    <latitude>25.691895</latitude>
    <longitude>46.556555</longitude>
  </city>
  <city name="Al Hijanbah">
    <latitude>16.768574</latitude>
    <longitude>42.991931</longitude>
  </city>
  <city name="Al Hijfar">
    <latitude>16.54454</latitude>
    <longitude>42.847204</longitude>
  </city>
  <city name="Al Hijr">
    <latitude>26.806103</latitude>
    <longitude>37.955119</longitude>
  </city>
  <city name="Al Hijriyah">
    <latitude>23.810716</latitude>
    <longitude>40.292675</longitude>
  </city>
  <city name="Al Hijun">
    <latitude>21.444722</latitude>
    <longitude>39.815833</longitude>
  </city>
  <city name="Al Hilaliyah">
    <latitude>26.122723</latitude>
    <longitude>43.677313</longitude>
  </city>
  <city name="Al Hilla">
    <latitude>23.489454</latitude>
    <longitude>46.853024</longitude>
  </city>
  <city name="Al Hillah">
    <latitude>26.033333</latitude>
    <longitude>43.733333</longitude>
  </city>
  <city name="Al Hilwa">
    <latitude>23.450865</latitude>
    <longitude>46.806294</longitude>
  </city>
  <city name="Al Hilwah">
    <latitude>23.450865</latitude>
    <longitude>46.806294</longitude>
  </city>
  <city name="Al Himliyah">
    <latitude>26.192507</latitude>
    <longitude>42.916019</longitude>
  </city>
  <city name="Al Hinakiyah">
    <latitude>24.883746</latitude>
    <longitude>40.543953</longitude>
  </city>
  <city name="Al Hinayniyah">
    <latitude>25.514349</latitude>
    <longitude>42.960186</longitude>
  </city>
  <city name="Al Hindawiyah">
    <latitude>21.419167</latitude>
    <longitude>39.799167</longitude>
  </city>
  <city name="Al Hindiyah">
    <latitude>23.65807</latitude>
    <longitude>39.671798</longitude>
  </city>
  <city name="Al Hinnah">
    <latitude>26.945285</latitude>
    <longitude>48.770939</longitude>
  </city>
  <city name="Al Hishah">
    <latitude>25.845456</latitude>
    <longitude>44.189641</longitude>
  </city>
  <city name="Al Hisi">
    <latitude>25.416876</latitude>
    <longitude>46.098112</longitude>
  </city>
  <city name="Al Hisn al Adshfar">
    <latitude>18.2</latitude>
    <longitude>42.55</longitude>
  </city>
  <city name="Al Hisn al Ala">
    <latitude>18.2</latitude>
    <longitude>42.533333</longitude>
  </city>
  <city name="Al Hissu">
    <latitude>24.604918</latitude>
    <longitude>41.615824</longitude>
  </city>
  <city name="Al Hisun">
    <latitude>25.595831</latitude>
    <longitude>45.608129</longitude>
  </city>
  <city name="Al Hisyan">
    <latitude>25.333876</latitude>
    <longitude>46.023392</longitude>
  </city>
  <city name="Al Horm">
    <latitude>16.9</latitude>
    <longitude>42.716667</longitude>
  </city>
  <city name="Al-Hrajbe">
    <latitude>28.065031</latitude>
    <longitude>35.179776</longitude>
  </city>
  <city name="Al Hubayriyah">
    <latitude>26.280404</latitude>
    <longitude>42.432659</longitude>
  </city>
  <city name="Al Hudaylah">
    <latitude>18.082125</latitude>
    <longitude>42.803961</longitude>
  </city>
  <city name="Al Hufayr">
    <latitude>27.656487</latitude>
    <longitude>41.291229</longitude>
  </city>
  <city name="Al Hufayyirah">
    <latitude>24.448453</latitude>
    <longitude>44.709011</longitude>
  </city>
  <city name="Al Hufrah">
    <latitude>24.608889</latitude>
    <longitude>39.183056</longitude>
  </city>
  <city name="Al Hufuf">
    <latitude>25.364568</latitude>
    <longitude>49.565323</longitude>
  </city>
  <city name="Al-Hulailah">
    <latitude>25.433333</latitude>
    <longitude>49.666667</longitude>
  </city>
  <city name="Al Hulaylah">
    <latitude>25.433333</latitude>
    <longitude>49.666667</longitude>
  </city>
  <city name="Al Hulaysiyah">
    <latitude>26.584597</latitude>
    <longitude>48.672198</longitude>
  </city>
  <city name="Al Hulwah">
    <latitude>23.450865</latitude>
    <longitude>46.806294</longitude>
  </city>
  <city name="Al Humaidha">
    <latitude>29.234382</latitude>
    <longitude>34.935128</longitude>
  </city>
  <city name="Al Humaydah">
    <latitude>29.234382</latitude>
    <longitude>34.935128</longitude>
  </city>
  <city name="Al Humaymah">
    <latitude>25.616667</latitude>
    <longitude>43.033333</longitude>
  </city>
  <city name="Al Humayra'">
    <latitude>27.296389</latitude>
    <longitude>41.431944</longitude>
  </city>
  <city name="Al Humayzah">
    <latitude>29.234382</latitude>
    <longitude>34.935128</longitude>
  </city>
  <city name="Al Humil">
    <latitude>19.783333</latitude>
    <longitude>41.883333</longitude>
  </city>
  <city name="Al Hunayy">
    <latitude>24.966627</latitude>
    <longitude>48.754617</longitude>
  </city>
  <city name="Al Huraimala">
    <latitude>25.126158</latitude>
    <longitude>46.123774</longitude>
  </city>
  <city name="Al Huraiyiq">
    <latitude>25.447425</latitude>
    <longitude>45.401061</longitude>
  </city>
  <city name="Al Hurayq">
    <latitude>25.447425</latitude>
    <longitude>45.401061</longitude>
  </city>
  <city name="Al Hurayr">
    <latitude>27.87487</latitude>
    <longitude>41.80001</longitude>
  </city>
  <city name="Al Hurayyiq">
    <latitude>25.447425</latitude>
    <longitude>45.401061</longitude>
  </city>
  <city name="Al Hurm">
    <latitude>16.9</latitude>
    <longitude>42.716667</longitude>
  </city>
  <city name="Al Husayni">
    <latitude>17.158869</latitude>
    <longitude>42.699055</longitude>
  </city>
  <city name="Al Husayniyah">
    <latitude>21.3225</latitude>
    <longitude>39.879167</longitude>
  </city>
  <city name="Al Husayy">
    <latitude>27.106009</latitude>
    <longitude>48.52823</longitude>
  </city>
  <city name="Al Husn al Adshfar">
    <latitude>18.2</latitude>
    <longitude>42.55</longitude>
  </city>
  <city name="Al Husn al Ala">
    <latitude>18.2</latitude>
    <longitude>42.533333</longitude>
  </city>
  <city name="Al Husun">
    <latitude>25.595831</latitude>
    <longitude>45.608129</longitude>
  </city>
  <city name="Al Huwah">
    <latitude>23.033333</latitude>
    <longitude>45.8</longitude>
  </city>
  <city name="Al Huwaiyit">
    <latitude>25.638201</latitude>
    <longitude>40.395762</longitude>
  </city>
  <city name="Al Huwaydi">
    <latitude>27.025147</latitude>
    <longitude>41.316806</longitude>
  </city>
  <city name="Al Huwaymidah">
    <latitude>23.29425</latitude>
    <longitude>40.341569</longitude>
  </city>
  <city name="Al Huwayrah">
    <latitude>24.158974</latitude>
    <longitude>46.273761</longitude>
  </city>
  <city name="Al Huwayrrah">
    <latitude>24.158974</latitude>
    <longitude>46.273761</longitude>
  </city>
  <city name="Al Huwayyit">
    <latitude>25.638201</latitude>
    <longitude>40.395762</longitude>
  </city>
  <city name="Al Huwwah">
    <latitude>23.033333</latitude>
    <longitude>45.8</longitude>
  </city>
  <city name="`Ali Bin Zuhayr">
    <latitude>19.332344</latitude>
    <longitude>41.831276</longitude>
  </city>
  <city name="Al `Ididi">
    <latitude>27.04</latitude>
    <longitude>41.015323</longitude>
  </city>
  <city name="Al `Idwah">
    <latitude>24.24451</latitude>
    <longitude>45.932633</longitude>
  </city>
  <city name="Al Ifayhid">
    <latitude>25.688957</latitude>
    <longitude>42.350309</longitude>
  </city>
  <city name="`Ali Hamad">
    <latitude>18.007172</latitude>
    <longitude>43.528706</longitude>
  </city>
  <city name="`Ali Huwayl">
    <latitude>19.388056</latitude>
    <longitude>41.796389</longitude>
  </city>
  <city name="Al `Irfan">
    <latitude>18.620239</latitude>
    <longitude>43.206903</longitude>
  </city>
  <city name="Al `Irjayn">
    <latitude>16.441163</latitude>
    <longitude>42.867882</longitude>
  </city>
  <city name="Al `Irq">
    <latitude>19.233333</latitude>
    <longitude>42.116667</longitude>
  </city>
  <city name="Al Irtawiya">
    <latitude>26.505258</latitude>
    <longitude>45.344373</longitude>
  </city>
  <city name="Al `Isam">
    <latitude>24.774722</latitude>
    <longitude>43.695</longitude>
  </city>
  <city name="Al `Isawiyah">
    <latitude>30.716812</latitude>
    <longitude>37.977671</longitude>
  </city>
  <city name="Al `Ishash">
    <latitude>21.7</latitude>
    <longitude>39.9</longitude>
  </city>
  <city name="Al Ishay`il">
    <latitude>26.04689</latitude>
    <longitude>42.566884</longitude>
  </city>
  <city name="Al `Ishsh">
    <latitude>27.077927</latitude>
    <longitude>41.804221</longitude>
  </city>
  <city name="Al Iskan">
    <latitude>21.394167</latitude>
    <longitude>39.788333</longitude>
  </city>
  <city name="Alista">
    <latitude>18.0</latitude>
    <longitude>43.15</longitude>
  </city>
  <city name="`Aliya">
    <latitude>17.283333</latitude>
    <longitude>42.533333</longitude>
  </city>
  <city name="Al `Iyaynah">
    <latitude>21.030278</latitude>
    <longitude>40.774722</longitude>
  </city>
  <city name="Al Izdihar">
    <latitude>24.780278</latitude>
    <longitude>46.7175</longitude>
  </city>
  <city name="Al Jabiri">
    <latitude>16.840586</latitude>
    <longitude>43.184791</longitude>
  </city>
  <city name="Al Jabiriyah">
    <latitude>26.014715</latitude>
    <longitude>49.458293</longitude>
  </city>
  <city name="Al Jabriyah">
    <latitude>24.252352</latitude>
    <longitude>38.519999</longitude>
  </city>
  <city name="Al Jadi">
    <latitude>16.644915</latitude>
    <longitude>42.994837</longitude>
  </city>
  <city name="Al Jadidah">
    <latitude>25.68108</latitude>
    <longitude>49.514228</longitude>
  </city>
  <city name="Al Jadid">
    <latitude>22.433333</latitude>
    <longitude>41.75829</longitude>
  </city>
  <city name="Al Ja`diyah">
    <latitude>16.795371</latitude>
    <longitude>42.990481</longitude>
  </city>
  <city name="Al Jadyah">
    <latitude>20.05</latitude>
    <longitude>41.45</longitude>
  </city>
  <city name="Al Jafa">
    <latitude>17.769863</latitude>
    <longitude>43.917</longitude>
  </city>
  <city name="Al Jafr">
    <latitude>25.376944</latitude>
    <longitude>49.723611</longitude>
  </city>
  <city name="Al Jahu">
    <latitude>17.126141</latitude>
    <longitude>42.848497</longitude>
  </city>
  <city name="Al Ja`lah">
    <latitude>26.694749</latitude>
    <longitude>44.236622</longitude>
  </city>
  <city name="Al Jalamid">
    <latitude>31.282691</latitude>
    <longitude>40.103696</longitude>
  </city>
  <city name="Al Jami`ah">
    <latitude>21.471389</latitude>
    <longitude>39.245833</longitude>
  </city>
  <city name="Al Janadiriyah">
    <latitude>24.807103</latitude>
    <longitude>46.858191</longitude>
  </city>
  <city name="Al Janubiyah">
    <latitude>25.583611</latitude>
    <longitude>45.618333</longitude>
  </city>
  <city name="Al Jar`a'">
    <latitude>27.271514</latitude>
    <longitude>42.253031</longitude>
  </city>
  <city name="Al Jaradah">
    <latitude>18.140116</latitude>
    <longitude>43.126186</longitude>
  </city>
  <city name="Al Jarad">
    <latitude>18.980766</latitude>
    <longitude>41.425706</longitude>
  </city>
  <city name="Al Jaradiyah">
    <latitude>16.579463</latitude>
    <longitude>42.912404</longitude>
  </city>
  <city name="Al Jarawi">
    <latitude>30.121866</latitude>
    <longitude>38.811014</longitude>
  </city>
  <city name="Al Jardhawiyah">
    <latitude>25.386664</latitude>
    <longitude>42.730236</longitude>
  </city>
  <city name="Al Jariyah">
    <latitude>17.204036</latitude>
    <longitude>42.514256</longitude>
  </city>
  <city name="Al Jarradiyah">
    <latitude>24.613056</latitude>
    <longitude>46.696944</longitude>
  </city>
  <city name="Al Jawah">
    <latitude>16.95665</latitude>
    <longitude>43.029778</longitude>
  </city>
  <city name="Al Jawf">
    <latitude>18.226033</latitude>
    <longitude>43.183661</longitude>
  </city>
  <city name="Al Jawwah">
    <latitude>16.95665</latitude>
    <longitude>43.029778</longitude>
  </city>
  <city name="Al Jaww">
    <latitude>25.324867</latitude>
    <longitude>46.026758</longitude>
  </city>
  <city name="Al Jaz`ah">
    <latitude>24.566667</latitude>
    <longitude>46.75</longitude>
  </city>
  <city name="Al Jazi">
    <latitude>16.644915</latitude>
    <longitude>42.994837</longitude>
  </city>
  <city name="Al Jazirah">
    <latitude>24.666944</latitude>
    <longitude>46.796667</longitude>
  </city>
  <city name="Al Jid`">
    <latitude>21.936675</latitude>
    <longitude>39.578147</longitude>
  </city>
  <city name="Al Jifarah">
    <latitude>23.997454</latitude>
    <longitude>45.190487</longitude>
  </city>
  <city name="Al Jifayrat">
    <latitude>31.177318</latitude>
    <longitude>37.708046</longitude>
  </city>
  <city name="Al Jilf">
    <latitude>27.915278</latitude>
    <longitude>41.812222</longitude>
  </city>
  <city name="Al Jilh">
    <latitude>24.33817</latitude>
    <longitude>45.800059</longitude>
  </city>
  <city name="Al Jimah">
    <latitude>19.816667</latitude>
    <longitude>41.716667</longitude>
  </city>
  <city name="Al Jirbah">
    <latitude>16.926518</latitude>
    <longitude>42.886158</longitude>
  </city>
  <city name="Al Jirthamiyah">
    <latitude>21.192287</latitude>
    <longitude>42.716733</longitude>
  </city>
  <city name="Al Jishshah">
    <latitude>25.387592</latitude>
    <longitude>49.752528</longitude>
  </city>
  <city name="Al-Jishshan">
    <latitude>25.387592</latitude>
    <longitude>49.752528</longitude>
  </city>
  <city name="Al Jisimah">
    <latitude>20.3</latitude>
    <longitude>41.333333</longitude>
  </city>
  <city name="Al Jissah">
    <latitude>23.333041</latitude>
    <longitude>40.300361</longitude>
  </city>
  <city name="Al Jith">
    <latitude>20.1</latitude>
    <longitude>41.416667</longitude>
  </city>
  <city name="Al Jithamiyah">
    <latitude>27.677675</latitude>
    <longitude>41.725918</longitude>
  </city>
  <city name="Al Jithyathah">
    <latitude>27.715817</latitude>
    <longitude>42.628055</longitude>
  </city>
  <city name="Al Ju`aydah">
    <latitude>19.666667</latitude>
    <longitude>41.566667</longitude>
  </city>
  <city name="Al Jubaila">
    <latitude>24.894663</latitude>
    <longitude>46.445638</longitude>
  </city>
  <city name="Al-Jubail">
    <latitude>25.4</latitude>
    <longitude>49.65</longitude>
  </city>
  <city name="Al Jubaylah">
    <latitude>24.894663</latitude>
    <longitude>46.445638</longitude>
  </city>
  <city name="Al Jubayl">
    <latitude>25.4</latitude>
    <longitude>49.65</longitude>
  </city>
  <city name="Al Jubayl Industrial City">
    <latitude>27.048665</latitude>
    <longitude>49.561628</longitude>
  </city>
  <city name="Al Jubb">
    <latitude>27.183333</latitude>
    <longitude>42.283333</longitude>
  </city>
  <city name="Al Judaida">
    <latitude>31.328264</latitude>
    <longitude>41.443012</longitude>
  </city>
  <city name="Al Judaydah">
    <latitude>31.328264</latitude>
    <longitude>41.443012</longitude>
  </city>
  <city name="Al Judayyidah">
    <latitude>27.224817</latitude>
    <longitude>41.203935</longitude>
  </city>
  <city name="Al Judhamiyah">
    <latitude>27.677675</latitude>
    <longitude>41.725918</longitude>
  </city>
  <city name="Al Jufaifa">
    <latitude>27.1</latitude>
    <longitude>41.266667</longitude>
  </city>
  <city name="Al Jufaydiriyah">
    <latitude>22.283333</latitude>
    <longitude>46.716667</longitude>
  </city>
  <city name="Al Jufayfah">
    <latitude>27.1</latitude>
    <longitude>41.266667</longitude>
  </city>
  <city name="Al Jufayr">
    <latitude>24.02361</latitude>
    <longitude>46.293808</longitude>
  </city>
  <city name="Al Juhfah">
    <latitude>27.065665</latitude>
    <longitude>42.248637</longitude>
  </city>
  <city name="Al Juhu">
    <latitude>17.126141</latitude>
    <longitude>42.848497</longitude>
  </city>
  <city name="Al Jullab">
    <latitude>21.682454</latitude>
    <longitude>39.938275</longitude>
  </city>
  <city name="Al Jum`ah">
    <latitude>18.283333</latitude>
    <longitude>42.55</longitude>
  </city>
  <city name="Al Jumaymah">
    <latitude>29.580652</latitude>
    <longitude>43.609195</longitude>
  </city>
  <city name="Al Jummayzah">
    <latitude>21.441389</latitude>
    <longitude>39.834722</longitude>
  </city>
  <city name="Al Jumum">
    <latitude>21.616944</latitude>
    <longitude>39.698056</longitude>
  </city>
  <city name="Al Jumun">
    <latitude>21.616944</latitude>
    <longitude>39.698056</longitude>
  </city>
  <city name="Al Junayfah">
    <latitude>25.4</latitude>
    <longitude>44.5</longitude>
  </city>
  <city name="Al Junayfi">
    <latitude>25.574261</latitude>
    <longitude>45.643218</longitude>
  </city>
  <city name="Al Junaynah">
    <latitude>20.279548</latitude>
    <longitude>42.803915</longitude>
  </city>
  <city name="Al Junibah">
    <latitude>18.05</latitude>
    <longitude>42.733333</longitude>
  </city>
  <city name="Al Ju`ranah">
    <latitude>21.560523</latitude>
    <longitude>39.955511</longitude>
  </city>
  <city name="Al Jurayba'">
    <latitude>29.545833</latitude>
    <longitude>43.936111</longitude>
  </city>
  <city name="Al Jurayfah">
    <latitude>25.530227</latitude>
    <longitude>45.256817</longitude>
  </city>
  <city name="Al Juraysa">
    <latitude>19.8</latitude>
    <longitude>41.883333</longitude>
  </city>
  <city name="Al Juraysah">
    <latitude>19.8</latitude>
    <longitude>41.883333</longitude>
  </city>
  <city name="Al Jurayyir">
    <latitude>26.078614</latitude>
    <longitude>42.595229</longitude>
  </city>
  <city name="Al Jurdhawiyah">
    <latitude>25.386664</latitude>
    <longitude>42.730236</longitude>
  </city>
  <city name="Al Jussah">
    <latitude>23.333041</latitude>
    <longitude>40.300361</longitude>
  </city>
  <city name="Al Juwayfah">
    <latitude>22.616667</latitude>
    <longitude>45.883333</longitude>
  </city>
  <city name="Al Kabrit">
    <latitude>28.104722</latitude>
    <longitude>47.855556</longitude>
  </city>
  <city name="Al Kahafah">
    <latitude>27.378811</latitude>
    <longitude>48.335195</longitude>
  </city>
  <city name="Al Kahfah">
    <latitude>27.378811</latitude>
    <longitude>48.335195</longitude>
  </city>
  <city name="Al-Kahma">
    <latitude>18.004876</latitude>
    <longitude>41.677147</longitude>
  </city>
  <city name="Al Kamil">
    <latitude>22.260556</latitude>
    <longitude>39.796944</longitude>
  </city>
  <city name="Al Karbah">
    <latitude>19.374551</latitude>
    <longitude>41.795982</longitude>
  </city>
  <city name="Al Karbus">
    <latitude>16.873333</latitude>
    <longitude>42.631667</longitude>
  </city>
  <city name="Al-Kasab">
    <latitude>25.295891</latitude>
    <longitude>45.512755</longitude>
  </city>
  <city name="Al Kasib">
    <latitude>30.504083</latitude>
    <longitude>41.934284</longitude>
  </city>
  <city name="Al-Kasr">
    <latitude>27.331667</latitude>
    <longitude>41.459722</longitude>
  </city>
  <city name="Al Kawahilah">
    <latitude>16.961389</latitude>
    <longitude>42.6725</longitude>
  </city>
  <city name="Al Kayd">
    <latitude>24.853333</latitude>
    <longitude>43.641944</longitude>
  </city>
  <city name="Al-Kfr">
    <latitude>27.414122</latitude>
    <longitude>41.623085</longitude>
  </city>
  <city name="Al Khabbah">
    <latitude>27.434139</latitude>
    <longitude>40.901685</longitude>
  </city>
  <city name="Al Khabra'">
    <latitude>26.063593</latitude>
    <longitude>43.651082</longitude>
  </city>
  <city name="Al Khadra' al Janubiyah">
    <latitude>17.033333</latitude>
    <longitude>42.816667</longitude>
  </city>
  <city name="Al Khadra'">
    <latitude>21.467778</latitude>
    <longitude>39.904722</longitude>
  </city>
  <city name="Al Khadra' ash Shamaliyah">
    <latitude>17.055369</latitude>
    <longitude>42.808027</longitude>
  </city>
  <city name="Al Khadrah al Janubiyah">
    <latitude>17.033333</latitude>
    <longitude>42.816667</longitude>
  </city>
  <city name="Al Khadrah">
    <latitude>16.585751</latitude>
    <longitude>42.963278</longitude>
  </city>
  <city name="Al Khadrah ash Shamaliyah">
    <latitude>17.055369</latitude>
    <longitude>42.808027</longitude>
  </city>
  <city name="Al Khafaq al Jadid">
    <latitude>24.4247</latitude>
    <longitude>45.711122</longitude>
  </city>
  <city name="Al Khafaq al Qadim">
    <latitude>24.281461</latitude>
    <longitude>45.8322</longitude>
  </city>
  <city name="Al Khafji">
    <latitude>28.439048</latitude>
    <longitude>48.491322</longitude>
  </city>
  <city name="Al Khalaf">
    <latitude>17.95238</latitude>
    <longitude>43.127246</longitude>
  </city>
  <city name="Al Khala'iq al Gharbiyah">
    <latitude>24.520236</latitude>
    <longitude>45.597919</longitude>
  </city>
  <city name="Al Khala'iq ash Sharqiyah">
    <latitude>24.522658</latitude>
    <longitude>45.63749</longitude>
  </city>
  <city name="Al Khalas">
    <latitude>21.693159</latitude>
    <longitude>39.806648</longitude>
  </city>
  <city name="Al Khalf">
    <latitude>25.051753</latitude>
    <longitude>40.483771</longitude>
  </city>
  <city name="Al Khalidiyah">
    <latitude>24.622222</latitude>
    <longitude>46.759444</longitude>
  </city>
  <city name="Al Khalij">
    <latitude>24.771389</latitude>
    <longitude>46.799167</longitude>
  </city>
  <city name="Al Khamasin">
    <latitude>20.49234</latitude>
    <longitude>44.749032</longitude>
  </city>
  <city name="Al Khammasin">
    <latitude>20.49234</latitude>
    <longitude>44.749032</longitude>
  </city>
  <city name="Al Khamrah">
    <latitude>22.441667</latitude>
    <longitude>39.474167</longitude>
  </city>
  <city name="Al Khaniq">
    <latitude>17.725369</latitude>
    <longitude>43.761772</longitude>
  </city>
  <city name="Al Khansak">
    <latitude>21.427354</latitude>
    <longitude>39.856945</longitude>
  </city>
  <city name="Al Kharabah">
    <latitude>16.755914</latitude>
    <longitude>42.954679</longitude>
  </city>
  <city name="Al Kharadilah">
    <latitude>16.927222</latitude>
    <longitude>42.626389</longitude>
  </city>
  <city name="Al Kharayij">
    <latitude>23.455833</latitude>
    <longitude>44.341667</longitude>
  </city>
  <city name="Al Kharfa">
    <latitude>22.227813</latitude>
    <longitude>46.692618</longitude>
  </city>
  <city name="Al Kharfah">
    <latitude>22.227813</latitude>
    <longitude>46.692618</longitude>
  </city>
  <city name="Al Kharjah">
    <latitude>21.082778</latitude>
    <longitude>40.718889</longitude>
  </city>
  <city name="Al Kharj">
    <latitude>24.155023</latitude>
    <longitude>47.334601</longitude>
  </city>
  <city name="Al Kharkhayr">
    <latitude>19.25</latitude>
    <longitude>51.25</longitude>
  </city>
  <city name="Al Kharma' al Janubiyah">
    <latitude>25.572961</latitude>
    <longitude>44.096238</longitude>
  </city>
  <city name="Al Kharma'">
    <latitude>23.896858</latitude>
    <longitude>38.895275</longitude>
  </city>
  <city name="Al Kharma' ash Shamaliyah">
    <latitude>25.604399</latitude>
    <longitude>44.062585</longitude>
  </city>
  <city name="Al Khars">
    <latitude>25.43869</latitude>
    <longitude>49.580225</longitude>
  </city>
  <city name="Al Khasawiyah">
    <latitude>16.940278</latitude>
    <longitude>42.643056</longitude>
  </city>
  <city name="Al Khashabiyah">
    <latitude>16.940278</latitude>
    <longitude>42.643056</longitude>
  </city>
  <city name="Al Khasirah">
    <latitude>23.509983</latitude>
    <longitude>43.77148</longitude>
  </city>
  <city name="Al Khatayshiyah">
    <latitude>26.6175</latitude>
    <longitude>49.925833</longitude>
  </city>
  <city name="Al Khatilah">
    <latitude>25.491573</latitude>
    <longitude>46.187039</longitude>
  </city>
  <city name="Al Khawbah">
    <latitude>16.788709</latitude>
    <longitude>43.221858</longitude>
  </city>
  <city name="Al Khawjarah">
    <latitude>16.529259</latitude>
    <longitude>43.014153</longitude>
  </city>
  <city name="Al Khawsh">
    <latitude>18.982515</latitude>
    <longitude>41.882677</longitude>
  </city>
  <city name="Al Khawwari">
    <latitude>27.769718</latitude>
    <longitude>48.878445</longitude>
  </city>
  <city name="Al Khaydar">
    <latitude>21.476369</latitude>
    <longitude>40.637575</longitude>
  </city>
  <city name="Al Khayf">
    <latitude>21.690121</latitude>
    <longitude>39.736731</longitude>
  </city>
  <city name="Al Khayt">
    <latitude>27.133611</latitude>
    <longitude>42.003333</longitude>
  </city>
  <city name="Al Khis">
    <latitude>24.255801</latitude>
    <longitude>45.022803</longitude>
  </city>
  <city name="Al Khishaybi">
    <latitude>25.563755</latitude>
    <longitude>43.35372</longitude>
  </city>
  <city name="Al Khishl">
    <latitude>16.880056</latitude>
    <longitude>43.13726</longitude>
  </city>
  <city name="Al Khobar">
    <latitude>26.279444</latitude>
    <longitude>50.208333</longitude>
  </city>
  <city name="Al Khubah">
    <latitude>16.788709</latitude>
    <longitude>43.221858</longitude>
  </city>
  <city name="Al Khubara'">
    <latitude>17.670008</latitude>
    <longitude>42.632646</longitude>
  </city>
  <city name="Al Khubar">
    <latitude>26.279444</latitude>
    <longitude>50.208333</longitude>
  </city>
  <city name="Al Khubra">
    <latitude>27.016667</latitude>
    <longitude>48.4</longitude>
  </city>
  <city name="Al Khubrah">
    <latitude>27.016667</latitude>
    <longitude>48.4</longitude>
  </city>
  <city name="Al Khufayfah">
    <latitude>24.906627</latitude>
    <longitude>44.719962</longitude>
  </city>
  <city name="Al Khufayfiyah">
    <latitude>24.906627</latitude>
    <longitude>44.719962</longitude>
  </city>
  <city name="Al Khulafiyah">
    <latitude>23.627222</latitude>
    <longitude>44.799722</longitude>
  </city>
  <city name="Al Khulasah">
    <latitude>21.694995</latitude>
    <longitude>39.919004</longitude>
  </city>
  <city name="Al Khunayqiyah">
    <latitude>24.265065</latitude>
    <longitude>45.085775</longitude>
  </city>
  <city name="Al Khunn">
    <latitude>23.303753</latitude>
    <longitude>49.251196</longitude>
  </city>
  <city name="Al Khuraiba">
    <latitude>23.1</latitude>
    <longitude>39.083333</longitude>
  </city>
  <city name="Al Khuraybah">
    <latitude>28.065031</latitude>
    <longitude>35.179776</longitude>
  </city>
  <city name="Al Khuraymi">
    <latitude>27.514409</latitude>
    <longitude>41.749276</longitude>
  </city>
  <city name="Al Khuraysha'">
    <latitude>25.412238</latitude>
    <longitude>43.381943</longitude>
  </city>
  <city name="Al Khurmah">
    <latitude>21.91149</latitude>
    <longitude>42.030918</longitude>
  </city>
  <city name="Al Khushaybi">
    <latitude>25.563755</latitude>
    <longitude>43.35372</longitude>
  </city>
  <city name="Al Khutamah">
    <latitude>25.618169</latitude>
    <longitude>45.692792</longitude>
  </city>
  <city name="Al Khutaym">
    <latitude>25.617067</latitude>
    <longitude>42.542727</longitude>
  </city>
  <city name="Al Khuttah">
    <latitude>27.994057</latitude>
    <longitude>41.731876</longitude>
  </city>
  <city name="Al Khuwayjiah">
    <latitude>23.133333</latitude>
    <longitude>39.516667</longitude>
  </city>
  <city name="Al Khuwayjiyah">
    <latitude>23.133333</latitude>
    <longitude>39.516667</longitude>
  </city>
  <city name="Al Khuways">
    <latitude>25.593113</latitude>
    <longitude>49.581818</longitude>
  </city>
  <city name="Al Khuzama">
    <latitude>24.717778</latitude>
    <longitude>46.590556</longitude>
  </city>
  <city name="Al Kidadiyah">
    <latitude>25.960476</latitude>
    <longitude>49.49285</longitude>
  </city>
  <city name="Al Kidwah">
    <latitude>21.778763</latitude>
    <longitude>39.685007</longitude>
  </city>
  <city name="Al Kihafah">
    <latitude>27.076955</latitude>
    <longitude>43.023196</longitude>
  </city>
  <city name="Al Kihayfiyah">
    <latitude>27.199233</latitude>
    <longitude>42.987394</longitude>
  </city>
  <city name="Al Kilabiyah">
    <latitude>25.433246</latitude>
    <longitude>49.667464</longitude>
  </city>
  <city name="Al Kilabiyat">
    <latitude>25.433246</latitude>
    <longitude>49.667464</longitude>
  </city>
  <city name="Al-Kira`">
    <latitude>21.803889</latitude>
    <longitude>39.136667</longitude>
  </city>
  <city name="Al Kirs">
    <latitude>16.577269</latitude>
    <longitude>42.947602</longitude>
  </city>
  <city name="Al Kitimah">
    <latitude>23.80978</latitude>
    <longitude>39.643246</longitude>
  </city>
  <city name="Al-Ksejbe">
    <latitude>26.865177</latitude>
    <longitude>43.600048</longitude>
  </city>
  <city name="Al Kuds">
    <latitude>18.683333</latitude>
    <longitude>42.066667</longitude>
  </city>
  <city name="Al Kuhayfiyah">
    <latitude>27.199233</latitude>
    <longitude>42.987394</longitude>
  </city>
  <city name="Al Kulakhiyah">
    <latitude>21.318056</latitude>
    <longitude>40.804444</longitude>
  </city>
  <city name="Al Kulla">
    <latitude>18.683333</latitude>
    <longitude>42.383333</longitude>
  </city>
  <city name="Al Kumah">
    <latitude>19.8</latitude>
    <longitude>41.733333</longitude>
  </city>
  <city name="Al-Kunfudha">
    <latitude>19.126389</latitude>
    <longitude>41.078889</longitude>
  </city>
  <city name="Al Kura`">
    <latitude>21.803889</latitude>
    <longitude>39.136667</longitude>
  </city>
  <city name="Al Labbah">
    <latitude>21.038611</latitude>
    <longitude>40.71</longitude>
  </city>
  <city name="Al Laghfah">
    <latitude>24.467773</latitude>
    <longitude>45.834984</longitude>
  </city>
  <city name="Al Lahabah al Janubiyah">
    <latitude>27.239444</latitude>
    <longitude>46.979444</longitude>
  </city>
  <city name="Al Lahabah">
    <latitude>27.23483</latitude>
    <longitude>46.979616</longitude>
  </city>
  <city name="Al Lahabah ash Shamaliyah">
    <latitude>27.263056</latitude>
    <longitude>46.979167</longitude>
  </city>
  <city name="Al-Lakita">
    <latitude>27.655336</latitude>
    <longitude>41.680572</longitude>
  </city>
  <city name="Al Laqayit">
    <latitude>29.988471</latitude>
    <longitude>40.254041</longitude>
  </city>
  <city name="Al Laqitah">
    <latitude>27.655336</latitude>
    <longitude>41.680572</longitude>
  </city>
  <city name="Al Laqyah">
    <latitude>16.660663</latitude>
    <longitude>43.039906</longitude>
  </city>
  <city name="Al Lasafah">
    <latitude>21.372778</latitude>
    <longitude>40.137778</longitude>
  </city>
  <city name="Al Lidam">
    <latitude>20.468604</latitude>
    <longitude>44.78716</longitude>
  </city>
  <city name="Al Lihabah">
    <latitude>27.23483</latitude>
    <longitude>46.979616</longitude>
  </city>
  <city name="Al Liqa'">
    <latitude>26.338743</latitude>
    <longitude>44.78266</longitude>
  </city>
