<?xml version="1.0" encoding="UTF-8"?>
<country code="sd" name="Soudan">
  <city name="Abadai">
    <latitude>9.15</latitude>
    <longitude>28.45</longitude>
  </city>
  <city name="Abaiat">
    <latitude>10.3</latitude>
    <longitude>32.55</longitude>
  </city>
  <city name="Abaj">
    <latitude>10.05</latitude>
    <longitude>32.5666667</longitude>
  </city>
  <city name="Ab Ajaj">
    <latitude>17.3108333</latitude>
    <longitude>34.4836111</longitude>
  </city>
  <city name="Abaka">
    <latitude>14.3333333</latitude>
    <longitude>22.55</longitude>
  </city>
  <city name="Abalang">
    <latitude>12.6666667</latitude>
    <longitude>31.4</longitude>
  </city>
  <city name="Abalga">
    <latitude>13.5333333</latitude>
    <longitude>23.7833333</longitude>
  </city>
  <city name="Aballi">
    <latitude>9.2166667</latitude>
    <longitude>33.8333333</longitude>
  </city>
  <city name="Abang">
    <latitude>7.6297222</latitude>
    <longitude>28.0238889</longitude>
  </city>
  <city name="Abania">
    <latitude>11.0666667</latitude>
    <longitude>34.55</longitude>
  </city>
  <city name="Abar">
    <latitude>7.4866667</latitude>
    <longitude>28.8761111</longitude>
  </city>
  <city name="Abarau">
    <latitude>8.6833333</latitude>
    <longitude>26.1</longitude>
  </city>
  <city name="Abarnima">
    <latitude>9.7402778</latitude>
    <longitude>31.9366667</longitude>
  </city>
  <city name="Abarud">
    <latitude>8.9</latitude>
    <longitude>26.15</longitude>
  </city>
  <city name="`Abata">
    <latitude>13.1333333</latitude>
    <longitude>23.6333333</longitude>
  </city>
  <city name="Abatta">
    <latitude>19.5166667</latitude>
    <longitude>30.4833333</longitude>
  </city>
  <city name="Abauadala">
    <latitude>11.1333333</latitude>
    <longitude>34.5666667</longitude>
  </city>
  <city name="Abayat">
    <latitude>10.3</latitude>
    <longitude>32.55</longitude>
  </city>
  <city name="Abayath">
    <latitude>10.3</latitude>
    <longitude>32.55</longitude>
  </city>
  <city name="Abbas">
    <latitude>12.6</latitude>
    <longitude>30.7166667</longitude>
  </city>
  <city name="`Abbas `Abd Allah">
    <latitude>14.0333333</latitude>
    <longitude>33.3166667</longitude>
  </city>
  <city name="`Abbas `Abdullah">
    <latitude>14.0333333</latitude>
    <longitude>33.3166667</longitude>
  </city>
  <city name="Abbasiya">
    <latitude>13.1333333</latitude>
    <longitude>32.7666667</longitude>
  </city>
  <city name="`Abbasiya">
    <latitude>12.0166667</latitude>
    <longitude>27.9666667</longitude>
  </city>
  <city name="`Abbasiyah">
    <latitude>12.0166667</latitude>
    <longitude>27.9666667</longitude>
  </city>
  <city name="Abbassia Gedida">
    <latitude>13.1333333</latitude>
    <longitude>32.7666667</longitude>
  </city>
  <city name="Abbeit">
    <latitude>11.75</latitude>
    <longitude>32.8166667</longitude>
  </city>
  <city name="Abbogol">
    <latitude>11.1833333</latitude>
    <longitude>34.6333333</longitude>
  </city>
  <city name="Abbuda">
    <latitude>14.3333333</latitude>
    <longitude>35.8833333</longitude>
  </city>
  <city name="`Abbudah">
    <latitude>14.3333333</latitude>
    <longitude>35.8833333</longitude>
  </city>
  <city name="`Abd ad Da'im">
    <latitude>14.35</latitude>
    <longitude>33.45</longitude>
  </city>
  <city name="`Abd al Baqi">
    <latitude>13.6333333</latitude>
    <longitude>32.5166667</longitude>
  </city>
  <city name="`Abd al Fadil">
    <latitude>14.0833333</latitude>
    <longitude>33.7833333</longitude>
  </city>
  <city name="`Abd al Farraj">
    <latitude>10.2666667</latitude>
    <longitude>34.05</longitude>
  </city>
  <city name="`Abd al Ghaffar">
    <latitude>13.2833333</latitude>
    <longitude>32.7</longitude>
  </city>
  <city name="`Abd al Ghani">
    <latitude>14.2166667</latitude>
    <longitude>33.25</longitude>
  </city>
  <city name="`Abd al HafizÌ§">
    <latitude>14.35</latitude>
    <longitude>33.4166667</longitude>
  </city>
  <city name="`Abd al Jalil">
    <latitude>14.5333333</latitude>
    <longitude>33.35</longitude>
  </city>
  <city name="`Abd al Karim">
    <latitude>13.0666667</latitude>
    <longitude>33.8166667</longitude>
  </city>
  <city name="`Abd al Khayr">
    <latitude>13.7</latitude>
    <longitude>29.5</longitude>
  </city>
  <city name="`Abd Allah">
    <latitude>14.4833333</latitude>
    <longitude>33.6666667</longitude>
  </city>
  <city name="`Abd Allah `Ali">
    <latitude>13.8666667</latitude>
    <longitude>32.9166667</longitude>
  </city>
  <city name="`Abd Allah Bashir">
    <latitude>12.9833333</latitude>
    <longitude>24.5833333</longitude>
  </city>
  <city name="`Abd Allah Kahli">
    <latitude>14.9166667</latitude>
    <longitude>32.8166667</longitude>
  </city>
  <city name="`Abd Allah Kyango">
    <latitude>7.6208333</latitude>
    <longitude>27.7772222</longitude>
  </city>
  <city name="`Abd Allah Na'imah">
    <latitude>13.9166667</latitude>
    <longitude>32.8833333</longitude>
  </city>
  <city name="`Abd al Lait">
    <latitude>7.0833333</latitude>
    <longitude>26.0</longitude>
  </city>
  <city name="`Abd al Majid">
    <latitude>14.7666667</latitude>
    <longitude>32.7666667</longitude>
  </city>
  <city name="`Abd al Mawlá">
    <latitude>14.6666667</latitude>
    <longitude>32.5</longitude>
  </city>
  <city name="`Abd al Qadir">
    <latitude>8.6666667</latitude>
    <longitude>25.3</longitude>
  </city>
  <city name="Abdanab">
    <latitude>14.4666667</latitude>
    <longitude>32.9</longitude>
  </city>
  <city name="`Abd an Nab">
    <latitude>14.4666667</latitude>
    <longitude>32.9</longitude>
  </city>
  <city name="`Abd an Nur">
    <latitude>15.1</latitude>
    <longitude>32.6833333</longitude>
  </city>
  <city name="`Abd ar Rahman">
    <latitude>14.5666667</latitude>
    <longitude>33.25</longitude>
  </city>
  <city name="`Abd ar Rahman Subei">
    <latitude>14.4666667</latitude>
    <longitude>29.05</longitude>
  </city>
  <city name="`Abd ar Rasul">
    <latitude>14.2833333</latitude>
    <longitude>32.6</longitude>
  </city>
  <city name="`Abd ar Razzaq">
    <latitude>13.3333333</latitude>
    <longitude>34.75</longitude>
  </city>
  <city name="`Abd ar Rijal">
    <latitude>10.2166667</latitude>
    <longitude>33.2</longitude>
  </city>
  <city name="`Abd as Sadiq">
    <latitude>14.4333333</latitude>
    <longitude>32.5166667</longitude>
  </city>
  <city name="`Abd at Tam">
    <latitude>7.1488889</latitude>
    <longitude>28.5308333</longitude>
  </city>
  <city name="`Abd ed Daim">
    <latitude>14.35</latitude>
    <longitude>33.45</longitude>
  </city>
  <city name="`Abd el Bagi">
    <latitude>13.6333333</latitude>
    <longitude>32.5166667</longitude>
  </city>
  <city name="`Abd el Baqi">
    <latitude>14.2</latitude>
    <longitude>33.3666667</longitude>
  </city>
  <city name="`Abd el Fadil">
    <latitude>14.0833333</latitude>
    <longitude>33.7833333</longitude>
  </city>
  <city name="`Abd el Farrag">
    <latitude>10.2666667</latitude>
    <longitude>34.05</longitude>
  </city>
  <city name="`Abd el Galil">
    <latitude>14.5333333</latitude>
    <longitude>33.35</longitude>
  </city>
  <city name="`Abd el Ghaffar">
    <latitude>13.2833333</latitude>
    <longitude>32.7</longitude>
  </city>
  <city name="`Abd el Ghani">
    <latitude>14.2166667</latitude>
    <longitude>33.25</longitude>
  </city>
  <city name="`Abd el Hafiz">
    <latitude>14.35</latitude>
    <longitude>33.4166667</longitude>
  </city>
  <city name="`Abd el Karim">
    <latitude>13.0666667</latitude>
    <longitude>33.8166667</longitude>
  </city>
  <city name="`Abd el Kheir">
    <latitude>13.7</latitude>
    <longitude>29.5</longitude>
  </city>
  <city name="Abd el Lait">
    <latitude>7.0833333</latitude>
    <longitude>26.0</longitude>
  </city>
  <city name="`Abd el Magid">
    <latitude>14.7666667</latitude>
    <longitude>32.7666667</longitude>
  </city>
  <city name="`Abd el Mula">
    <latitude>14.6666667</latitude>
    <longitude>32.5</longitude>
  </city>
  <city name="`Abd el Qadir">
    <latitude>8.6666667</latitude>
    <longitude>25.3</longitude>
  </city>
  <city name="`Abd en Nab">
    <latitude>14.4666667</latitude>
    <longitude>32.9</longitude>
  </city>
  <city name="`Abd en Nur">
    <latitude>15.1</latitude>
    <longitude>32.6833333</longitude>
  </city>
  <city name="`Abd er Rahman">
    <latitude>14.5666667</latitude>
    <longitude>33.25</longitude>
  </city>
  <city name="`Abd er Rahman Subei">
    <latitude>14.4666667</latitude>
    <longitude>29.05</longitude>
  </city>
  <city name="`Abd er Rasul">
    <latitude>14.2833333</latitude>
    <longitude>32.6</longitude>
  </city>
  <city name="Abd er Razzaq">
    <latitude>13.3333333</latitude>
    <longitude>34.75</longitude>
  </city>
  <city name="`Abd er Rigal">
    <latitude>10.2166667</latitude>
    <longitude>33.2</longitude>
  </city>
  <city name="`Abd es Sadiq">
    <latitude>14.4333333</latitude>
    <longitude>32.5166667</longitude>
  </city>
  <city name="`Abd et Tam">
    <latitude>7.1488889</latitude>
    <longitude>28.5308333</longitude>
  </city>
  <city name="`Abdin">
    <latitude>13.3333333</latitude>
    <longitude>33.7166667</longitude>
  </city>
  <city name="`Abdotab">
    <latitude>16.7513889</latitude>
    <longitude>33.4419444</longitude>
  </city>
  <city name="Abdoullah">
    <latitude>13.5</latitude>
    <longitude>23.0333333</longitude>
  </city>
  <city name="Abdu Deiyata">
    <latitude>12.7</latitude>
    <longitude>22.4666667</longitude>
  </city>
  <city name="Abduilah Kyango">
    <latitude>7.6208333</latitude>
    <longitude>27.7772222</longitude>
  </city>
  <city name="Abdulla">
    <latitude>5.5691667</latitude>
    <longitude>29.7808333</longitude>
  </city>
  <city name="Abdullah">
    <latitude>11.0666667</latitude>
    <longitude>34.6666667</longitude>
  </city>
  <city name="`Abdullah">
    <latitude>14.4833333</latitude>
    <longitude>33.6666667</longitude>
  </city>
  <city name="`Abdullah `Ali">
    <latitude>13.8666667</latitude>
    <longitude>32.9166667</longitude>
  </city>
  <city name="`Abdullah Beshir">
    <latitude>12.9833333</latitude>
    <longitude>24.5833333</longitude>
  </city>
  <city name="`Abdullah Kahl">
    <latitude>14.9166667</latitude>
    <longitude>32.8166667</longitude>
  </city>
  <city name="Abdullah Kyango">
    <latitude>7.6208333</latitude>
    <longitude>27.7772222</longitude>
  </city>
  <city name="`Abdullah Naima">
    <latitude>13.9166667</latitude>
    <longitude>32.8833333</longitude>
  </city>
  <city name="Abdullah Qeissan">
    <latitude>11.0666667</latitude>
    <longitude>34.6666667</longitude>
  </city>
  <city name="Abdul Majid">
    <latitude>14.7666667</latitude>
    <longitude>32.7666667</longitude>
  </city>
  <city name="Abegi">
    <latitude>4.015</latitude>
    <longitude>30.5677778</longitude>
  </city>
  <city name="Abeif">
    <latitude>7.8613889</latitude>
    <longitude>28.4494444</longitude>
  </city>
  <city name="Abeikli">
    <latitude>14.3333333</latitude>
    <longitude>33.4666667</longitude>
  </city>
  <city name="Abeir">
    <latitude>6.8666667</latitude>
    <longitude>29.6166667</longitude>
  </city>
  <city name="Abeit">
    <latitude>7.8613889</latitude>
    <longitude>28.4494444</longitude>
  </city>
  <city name="Abeiya">
    <latitude>13.1833333</latitude>
    <longitude>31.1</longitude>
  </city>
  <city name="Abekr">
    <latitude>12.7166667</latitude>
    <longitude>28.9166667</longitude>
  </city>
  <city name="Abela">
    <latitude>11.4166667</latitude>
    <longitude>34.5833333</longitude>
  </city>
  <city name="Abelek">
    <latitude>7.3825</latitude>
    <longitude>28.7216667</longitude>
  </city>
  <city name="Abemnom">
    <latitude>9.3333333</latitude>
    <longitude>28.9166667</longitude>
  </city>
  <city name="Abeo">
    <latitude>7.9833333</latitude>
    <longitude>27.7833333</longitude>
  </city>
  <city name="Ab Gir">
    <latitude>11.7666667</latitude>
    <longitude>31.75</longitude>
  </city>
  <city name="Abguana">
    <latitude>9.6166667</latitude>
    <longitude>34.1166667</longitude>
  </city>
  <city name="Abi">
    <latitude>7.6502778</latitude>
    <longitude>28.7552778</longitude>
  </city>
  <city name="Abiagyai">
    <latitude>10.1166667</latitude>
    <longitude>32.2666667</longitude>
  </city>
  <city name="Abiangyai">
    <latitude>10.1166667</latitude>
    <longitude>32.2666667</longitude>
  </city>
  <city name="Abiayai">
    <latitude>10.1166667</latitude>
    <longitude>32.2666667</longitude>
  </city>
  <city name="`Abidin">
    <latitude>13.3333333</latitude>
    <longitude>33.7166667</longitude>
  </city>
  <city name="`Abidiya">
    <latitude>18.2333333</latitude>
    <longitude>33.95</longitude>
  </city>
  <city name="`Abidiyah">
    <latitude>18.2333333</latitude>
    <longitude>33.95</longitude>
  </city>
  <city name="Abiem">
    <latitude>6.5486111</latitude>
    <longitude>30.5130556</longitude>
  </city>
  <city name="Abiemnom">
    <latitude>9.3333333</latitude>
    <longitude>28.9166667</longitude>
  </city>
  <city name="Abiengyai">
    <latitude>10.1166667</latitude>
    <longitude>32.0833333</longitude>
  </city>
  <city name="Abiey">
    <latitude>8.6</latitude>
    <longitude>28.9666667</longitude>
  </city>
  <city name="Abi Karu">
    <latitude>12.2166667</latitude>
    <longitude>25.7</longitude>
  </city>
  <city name="Abi Rij">
    <latitude>6.9666667</latitude>
    <longitude>29.45</longitude>
  </city>
  <city name="Abiriu">
    <latitude>6.9666667</latitude>
    <longitude>29.45</longitude>
  </city>
  <city name="Abiyai">
    <latitude>7.1172222</latitude>
    <longitude>29.2844444</longitude>
  </city>
  <city name="Abiyei">
    <latitude>7.9</latitude>
    <longitude>29.25</longitude>
  </city>
  <city name="`Abka">
    <latitude>21.8333333</latitude>
    <longitude>31.1833333</longitude>
  </city>
  <city name="`Abka East">
    <latitude>21.8</latitude>
    <longitude>31.2333333</longitude>
  </city>
  <city name="`Abka West">
    <latitude>21.8333333</latitude>
    <longitude>31.1833333</longitude>
  </city>
  <city name="Ab Namel">
    <latitude>17.2861111</latitude>
    <longitude>34.4019444</longitude>
  </city>
  <city name="Abodit">
    <latitude>6.5963889</latitude>
    <longitude>31.4941667</longitude>
  </city>
  <city name="Abort">
    <latitude>8.8833333</latitude>
    <longitude>27.5833333</longitude>
  </city>
  <city name="Abota">
    <latitude>13.0833333</latitude>
    <longitude>22.1833333</longitude>
  </city>
  <city name="Aboti">
    <latitude>10.95</latitude>
    <longitude>25.6166667</longitude>
  </city>
  <city name="Ab Qedom">
    <latitude>16.4008333</latitude>
    <longitude>32.7761111</longitude>
  </city>
  <city name="Abraq">
    <latitude>14.3833333</latitude>
    <longitude>33.0166667</longitude>
  </city>
  <city name="`Abri">
    <latitude>20.8</latitude>
    <longitude>30.3333333</longitude>
  </city>
  <city name="`Abri West">
    <latitude>20.8166667</latitude>
    <longitude>30.3333333</longitude>
  </city>
  <city name="Ab Shambal">
    <latitude>16.3122222</latitude>
    <longitude>32.6891667</longitude>
  </city>
  <city name="Abu `Agag">
    <latitude>14.6333333</latitude>
    <longitude>32.2833333</longitude>
  </city>
  <city name="Abu `Agala">
    <latitude>14.05</latitude>
    <longitude>35.5</longitude>
  </city>
  <city name="Abu `Agub">
    <latitude>13.7666667</latitude>
    <longitude>29.3</longitude>
  </city>
  <city name="Abu `Ajaj">
    <latitude>14.6333333</latitude>
    <longitude>32.2833333</longitude>
  </city>
  <city name="Abu Ajala">
    <latitude>11.6</latitude>
    <longitude>24.6666667</longitude>
  </city>
  <city name="Abu Ajura">
    <latitude>11.6</latitude>
    <longitude>24.6666667</longitude>
  </city>
  <city name="Abu `Ajurah">
    <latitude>11.6</latitude>
    <longitude>24.6666667</longitude>
  </city>
  <city name="Abu al Fahl">
    <latitude>10.95</latitude>
    <longitude>25.4833333</longitude>
  </city>
  <city name="Abu al Hasan">
    <latitude>16.6166667</latitude>
    <longitude>33.25</longitude>
  </city>
  <city name="Abu al Khil">
    <latitude>17.1833333</latitude>
    <longitude>34.6833333</longitude>
  </city>
  <city name="Abu Amara">
    <latitude>15.35</latitude>
    <longitude>35.75</longitude>
  </city>
  <city name="Abu Ammar">
    <latitude>17.6180556</latitude>
    <longitude>34.14</longitude>
  </city>
  <city name="Abu Andud">
    <latitude>13.1166667</latitude>
    <longitude>32.6833333</longitude>
  </city>
  <city name="Abu `Aqla">
    <latitude>12.8</latitude>
    <longitude>34.1</longitude>
  </city>
  <city name="Abu `Araish">
    <latitude>13.45</latitude>
    <longitude>32.4</longitude>
  </city>
  <city name="Abu `Auga">
    <latitude>12.05</latitude>
    <longitude>31.05</longitude>
  </city>
  <city name="Abu `Aun">
    <latitude>14.15</latitude>
    <longitude>32.8</longitude>
  </city>
  <city name="Abu `Auwa">
    <latitude>13.2833333</latitude>
    <longitude>31.6</longitude>
  </city>
  <city name="Abu `Awja'">
    <latitude>12.05</latitude>
    <longitude>31.05</longitude>
  </city>
  <city name="Abu `Awn">
    <latitude>14.15</latitude>
    <longitude>32.8</longitude>
  </city>
  <city name="Abu `Awwa'">
    <latitude>13.2833333</latitude>
    <longitude>31.6</longitude>
  </city>
  <city name="Abu Babun">
    <latitude>13.3</latitude>
    <longitude>34.7333333</longitude>
  </city>
  <city name="Abu Baras">
    <latitude>10.8666667</latitude>
    <longitude>34.5166667</longitude>
  </city>
  <city name="Abu Cureis">
    <latitude>11.7333333</latitude>
    <longitude>31.6333333</longitude>
  </city>
  <city name="Abu Dab">
    <latitude>14.9</latitude>
    <longitude>33.45</longitude>
  </city>
  <city name="Abu Dabarah">
    <latitude>14.2666667</latitude>
    <longitude>33.3833333</longitude>
  </city>
  <city name="`Abud">
    <latitude>14.2333333</latitude>
    <longitude>33.1333333</longitude>
  </city>
  <city name="Abu Dangal">
    <latitude>12.35</latitude>
    <longitude>25.7166667</longitude>
  </city>
  <city name="Abu Daql">
    <latitude>12.7333333</latitude>
    <longitude>28.6833333</longitude>
  </city>
  <city name="Abu Daqn">
    <latitude>10.3</latitude>
    <longitude>33.3833333</longitude>
  </city>
  <city name="Abu Darisah">
    <latitude>14.3</latitude>
    <longitude>36.2666667</longitude>
  </city>
  <city name="Abu Dawaia">
    <latitude>11.5666667</latitude>
    <longitude>34.4333333</longitude>
  </city>
  <city name="Abu Dawaya">
    <latitude>11.5666667</latitude>
    <longitude>34.4333333</longitude>
  </city>
  <city name="Abu Dawayah">
    <latitude>11.5666667</latitude>
    <longitude>34.4333333</longitude>
  </city>
  <city name="Abu Dawm">
    <latitude>16.2813889</latitude>
    <longitude>32.6058333</longitude>
  </city>
  <city name="Abu Dawmah">
    <latitude>14.55</latitude>
    <longitude>33.7333333</longitude>
  </city>
  <city name="Abu Dawm Sannum">
    <latitude>18.4666667</latitude>
    <longitude>31.8</longitude>
  </city>
  <city name="Abu Dazza">
    <latitude>13.4833333</latitude>
    <longitude>27.6833333</longitude>
  </city>
  <city name="Abu Dazzah">
    <latitude>13.4833333</latitude>
    <longitude>27.6833333</longitude>
  </city>
  <city name="Abu Deiyata">
    <latitude>12.7</latitude>
    <longitude>22.4666667</longitude>
  </city>
  <city name="Abu Deleig">
    <latitude>15.9</latitude>
    <longitude>33.8166667</longitude>
  </city>
  <city name="Abu Deleiq">
    <latitude>15.9</latitude>
    <longitude>33.8166667</longitude>
  </city>
  <city name="Abu Delelq">
    <latitude>15.9</latitude>
    <longitude>33.8</longitude>
  </city>
  <city name="Abu Dellum al A`ma">
    <latitude>13.9</latitude>
    <longitude>30.2</longitude>
  </city>
  <city name="Abu Dereis">
    <latitude>15.2833333</latitude>
    <longitude>32.55</longitude>
  </city>
  <city name="Abu Derisa">
    <latitude>14.3</latitude>
    <longitude>36.2666667</longitude>
  </city>
  <city name="Abu Dhaqn">
    <latitude>14.4333333</latitude>
    <longitude>33.0333333</longitude>
  </city>
  <city name="Abu Dign">
    <latitude>14.4333333</latitude>
    <longitude>33.0333333</longitude>
  </city>
  <city name="Abu Dik">
    <latitude>12.8</latitude>
    <longitude>27.8666667</longitude>
  </city>
  <city name="Abu Diqn">
    <latitude>10.3</latitude>
    <longitude>33.3833333</longitude>
  </city>
  <city name="Abu Dis">
    <latitude>19.1333333</latitude>
    <longitude>33.5666667</longitude>
  </city>
  <city name="Abu Doma">
    <latitude>14.55</latitude>
    <longitude>33.7333333</longitude>
  </city>
  <city name="Abu Dom">
    <latitude>16.2813889</latitude>
    <longitude>32.6058333</longitude>
  </city>
  <city name="Abu Dom Sanam">
    <latitude>18.4666667</latitude>
    <longitude>31.8</longitude>
  </city>
  <city name="Abu Dom Sannum">
    <latitude>18.4666667</latitude>
    <longitude>31.8</longitude>
  </city>
  <city name="Abu Dubara">
    <latitude>14.2666667</latitude>
    <longitude>33.3833333</longitude>
  </city>
  <city name="Abu Dugur">
    <latitude>11.0</latitude>
    <longitude>34.95</longitude>
  </city>
  <city name="Abu Dulayq">
    <latitude>15.9</latitude>
    <longitude>33.8166667</longitude>
  </city>
  <city name="Abu Durays">
    <latitude>15.2833333</latitude>
    <longitude>32.55</longitude>
  </city>
  <city name="Abu el Fahl">
    <latitude>10.95</latitude>
    <longitude>25.4833333</longitude>
  </city>
  <city name="Abu el Hasan">
    <latitude>16.6166667</latitude>
    <longitude>33.25</longitude>
  </city>
  <city name="Abu el Khil">
    <latitude>17.1833333</latitude>
    <longitude>34.6833333</longitude>
  </city>
  <city name="Abu Fandok">
    <latitude>13.5</latitude>
    <longitude>28.75</longitude>
  </city>
  <city name="Abu Fatima">
    <latitude>19.6666667</latitude>
    <longitude>30.4166667</longitude>
  </city>
  <city name="Abu Fatimah">
    <latitude>19.6666667</latitude>
    <longitude>30.4166667</longitude>
  </city>
  <city name="Abu Fawaghi">
    <latitude>12.3</latitude>
    <longitude>28.1</longitude>
  </city>
  <city name="Abu Funduq">
    <latitude>13.5</latitude>
    <longitude>28.75</longitude>
  </city>
  <city name="Abu Ga`ab">
    <latitude>11.95</latitude>
    <longitude>25.8166667</longitude>
  </city>
  <city name="Abu Gabra">
    <latitude>11.0666667</latitude>
    <longitude>26.85</longitude>
  </city>
  <city name="Abu Galfa">
    <latitude>14.7166667</latitude>
    <longitude>33.4833333</longitude>
  </city>
  <city name="Abu Gallabiya">
    <latitude>10.95</latitude>
    <longitude>25.2</longitude>
  </city>
  <city name="Abu Gamal">
    <latitude>15.1666667</latitude>
    <longitude>36.4333333</longitude>
  </city>
  <city name="Abugé">
    <latitude>8.8833333</latitude>
    <longitude>25.7333333</longitude>
  </city>
  <city name="Abu-Gebeiha">
    <latitude>11.45</latitude>
    <longitude>31.2333333</longitude>
  </city>
  <city name="Abu Gedaf">
    <latitude>11.4833333</latitude>
    <longitude>34.8333333</longitude>
  </city>
  <city name="Abu Geili">
    <latitude>13.5833333</latitude>
    <longitude>33.6166667</longitude>
  </city>
  <city name="Abu Gelba">
    <latitude>13.1833333</latitude>
    <longitude>31.8666667</longitude>
  </city>
  <city name="Abu Gemai">
    <latitude>11.5166667</latitude>
    <longitude>34.5</longitude>
  </city>
  <city name="Abugga">
    <latitude>11.15</latitude>
    <longitude>34.5166667</longitude>
  </city>
  <city name="Abu Ghanim">
    <latitude>14.7166667</latitude>
    <longitude>32.3333333</longitude>
  </city>
  <city name="Abu Gheid">
    <latitude>11.75</latitude>
    <longitude>27.0833333</longitude>
  </city>
  <city name="Abu Gheneiwa">
    <latitude>14.6166667</latitude>
    <longitude>32.6166667</longitude>
  </city>
  <city name="Abu Ghunaywah">
    <latitude>14.6166667</latitude>
    <longitude>32.6166667</longitude>
  </city>
  <city name="Abu Gibeyah">
    <latitude>11.45</latitude>
    <longitude>31.2333333</longitude>
  </city>
  <city name="Abu Gi`eirin">
    <latitude>14.3166667</latitude>
    <longitude>33.1333333</longitude>
  </city>
  <city name="Abu Gileiha">
    <latitude>12.15</latitude>
    <longitude>26.9333333</longitude>
  </city>
  <city name="Abu Gimri">
    <latitude>13.85</latitude>
    <longitude>32.25</longitude>
  </city>
  <city name="Abu Gir">
    <latitude>11.9166667</latitude>
    <longitude>31.75</longitude>
  </city>
  <city name="Abu Giri">
    <latitude>15.0333333</latitude>
    <longitude>26.35</longitude>
  </city>
  <city name="Abu Gleiha">
    <latitude>12.15</latitude>
    <longitude>26.9333333</longitude>
  </city>
  <city name="Abu Gogi">
    <latitude>11.9333333</latitude>
    <longitude>31.6833333</longitude>
  </city>
  <city name="Abu Gubeiha">
    <latitude>11.45</latitude>
    <longitude>31.2333333</longitude>
  </city>
  <city name="Abu Gudul">
    <latitude>10.6166667</latitude>
    <longitude>25.05</longitude>
  </city>
  <city name="Abu Guja">
    <latitude>14.3</latitude>
    <longitude>22.5666667</longitude>
  </city>
  <city name="Abu Gureis">
    <latitude>11.7333333</latitude>
    <longitude>31.6333333</longitude>
  </city>
  <city name="Abu Gussi">
    <latitude>18.1333333</latitude>
    <longitude>30.7666667</longitude>
  </city>
  <city name="Abu Guta">
    <latitude>14.9333333</latitude>
    <longitude>32.7333333</longitude>
  </city>
  <city name="Abu Guya">
    <latitude>14.3</latitude>
    <longitude>22.5666667</longitude>
  </city>
  <city name="Abu Hadid as Subhani">
    <latitude>14.6</latitude>
    <longitude>30.15</longitude>
  </city>
  <city name="Abu Hagar">
    <latitude>18.75</latitude>
    <longitude>33.5833333</longitude>
  </city>
  <city name="Abu Hajar">
    <latitude>18.75</latitude>
    <longitude>33.5833333</longitude>
  </city>
  <city name="Abu Halaqim">
    <latitude>14.1166667</latitude>
    <longitude>32.45</longitude>
  </city>
  <city name="Abu Halima">
    <latitude>15.7833333</latitude>
    <longitude>32.5666667</longitude>
  </city>
  <city name="Abu Halimah">
    <latitude>15.7833333</latitude>
    <longitude>32.5666667</longitude>
  </city>
  <city name="Abu Hamad">
    <latitude>19.5333333</latitude>
    <longitude>33.3166667</longitude>
  </city>
  <city name="Abu Hamed">
    <latitude>19.5333333</latitude>
    <longitude>33.3166667</longitude>
  </city>
  <city name="Abu Hamira">
    <latitude>11.25</latitude>
    <longitude>31.1833333</longitude>
  </city>
  <city name="Abu Hamirah">
    <latitude>11.25</latitude>
    <longitude>31.1833333</longitude>
  </city>
  <city name="Abu Hamra'">
    <latitude>13.8166667</latitude>
    <longitude>32.1166667</longitude>
  </city>
  <city name="Abu Har">
    <latitude>13.55</latitude>
    <longitude>32.1</longitude>
  </city>
  <city name="Abu Haraz">
    <latitude>14.4833333</latitude>
    <longitude>33.5166667</longitude>
  </city>
  <city name="Abu Hashim">
    <latitude>11.95</latitude>
    <longitude>34.3333333</longitude>
  </city>
  <city name="Abu Hashish">
    <latitude>19.6216667</latitude>
    <longitude>37.2327778</longitude>
  </city>
  <city name="Abu Hauwa">
    <latitude>14.2166667</latitude>
    <longitude>32.6666667</longitude>
  </city>
  <city name="Abu Hawwa'">
    <latitude>14.2166667</latitude>
    <longitude>32.6666667</longitude>
  </city>
  <city name="Abu Hibeira">
    <latitude>14.0333333</latitude>
    <longitude>32.3833333</longitude>
  </city>
  <city name="Abu Higar">
    <latitude>12.8666667</latitude>
    <longitude>34.0</longitude>
  </city>
  <city name="Abu Hijar">
    <latitude>12.8666667</latitude>
    <longitude>34.0</longitude>
  </city>
  <city name="Abu Hindi">
    <latitude>13.7166667</latitude>
    <longitude>32.5</longitude>
  </city>
  <city name="Abu Hirab">
    <latitude>12.4666667</latitude>
    <longitude>34.25</longitude>
  </city>
  <city name="Abu Horira">
    <latitude>15.1833333</latitude>
    <longitude>33.5</longitude>
  </city>
  <city name="Abu Hugeir">
    <latitude>14.2833333</latitude>
    <longitude>33.3166667</longitude>
  </city>
  <city name="Abu Hujar">
    <latitude>12.8666667</latitude>
    <longitude>34.0</longitude>
  </city>
  <city name="Abu Hujayr">
    <latitude>14.2833333</latitude>
    <longitude>33.3166667</longitude>
  </city>
  <city name="Abu Humayrah">
    <latitude>13.05</latitude>
    <longitude>32.2666667</longitude>
  </city>
  <city name="Abu Humeira">
    <latitude>13.05</latitude>
    <longitude>32.2666667</longitude>
  </city>
  <city name="Abu Hurab">
    <latitude>12.4666667</latitude>
    <longitude>34.25</longitude>
  </city>
  <city name="Abui">
    <latitude>7.0236111</latitude>
    <longitude>29.6941667</longitude>
  </city>
  <city name="Abu `Irwa">
    <latitude>13.55</latitude>
    <longitude>35.8333333</longitude>
  </city>
  <city name="Abu Jabra">
    <latitude>11.0666667</latitude>
    <longitude>26.85</longitude>
  </city>
  <city name="Abu Jabrah">
    <latitude>11.0666667</latitude>
    <longitude>26.85</longitude>
  </city>
  <city name="Abuj">
    <latitude>10.05</latitude>
    <longitude>32.5666667</longitude>
  </city>
  <city name="Abu Jalfah">
    <latitude>14.7166667</latitude>
    <longitude>33.4833333</longitude>
  </city>
  <city name="Abu Jallabiyah">
    <latitude>10.95</latitude>
    <longitude>25.2</longitude>
  </city>
  <city name="Abu Jayli">
    <latitude>13.5833333</latitude>
    <longitude>33.6166667</longitude>
  </city>
  <city name="Abu Jibeha">
    <latitude>11.45</latitude>
    <longitude>31.2333333</longitude>
  </city>
  <city name="Abujon">
    <latitude>9.3555556</latitude>
    <longitude>31.5163889</longitude>
  </city>
  <city name="Abujop">
    <latitude>9.3683333</latitude>
    <longitude>31.4663889</longitude>
  </city>
  <city name="Abu Jubayhah">
    <latitude>11.45</latitude>
    <longitude>31.2333333</longitude>
  </city>
  <city name="Abu Jumayy">
    <latitude>11.5166667</latitude>
    <longitude>34.5</longitude>
  </city>
  <city name="Abu Kabisa">
    <latitude>13.1</latitude>
    <longitude>27.3333333</longitude>
  </city>
  <city name="Abu Karinka">
    <latitude>11.5833333</latitude>
    <longitude>26.5666667</longitude>
  </city>
  <city name="Abu Karish">
    <latitude>10.2</latitude>
    <longitude>33.9333333</longitude>
  </city>
  <city name="Abu Kartod">
    <latitude>11.6</latitude>
    <longitude>34.3833333</longitude>
  </city>
  <city name="Abu Kebeida">
    <latitude>18.1666667</latitude>
    <longitude>33.9333333</longitude>
  </city>
  <city name="Abu Kershola">
    <latitude>12.15</latitude>
    <longitude>30.8</longitude>
  </city>
  <city name="Abu Khadiga">
    <latitude>12.7</latitude>
    <longitude>34.15</longitude>
  </city>
  <city name="Abu Khadijah">
    <latitude>12.7</latitude>
    <longitude>34.15</longitude>
  </city>
  <city name="Abu Khamira">
    <latitude>10.4833333</latitude>
    <longitude>33.2166667</longitude>
  </city>
  <city name="Abu Khamirah">
    <latitude>10.4833333</latitude>
    <longitude>33.2166667</longitude>
  </city>
  <city name="Abu Khamsin">
    <latitude>14.55</latitude>
    <longitude>33.7166667</longitude>
  </city>
  <city name="Abu Khoreis">
    <latitude>13.2833333</latitude>
    <longitude>30.2166667</longitude>
  </city>
  <city name="Abu Khsos">
    <latitude>17.9433333</latitude>
    <longitude>33.96</longitude>
  </city>
  <city name="Abu Khudeira">
    <latitude>13.5666667</latitude>
    <longitude>32.3166667</longitude>
  </city>
  <city name="Abu Khureis">
    <latitude>13.2833333</latitude>
    <longitude>30.2166667</longitude>
  </city>
  <city name="Abu Kirsh">
    <latitude>8.1833333</latitude>
    <longitude>27.45</longitude>
  </city>
  <city name="Abu Kolo">
    <latitude>14.2666667</latitude>
    <longitude>36.2166667</longitude>
  </city>
  <city name="Abu Koto">
    <latitude>14.2666667</latitude>
    <longitude>36.2166667</longitude>
  </city>
  <city name="Abu Ku`">
    <latitude>14.05</latitude>
    <longitude>25.9333333</longitude>
  </city>
  <city name="Abu Kuk">
    <latitude>12.1333333</latitude>
    <longitude>34.3</longitude>
  </city>
  <city name="Abu Kulaywat">
    <latitude>17.9666667</latitude>
    <longitude>31.1666667</longitude>
  </city>
  <city name="Abu Kuleiwat">
    <latitude>17.9666667</latitude>
    <longitude>31.1666667</longitude>
  </city>
  <city name="Abu Kunaysh">
    <latitude>10.9833333</latitude>
    <longitude>26.6</longitude>
  </city>
  <city name="Abu Kuneish">
    <latitude>10.9833333</latitude>
    <longitude>26.6</longitude>
  </city>
  <city name="Abû Kussi">
    <latitude>18.1333333</latitude>
    <longitude>30.7666667</longitude>
  </city>
  <city name="Abu Kutni">
    <latitude>15.0166667</latitude>
    <longitude>22.8166667</longitude>
  </city>
  <city name="Abu Lamis">
    <latitude>13.1166667</latitude>
    <longitude>31.3333333</longitude>
  </city>
  <city name="Abulu">
    <latitude>7.7333333</latitude>
    <longitude>26.7333333</longitude>
  </city>
  <city name="Abu Luk">
    <latitude>13.2166667</latitude>
    <longitude>22.45</longitude>
  </city>
  <city name="Abu Mareiqa al Haggar">
    <latitude>12.7666667</latitude>
    <longitude>28.55</longitude>
  </city>
  <city name="Abu Matariq">
    <latitude>10.9666667</latitude>
    <longitude>26.2833333</longitude>
  </city>
  <city name="Abu Matirik">
    <latitude>10.9666667</latitude>
    <longitude>26.2833333</longitude>
  </city>
  <city name="Abu Maugud">
    <latitude>10.2166667</latitude>
    <longitude>33.9833333</longitude>
  </city>
  <city name="Abu Merafib">
    <latitude>11.2833333</latitude>
    <longitude>31.1</longitude>
  </city>
  <city name="Abu Mina">
    <latitude>13.05</latitude>
    <longitude>21.9833333</longitude>
  </city>
  <city name="Abu Muqud">
    <latitude>10.2166667</latitude>
    <longitude>33.9833333</longitude>
  </city>
  <city name="Abu Na`ama">
    <latitude>12.7333333</latitude>
    <longitude>34.1333333</longitude>
  </city>
  <city name="Abu Na`amah">
    <latitude>12.7333333</latitude>
    <longitude>34.1333333</longitude>
  </city>
  <city name="Abungo">
    <latitude>7.6830556</latitude>
    <longitude>27.9188889</longitude>
  </city>
  <city name="Abungoro">
    <latitude>9.9666667</latitude>
    <longitude>34.1</longitude>
  </city>
  <city name="Abu Nuwara">
    <latitude>11.25</latitude>
    <longitude>31.5166667</longitude>
  </city>
  <city name="Abu Nuweira">
    <latitude>11.25</latitude>
    <longitude>31.5166667</longitude>
  </city>
  <city name="Abu Nuwwarah">
    <latitude>11.25</latitude>
    <longitude>31.5166667</longitude>
  </city>
  <city name="Abu Nyanya">
    <latitude>12.55</latitude>
    <longitude>25.2166667</longitude>
  </city>
  <city name="Abu Odham">
    <latitude>13.55</latitude>
    <longitude>27.3833333</longitude>
  </city>
  <city name="Abu Ourein">
    <latitude>13.1666667</latitude>
    <longitude>31.2</longitude>
  </city>
  <city name="Abuoy">
    <latitude>9.95</latitude>
    <longitude>30.15</longitude>
  </city>
  <city name="Abu Qa`b">
    <latitude>11.95</latitude>
    <longitude>25.8166667</longitude>
  </city>
  <city name="Abu Qandul">
    <latitude>13.15</latitude>
    <longitude>33.75</longitude>
  </city>
  <city name="Abu Qawi">
    <latitude>17.4666667</latitude>
    <longitude>34.2</longitude>
  </city>
  <city name="Abu Qudaf">
    <latitude>11.4833333</latitude>
    <longitude>34.8333333</longitude>
  </city>
  <city name="Abu Qulayhah">
    <latitude>12.15</latitude>
    <longitude>26.9333333</longitude>
  </city>
  <city name="Abu Qulut">
    <latitude>13.6666667</latitude>
    <longitude>35.9</longitude>
  </city>
  <city name="Abu Qurayn">
    <latitude>13.1666667</latitude>
    <longitude>31.2</longitude>
  </city>
  <city name="Abu Qurays">
    <latitude>11.7333333</latitude>
    <longitude>31.6333333</longitude>
  </city>
  <city name="Abu Qurein">
    <latitude>15.7833333</latitude>
    <longitude>33.9666667</longitude>
  </city>
  <city name="Abu Qurun">
    <latitude>13.85</latitude>
    <longitude>32.4</longitude>
  </city>
  <city name="Abu Qussa">
    <latitude>10.8333333</latitude>
    <longitude>25.5333333</longitude>
  </city>
  <city name="Abu Qussah">
    <latitude>10.8333333</latitude>
    <longitude>25.5333333</longitude>
  </city>
  <city name="Abu Qussi">
    <latitude>18.1333333</latitude>
    <longitude>30.7666667</longitude>
  </city>
  <city name="Abu Quta">
    <latitude>14.9333333</latitude>
    <longitude>32.7333333</longitude>
  </city>
  <city name="Abu Qutah">
    <latitude>14.9333333</latitude>
    <longitude>32.7333333</longitude>
  </city>
  <city name="Abu Rabha">
    <latitude>15.25</latitude>
    <longitude>32.6166667</longitude>
  </city>
  <city name="Abu Rahmah">
    <latitude>13.9333333</latitude>
    <longitude>34.55</longitude>
  </city>
  <city name="Abu Rakhei">
    <latitude>13.5833333</latitude>
    <longitude>28.65</longitude>
  </city>
  <city name="Abu Rakhia">
    <latitude>12.3</latitude>
    <longitude>32.3</longitude>
  </city>
  <city name="Abu Ramad">
    <latitude>11.8833333</latitude>
    <longitude>34.3666667</longitude>
  </city>
  <city name="Abu Rameinak">
    <latitude>11.9166667</latitude>
    <longitude>25.0166667</longitude>
  </city>
  <city name="Abu Ra's">
    <latitude>7.9833333</latitude>
    <longitude>25.6</longitude>
  </city>
  <city name="Abu Raydah">
    <latitude>14.2666667</latitude>
    <longitude>35.8833333</longitude>
  </city>
  <city name="Abu Regeiba">
    <latitude>11.9666667</latitude>
    <longitude>34.7333333</longitude>
  </city>
  <city name="Abu Reida">
    <latitude>14.2666667</latitude>
    <longitude>35.8833333</longitude>
  </city>
  <city name="Abu Ruf">
    <latitude>17.2166667</latitude>
    <longitude>34.6666667</longitude>
  </city>
  <city name="Abu Rukba">
    <latitude>12.9333333</latitude>
    <longitude>32.0</longitude>
  </city>
  <city name="Abu Rukbah">
    <latitude>12.9333333</latitude>
    <longitude>32.0</longitude>
  </city>
  <city name="Abu Rukha">
    <latitude>12.9333333</latitude>
    <longitude>32.0</longitude>
  </city>
  <city name="Abu Rukhayy">
    <latitude>13.5833333</latitude>
    <longitude>28.65</longitude>
  </city>
  <city name="Abu Rumayl">
    <latitude>14.3666667</latitude>
    <longitude>22.9166667</longitude>
  </city>
  <city name="Abu Rumaylah">
    <latitude>19.2</latitude>
    <longitude>32.65</longitude>
  </city>
  <city name="Abu Rumeila">
    <latitude>19.2</latitude>
    <longitude>32.65</longitude>
  </city>
  <city name="Abu Rumeil">
    <latitude>14.3666667</latitude>
    <longitude>22.9166667</longitude>
  </city>
  <city name="Abu Ruqaybah">
    <latitude>11.9666667</latitude>
    <longitude>34.7333333</longitude>
  </city>
  <city name="Abu Ruqeiba">
    <latitude>11.9666667</latitude>
    <longitude>34.7333333</longitude>
  </city>
  <city name="Abu Rus">
    <latitude>15.0680556</latitude>
    <longitude>33.1205556</longitude>
  </city>
  <city name="Abu Sabib">
    <latitude>15.4833333</latitude>
    <longitude>31.5333333</longitude>
  </city>
  <city name="Abus">
    <latitude>11.0</latitude>
    <longitude>34.7</longitude>
  </city>
  <city name="Abu Sa`d">
    <latitude>12.9166667</latitude>
    <longitude>30.8166667</longitude>
  </city>
  <city name="Abu Saffar">
    <latitude>17.8786111</latitude>
    <longitude>33.9586111</longitude>
  </city>
  <city name="Abu Sa`id">
    <latitude>12.6166667</latitude>
    <longitude>34.4333333</longitude>
  </city>
  <city name="Abu Salalah">
    <latitude>11.1833333</latitude>
    <longitude>24.7166667</longitude>
  </city>
  <city name="Abu Sari">
    <latitude>20.2772222</latitude>
    <longitude>30.5838889</longitude>
  </city>
  <city name="Abu Sayr">
    <latitude>14.7666667</latitude>
    <longitude>33.15</longitude>
  </city>
  <city name="Abu Seba">
    <latitude>11.9833333</latitude>
    <longitude>29.6166667</longitude>
  </city>
  <city name="Abu Seiba">
    <latitude>11.9833333</latitude>
    <longitude>29.6166667</longitude>
  </city>
  <city name="Abu Se`id">
    <latitude>15.6</latitude>
    <longitude>32.4833333</longitude>
  </city>
  <city name="Abu Seir">
    <latitude>14.7666667</latitude>
    <longitude>33.15</longitude>
  </city>
  <city name="Abu Selala">
    <latitude>11.1833333</latitude>
    <longitude>24.7166667</longitude>
  </city>
  <city name="Abu Shagar">
    <latitude>12.5166667</latitude>
    <longitude>32.7333333</longitude>
  </city>
  <city name="Abu Shajar">
    <latitude>12.5166667</latitude>
    <longitude>32.7333333</longitude>
  </city>
  <city name="Abu Shakka">
    <latitude>7.7166667</latitude>
    <longitude>27.85</longitude>
  </city>
  <city name="Abu-Shakka">
    <latitude>7.7169444</latitude>
    <longitude>27.8344444</longitude>
  </city>
  <city name="Abu Shakkah">
    <latitude>7.7166667</latitude>
    <longitude>27.85</longitude>
  </city>
  <city name="Abu Shakkal">
    <latitude>7.7166667</latitude>
    <longitude>27.85</longitude>
  </city>
  <city name="Abu Shalaya">
    <latitude>11.9</latitude>
    <longitude>32.95</longitude>
  </city>
  <city name="Abu Shama">
    <latitude>10.9333333</latitude>
    <longitude>27.9666667</longitude>
  </city>
  <city name="Abu Sham">
    <latitude>15.0691667</latitude>
    <longitude>33.4988889</longitude>
  </city>
  <city name="Abu Shamah">
    <latitude>10.9333333</latitude>
    <longitude>27.9666667</longitude>
  </city>
  <city name="Abu Shanab">
    <latitude>10.7833333</latitude>
    <longitude>29.5333333</longitude>
  </city>
  <city name="Abu Shandi">
    <latitude>11.35</latitude>
    <longitude>34.7</longitude>
  </city>
  <city name="Abu Shari`ah">
    <latitude>14.2166667</latitude>
    <longitude>30.1833333</longitude>
  </city>
  <city name="Abu Shatat">
    <latitude>11.9666667</latitude>
    <longitude>27.25</longitude>
  </city>
  <city name="Abu Shateir">
    <latitude>13.0333333</latitude>
    <longitude>31.5166667</longitude>
  </city>
  <city name="Abu Shattah">
    <latitude>11.4333333</latitude>
    <longitude>26.0333333</longitude>
  </city>
  <city name="Abu Shawag">
    <latitude>13.45</latitude>
    <longitude>27.95</longitude>
  </city>
  <city name="Abu Shawk">
    <latitude>13.95</latitude>
    <longitude>31.0833333</longitude>
  </city>
  <city name="Abu Shendi">
    <latitude>11.35</latitude>
    <longitude>34.7</longitude>
  </city>
  <city name="Abu Sheneina">
    <latitude>11.3833333</latitude>
    <longitude>34.6666667</longitude>
  </city>
  <city name="Abu Sheri`a">
    <latitude>14.2166667</latitude>
    <longitude>30.1833333</longitude>
  </city>
  <city name="Abu Shidar">
    <latitude>12.5166667</latitude>
    <longitude>32.7333333</longitude>
  </city>
  <city name="Abu Shinena">
    <latitude>11.3833333</latitude>
    <longitude>34.6666667</longitude>
  </city>
  <city name="Abu Shok">
    <latitude>13.95</latitude>
    <longitude>31.0833333</longitude>
  </city>
  <city name="Abu Shotta">
    <latitude>11.4333333</latitude>
    <longitude>26.0333333</longitude>
  </city>
  <city name="Abu Shugeira">
    <latitude>13.7666667</latitude>
    <longitude>22.2666667</longitude>
  </city>
  <city name="Abu Shunayb">
    <latitude>14.9</latitude>
    <longitude>33.0</longitude>
  </city>
  <city name="Abu Shunaynah">
    <latitude>11.3833333</latitude>
    <longitude>34.6666667</longitude>
  </city>
  <city name="Abu Shuneib">
    <latitude>14.9</latitude>
    <longitude>33.0</longitude>
  </city>
  <city name="Abu Shutayr">
    <latitude>13.0333333</latitude>
    <longitude>31.5166667</longitude>
  </city>
  <city name="Abu Shuteir">
    <latitude>13.0333333</latitude>
    <longitude>31.5166667</longitude>
  </city>
  <city name="Abu Sikkin">
    <latitude>14.0666667</latitude>
    <longitude>24.55</longitude>
  </city>
  <city name="Abu Sinun">
    <latitude>11.1</latitude>
    <longitude>29.35</longitude>
  </city>
  <city name="Abu Sufyan">
    <latitude>11.9166667</latitude>
    <longitude>26.3833333</longitude>
  </city>
  <city name="Abu Sunaytat">
    <latitude>16.35</latitude>
    <longitude>34.05</longitude>
  </city>
  <city name="Abu Suneina">
    <latitude>14.4166667</latitude>
    <longitude>33.4</longitude>
  </city>
  <city name="Abu Suneitat">
    <latitude>16.35</latitude>
    <longitude>34.05</longitude>
  </city>
  <city name="Abu Suqra">
    <latitude>13.9666667</latitude>
    <longitude>33.6166667</longitude>
  </city>
  <city name="Abu Suqrah">
    <latitude>13.9666667</latitude>
    <longitude>33.6166667</longitude>
  </city>
  <city name="Abu Surug">
    <latitude>13.85</latitude>
    <longitude>22.3833333</longitude>
  </city>
  <city name="Abu Tabanu">
    <latitude>11.3333333</latitude>
    <longitude>26.3</longitude>
  </city>
  <city name="Abut">
    <latitude>8.9333333</latitude>
    <longitude>27.8333333</longitude>
  </city>
  <city name="Abu Tagara">
    <latitude>14.0833333</latitude>
    <longitude>32.0666667</longitude>
  </city>
  <city name="Abu Tawala">
    <latitude>10.9666667</latitude>
    <longitude>31.65</longitude>
  </city>
  <city name="Abu Thalathin">
    <latitude>9.2</latitude>
    <longitude>24.4833333</longitude>
  </city>
  <city name="Abu Tiga">
    <latitude>12.75</latitude>
    <longitude>34.15</longitude>
  </city>
  <city name="Abu Tin">
    <latitude>19.5333333</latitude>
    <longitude>33.2</longitude>
  </city>
  <city name="Abu Tineitin">
    <latitude>14.4</latitude>
    <longitude>31.0166667</longitude>
  </city>
  <city name="Abu Tong">
    <latitude>9.4527778</latitude>
    <longitude>31.1430556</longitude>
  </city>
  <city name="Abu Tunaytin">
    <latitude>14.4</latitude>
    <longitude>31.0166667</longitude>
  </city>
  <city name="Abu Turay`ah">
    <latitude>13.5333333</latitude>
    <longitude>28.9</longitude>
  </city>
  <city name="Abu Turei`a">
    <latitude>13.5333333</latitude>
    <longitude>28.9</longitude>
  </city>
  <city name="Abu `Ud">
    <latitude>11.05</latitude>
    <longitude>24.05</longitude>
  </city>
  <city name="Abu Umm Bashir">
    <latitude>10.9833333</latitude>
    <longitude>24.1166667</longitude>
  </city>
  <city name="Abu `Urf">
    <latitude>13.7833333</latitude>
    <longitude>32.1833333</longitude>
  </city>
  <city name="Abu `Urug">
    <latitude>13.7166667</latitude>
    <longitude>34.2166667</longitude>
  </city>
  <city name="Abu `Uruq">
    <latitude>13.7166667</latitude>
    <longitude>34.2166667</longitude>
  </city>
  <city name="Abu `Urwah">
    <latitude>13.55</latitude>
    <longitude>35.8333333</longitude>
  </city>
  <city name="Abu `Usfur">
    <latitude>13.2166667</latitude>
    <longitude>32.1833333</longitude>
  </city>
  <city name="Abu `Ushar">
    <latitude>14.9166667</latitude>
    <longitude>33.1833333</longitude>
  </city>
  <city name="Abu Zabad">
    <latitude>12.35</latitude>
    <longitude>29.25</longitude>
  </city>
  <city name="Abu Zagholi">
    <latitude>11.7333333</latitude>
    <longitude>34.3833333</longitude>
  </city>
  <city name="Abu Zaida">
    <latitude>12.45</latitude>
    <longitude>30.75</longitude>
  </city>
  <city name="Abu Zarad">
    <latitude>12.9666667</latitude>
    <longitude>35.85</longitude>
  </city>
  <city name="Abu Zarawi">
    <latitude>14.2833333</latitude>
    <longitude>32.3833333</longitude>
  </city>
  <city name="Abu Zariba">
    <latitude>9.3166667</latitude>
    <longitude>25.8833333</longitude>
  </city>
  <city name="Abu Zaribah">
    <latitude>9.3166667</latitude>
    <longitude>25.8833333</longitude>
  </city>
  <city name="Abu Zawr">
    <latitude>12.3666667</latitude>
    <longitude>34.3666667</longitude>
  </city>
  <city name="Abu Zayd">
    <latitude>15.0716667</latitude>
    <longitude>33.3916667</longitude>
  </city>
  <city name="Abu Zeid">
    <latitude>15.0716667</latitude>
    <longitude>33.3916667</longitude>
  </city>
  <city name="Abu Zeid Wad Umm Balli">
    <latitude>15.0716667</latitude>
    <longitude>33.3916667</longitude>
  </city>
  <city name="Abu Zor">
    <latitude>12.3666667</latitude>
    <longitude>34.3666667</longitude>
  </city>
  <city name="Abu Zua">
    <latitude>11.4833333</latitude>
    <longitude>27.0333333</longitude>
  </city>
  <city name="Abu Zullayq">
    <latitude>15.4766667</latitude>
    <longitude>33.1688889</longitude>
  </city>
  <city name="Abu Zulleiq">
    <latitude>15.4766667</latitude>
    <longitude>33.1688889</longitude>
  </city>
  <city name="Abwong">
    <latitude>6.9730556</latitude>
    <longitude>31.1291667</longitude>
  </city>
  <city name="Abwonq">
    <latitude>9.1166667</latitude>
    <longitude>32.2</longitude>
  </city>
  <city name="Abyad">
    <latitude>10.4166667</latitude>
    <longitude>25.8</longitude>
  </city>
  <city name="Abyei">
    <latitude>9.6</latitude>
    <longitude>28.4333333</longitude>
  </city>
  <city name="Abyey">
    <latitude>9.6</latitude>
    <longitude>28.4333333</longitude>
  </city>
  <city name="Abyor">
    <latitude>7.6991667</latitude>
    <longitude>28.6247222</longitude>
  </city>
  <city name="Acha Kwel">
    <latitude>8.6166667</latitude>
    <longitude>27.95</longitude>
  </city>
  <city name="Achel">
    <latitude>9.1</latitude>
    <longitude>32.3666667</longitude>
  </city>
  <city name="Achigor">
    <latitude>6.6083333</latitude>
    <longitude>30.9738889</longitude>
  </city>
  <city name="Achiyech">
    <latitude>7.9483333</latitude>
    <longitude>28.4680556</longitude>
  </city>
  <city name="Achod">
    <latitude>7.1041667</latitude>
    <longitude>29.3941667</longitude>
  </city>
  <city name="Achok">
    <latitude>6.8658333</latitude>
    <longitude>30.6658333</longitude>
  </city>
  <city name="Achol">
    <latitude>6.5666667</latitude>
    <longitude>31.5166667</longitude>
  </city>
  <city name="Achoma">
    <latitude>6.3366667</latitude>
    <longitude>31.6125</longitude>
  </city>
  <city name="Achop">
    <latitude>9.5786111</latitude>
    <longitude>31.6669444</longitude>
  </city>
  <city name="Achung">
    <latitude>9.9333333</latitude>
    <longitude>32.0333333</longitude>
  </city>
  <city name="Achwer">
    <latitude>7.0047222</latitude>
    <longitude>30.22</longitude>
  </city>
  <city name="Achwil">
    <latitude>9.8666667</latitude>
    <longitude>32.15</longitude>
  </city>
  <city name="Adado">
    <latitude>9.5902778</latitude>
    <longitude>31.6225</longitude>
  </city>
  <city name="Adal">
    <latitude>10.9</latitude>
    <longitude>32.5166667</longitude>
  </city>
  <city name="`Adal">
    <latitude>12.9666667</latitude>
    <longitude>34.5166667</longitude>
  </city>
  <city name="Adalata">
    <latitude>13.2166667</latitude>
    <longitude>22.4833333</longitude>
  </city>
  <city name="Adama Umm Qurayn">
    <latitude>9.75</latitude>
    <longitude>27.95</longitude>
  </city>
  <city name="Adama Umm Qurein">
    <latitude>9.75</latitude>
    <longitude>27.95</longitude>
  </city>
  <city name="Adam Bawsh">
    <latitude>14.9</latitude>
    <longitude>23.6333333</longitude>
  </city>
  <city name="Adam Bosh">
    <latitude>14.9</latitude>
    <longitude>23.6333333</longitude>
  </city>
  <city name="Adam Yanga">
    <latitude>7.7166667</latitude>
    <longitude>26.2</longitude>
  </city>
  <city name="Adara">
    <latitude>13.5666667</latitude>
    <longitude>30.8</longitude>
  </city>
  <city name="`Adar">
    <latitude>14.55</latitude>
    <longitude>32.7</longitude>
  </city>
  <city name="`Adar al Gufr">
    <latitude>12.7666667</latitude>
    <longitude>31.6833333</longitude>
  </city>
  <city name="Adarama">
    <latitude>17.0816667</latitude>
    <longitude>34.8888889</longitude>
  </city>
  <city name="Adassi">
    <latitude>11.2833333</latitude>
    <longitude>34.8</longitude>
  </city>
  <city name="Adaudo Nyerur">
    <latitude>10.0166667</latitude>
    <longitude>32.0666667</longitude>
  </city>
  <city name="Ad Dabba">
    <latitude>18.05</latitude>
    <longitude>30.95</longitude>
  </city>
  <city name="Ad Dabbah">
    <latitude>14.7666667</latitude>
    <longitude>33.3166667</longitude>
  </city>
  <city name="Ad Dabbura">
    <latitude>17.5333333</latitude>
    <longitude>34.2333333</longitude>
  </city>
  <city name="Ad Dabburah">
    <latitude>17.5333333</latitude>
    <longitude>34.2333333</longitude>
  </city>
  <city name="Ad Dabkir">
    <latitude>10.6383333</latitude>
    <longitude>29.7736111</longitude>
  </city>
  <city name="Ad Da`en">
    <latitude>11.4333333</latitude>
    <longitude>26.15</longitude>
  </city>
  <city name="Ad Dahhab">
    <latitude>13.9</latitude>
    <longitude>36.1</longitude>
  </city>
  <city name="Ad Dai">
    <latitude>13.25</latitude>
    <longitude>31.5</longitude>
  </city>
  <city name="Ad Dalanj">
    <latitude>12.05</latitude>
    <longitude>29.65</longitude>
  </city>
  <city name="Ad-Damar">
    <latitude>17.5927778</latitude>
    <longitude>33.9591667</longitude>
  </city>
  <city name="Ad Damazin">
    <latitude>11.7666667</latitude>
    <longitude>34.35</longitude>
  </city>
  <city name="Ad Damir">
    <latitude>17.5927778</latitude>
    <longitude>33.9591667</longitude>
  </city>
  <city name="Ad Danget">
    <latitude>11.2833333</latitude>
    <longitude>34.6666667</longitude>
  </city>
  <city name="Ad Daqqaqah">
    <latitude>13.15</latitude>
    <longitude>34.2</longitude>
  </city>
  <city name="Ad Darabi">
    <latitude>13.9666667</latitude>
    <longitude>36.0666667</longitude>
  </city>
  <city name="Ad Dawhah">
    <latitude>13.9833333</latitude>
    <longitude>33.4333333</longitude>
  </city>
  <city name="Ad Dawm">
    <latitude>16.0341667</latitude>
    <longitude>32.5811111</longitude>
  </city>
  <city name="Ad Dawmah">
    <latitude>11.9166667</latitude>
    <longitude>34.3833333</longitude>
  </city>
  <city name="Ad Dawwab">
    <latitude>16.0238889</latitude>
    <longitude>32.5416667</longitude>
  </city>
  <city name="Ad Daym">
    <latitude>11.2333333</latitude>
    <longitude>34.9333333</longitude>
  </city>
  <city name="Ad Debeilu">
    <latitude>12.35</latitude>
    <longitude>30.5333333</longitude>
  </city>
  <city name="Ad Delatia">
    <latitude>15.3666667</latitude>
    <longitude>32.8833333</longitude>
  </city>
  <city name="Ad Dereis">
    <latitude>11.7333333</latitude>
    <longitude>27.45</longitude>
  </city>
  <city name="Ad Dikeri">
    <latitude>10.5333333</latitude>
    <longitude>30.3</longitude>
  </city>
  <city name="Ad Dikka North">
    <latitude>18.0</latitude>
    <longitude>34.0</longitude>
  </city>
  <city name="Ad Dikka West">
    <latitude>18.1</latitude>
    <longitude>33.9333333</longitude>
  </city>
  <city name="Ad Dindar">
    <latitude>13.2</latitude>
    <longitude>34.1666667</longitude>
  </city>
  <city name="Ad Diseis">
    <latitude>14.25</latitude>
    <longitude>33.0</longitude>
  </city>
  <city name="Ad Doma">
    <latitude>11.7333333</latitude>
    <longitude>28.3666667</longitude>
  </city>
  <city name="Ad Du`ayn">
    <latitude>11.4333333</latitude>
    <longitude>26.15</longitude>
  </city>
  <city name="Ad Dubasi">
    <latitude>14.2166667</latitude>
    <longitude>32.2333333</longitude>
  </city>
  <city name="Ad Dubaybah">
    <latitude>13.3666667</latitude>
    <longitude>32.6333333</longitude>
  </city>
  <city name="Ad Dubaybat">
    <latitude>12.8166667</latitude>
    <longitude>32.5333333</longitude>
  </city>
  <city name="Ad Dubaykir">
    <latitude>12.7</latitude>
    <longitude>32.4666667</longitude>
  </city>
  <city name="Ad Dukaydik">
    <latitude>10.8666667</latitude>
    <longitude>32.0666667</longitude>
  </city>
  <city name="Ad Dulayb">
    <latitude>11.9</latitude>
    <longitude>31.6333333</longitude>
  </city>
  <city name="Ad Dulaybah">
    <latitude>14.1666667</latitude>
    <longitude>33.65</longitude>
  </city>
  <city name="Ad Dushaynab">
    <latitude>15.9833333</latitude>
    <longitude>32.55</longitude>
  </city>
  <city name="Ad Duwaym">
    <latitude>14.0</latitude>
    <longitude>32.3166667</longitude>
  </city>
  <city name="Ad Duwaymah">
    <latitude>14.1166667</latitude>
    <longitude>31.0833333</longitude>
  </city>
  <city name="Ad Duwem">
    <latitude>14.0</latitude>
    <longitude>32.3166667</longitude>
  </city>
  <city name="Adeiri">
    <latitude>10.75</latitude>
    <longitude>32.35</longitude>
  </city>
  <city name="Adet">
    <latitude>6.5833333</latitude>
    <longitude>31.55</longitude>
  </city>
  <city name="Ad Fakwan">
    <latitude>8.5369444</latitude>
    <longitude>30.6536111</longitude>
  </city>
  <city name="Adi">
    <latitude>11.1</latitude>
    <longitude>34.8666667</longitude>
  </city>
  <city name="Adiai">
    <latitude>9.2666667</latitude>
    <longitude>28.8333333</longitude>
  </city>
  <city name="Adidiang Paych">
    <latitude>9.3955556</latitude>
    <longitude>31.5411111</longitude>
  </city>
  <city name="Adidur">
    <latitude>7.3775</latitude>
    <longitude>28.8219444</longitude>
  </city>
  <city name="Adigi">
    <latitude>13.1</latitude>
    <longitude>22.0</longitude>
  </city>
  <city name="`Adila">
    <latitude>11.25</latitude>
    <longitude>34.65</longitude>
  </city>
  <city name="Adimakuj">
    <latitude>4.2222222</latitude>
    <longitude>33.5719444</longitude>
  </city>
  <city name="Adindow">
    <latitude>9.0833333</latitude>
    <longitude>28.5666667</longitude>
  </city>
  <city name="Adinow">
    <latitude>9.0833333</latitude>
    <longitude>28.5666667</longitude>
  </city>
  <city name="Adiota">
    <latitude>6.5752778</latitude>
    <longitude>31.2988889</longitude>
  </city>
  <city name="Adir">
    <latitude>8.5166667</latitude>
    <longitude>27.9166667</longitude>
  </city>
  <city name="Adjang">
    <latitude>7.3013889</latitude>
    <longitude>29.5255556</longitude>
  </city>
  <city name="`Adlan Godat">
    <latitude>14.85</latitude>
    <longitude>33.65</longitude>
  </city>
  <city name="Ado">
    <latitude>6.3833333</latitude>
    <longitude>30.1</longitude>
  </city>
  <city name="Adobana">
    <latitude>18.1666667</latitude>
    <longitude>38.2833333</longitude>
  </city>
  <city name="Adodo">
    <latitude>9.455</latitude>
    <longitude>31.6488889</longitude>
  </city>
  <city name="Adok">
    <latitude>8.1833333</latitude>
    <longitude>30.3166667</longitude>
  </city>
  <city name="Adol">
    <latitude>9.25</latitude>
    <longitude>28.4833333</longitude>
  </city>
  <city name="Adoma">
    <latitude>11.7333333</latitude>
    <longitude>28.3666667</longitude>
  </city>
  <city name="Adona Sughaiyir">
    <latitude>11.6833333</latitude>
    <longitude>30.3666667</longitude>
  </city>
  <city name="Adong">
    <latitude>8.9333333</latitude>
    <longitude>31.9833333</longitude>
  </city>
  <city name="Ador">
    <latitude>7.85</latitude>
    <longitude>29.2666667</longitude>
  </city>
  <city name="Adrur">
    <latitude>15.0833333</latitude>
    <longitude>26.4</longitude>
  </city>
  <city name="Aduk">
    <latitude>8.1833333</latitude>
    <longitude>30.3166667</longitude>
  </city>
  <city name="Adull">
    <latitude>6.6166667</latitude>
    <longitude>29.95</longitude>
  </city>
  <city name="Adum">
    <latitude>8.9166667</latitude>
    <longitude>27.95</longitude>
  </city>
  <city name="Adun">
    <latitude>8.9166667</latitude>
    <longitude>27.95</longitude>
  </city>
  <city name="Adundut">
    <latitude>6.7305556</latitude>
    <longitude>31.1616667</longitude>
  </city>
  <city name="Adusa">
    <latitude>13.8833333</latitude>
    <longitude>30.85</longitude>
  </city>
  <city name="Adwet">
    <latitude>8.35</latitude>
    <longitude>29.1</longitude>
  </city>
  <city name="Adwojo">
    <latitude>9.3636111</latitude>
    <longitude>31.4488889</longitude>
  </city>
  <city name="Adwor">
    <latitude>9.3055556</latitude>
    <longitude>31.7580556</longitude>
  </city>
  <city name="Aegir">
    <latitude>16.0544444</latitude>
    <longitude>36.3391667</longitude>
  </city>
  <city name="Aeng">
    <latitude>6.1472222</latitude>
    <longitude>31.3305556</longitude>
  </city>
  <city name="Affad">
    <latitude>18.0166667</latitude>
    <longitude>31.1833333</longitude>
  </city>
  <city name="Affat">
    <latitude>18.0166667</latitude>
    <longitude>31.1833333</longitude>
  </city>
  <city name="Affia">
    <latitude>13.9333333</latitude>
    <longitude>23.8833333</longitude>
  </city>
  <city name="Afflanda">
    <latitude>18.05</latitude>
    <longitude>38.4166667</longitude>
  </city>
  <city name="Afiatt">
    <latitude>9.1166667</latitude>
    <longitude>28.3833333</longitude>
  </city>
  <city name="Afifi">
    <latitude>7.6833333</latitude>
    <longitude>26.6333333</longitude>
  </city>
  <city name="Aflanda">
    <latitude>18.05</latitude>
    <longitude>38.4166667</longitude>
  </city>
  <city name="Aftas">
    <latitude>15.0666667</latitude>
    <longitude>32.8333333</longitude>
  </city>
  <city name="Aftes">
    <latitude>15.0666667</latitude>
    <longitude>32.8333333</longitude>
  </city>
  <city name="`Agab">
    <latitude>10.3666667</latitude>
    <longitude>33.85</longitude>
  </city>
  <city name="`Agabna">
    <latitude>13.4333333</latitude>
    <longitude>34.4333333</longitude>
  </city>
  <city name="`Agabullah">
    <latitude>11.3333333</latitude>
    <longitude>26.5833333</longitude>
  </city>
  <city name="Agada">
    <latitude>19.2833333</latitude>
    <longitude>30.4666667</longitude>
  </city>
  <city name="`Agaga">
    <latitude>10.75</latitude>
    <longitude>25.1</longitude>
  </city>
  <city name="Again">
    <latitude>8.4666667</latitude>
    <longitude>29.9166667</longitude>
  </city>
  <city name="Againg">
    <latitude>9.3266667</latitude>
    <longitude>31.5041667</longitude>
  </city>
  <city name="Againi">
    <latitude>10.2</latitude>
    <longitude>34.1833333</longitude>
  </city>
  <city name="Agalak">
    <latitude>11.0166667</latitude>
    <longitude>32.7</longitude>
  </city>
  <city name="Agangi">
    <latitude>10.2</latitude>
    <longitude>34.1833333</longitude>
  </city>
  <city name="Agani">
    <latitude>10.2</latitude>
    <longitude>34.1833333</longitude>
  </city>
  <city name="Agar">
    <latitude>7.0733333</latitude>
    <longitude>29.8744444</longitude>
  </city>
  <city name="Agarak">
    <latitude>9.6333333</latitude>
    <longitude>30.1333333</longitude>
  </city>
  <city name="Agari">
    <latitude>12.9833333</latitude>
    <longitude>30.5833333</longitude>
  </city>
  <city name="Agaru">
    <latitude>10.9833333</latitude>
    <longitude>34.7333333</longitude>
  </city>
  <city name="Agat">
    <latitude>9.5666667</latitude>
    <longitude>32.1333333</longitude>
  </city>
  <city name="Agdoub">
    <latitude>15.55</latitude>
    <longitude>36.3833333</longitude>
  </city>
  <city name="Ageida">
    <latitude>17.2833333</latitude>
    <longitude>33.7166667</longitude>
  </city>
  <city name="Ageig">
    <latitude>13.2333333</latitude>
    <longitude>30.0166667</longitude>
  </city>
  <city name="Ageila">
    <latitude>12.8833333</latitude>
    <longitude>31.5666667</longitude>
  </city>
  <city name="Ageimi">
    <latitude>12.9666667</latitude>
    <longitude>29.25</longitude>
  </city>
  <city name="Ageng">
    <latitude>6.0333333</latitude>
    <longitude>30.3166667</longitude>
  </city>
  <city name="Aggar">
    <latitude>10.9833333</latitude>
    <longitude>34.9</longitude>
  </city>
  <city name="Aghan">
    <latitude>6.2666667</latitude>
    <longitude>30.3666667</longitude>
  </city>
  <city name="Aghanich">
    <latitude>6.7833333</latitude>
    <longitude>30.85</longitude>
  </city>
  <city name="Agharalu">
    <latitude>10.9</latitude>
    <longitude>34.9</longitude>
  </city>
  <city name="Aghbash">
    <latitude>12.9833333</latitude>
    <longitude>35.9</longitude>
  </city>
  <city name="Agig">
    <latitude>18.2333333</latitude>
    <longitude>38.2</longitude>
  </city>
  <city name="Agit">
    <latitude>8.3333333</latitude>
    <longitude>26.9333333</longitude>
  </city>
  <city name="Agoba">
    <latitude>14.2166667</latitude>
    <longitude>32.5833333</longitude>
  </city>
  <city name="Agodo">
    <latitude>9.7447222</latitude>
    <longitude>31.8802778</longitude>
  </city>
  <city name="Agogo">
    <latitude>7.8261111</latitude>
    <longitude>28.8319444</longitude>
  </city>
  <city name="Agokadol">
    <latitude>6.9</latitude>
    <longitude>29.4833333</longitude>
  </city>
  <city name="Agol">
    <latitude>6.0438889</latitude>
    <longitude>31.3855556</longitude>
  </city>
  <city name="Agor">
    <latitude>10.2333333</latitude>
    <longitude>32.65</longitude>
  </city>
  <city name="Agoramundi">
    <latitude>10.25</latitude>
    <longitude>34.2</longitude>
  </city>
  <city name="Agoran">
    <latitude>6.3</latitude>
    <longitude>30.1333333</longitude>
  </city>
  <city name="Agorbar">
    <latitude>6.7455556</latitude>
    <longitude>31.2116667</longitude>
  </city>
  <city name="Agor Dit">
    <latitude>10.2333333</latitude>
    <longitude>32.7166667</longitude>
  </city>
  <city name="Agori">
    <latitude>18.7666667</latitude>
    <longitude>30.1666667</longitude>
  </city>
  <city name="Agoro">
    <latitude>4.1491667</latitude>
    <longitude>32.2380556</longitude>
  </city>
  <city name="Agorogwor">
    <latitude>6.1177778</latitude>
    <longitude>31.1355556</longitude>
  </city>
  <city name="Agor Ti">
    <latitude>10.2333333</latitude>
    <longitude>32.65</longitude>
  </city>
  <city name="Agoura">
    <latitude>13.5833333</latitude>
    <longitude>22.6</longitude>
  </city>
  <city name="Agra">
    <latitude>12.0666667</latitude>
    <longitude>23.2</longitude>
  </city>
  <city name="Aguatta">
    <latitude>6.8166667</latitude>
    <longitude>34.5666667</longitude>
  </city>
  <city name="Agub">
    <latitude>14.2166667</latitude>
    <longitude>32.5833333</longitude>
  </city>
  <city name="Agugo">
    <latitude>9.3783333</latitude>
    <longitude>31.51</longitude>
  </city>
  <city name="Agujang">
    <latitude>7.4152778</latitude>
    <longitude>29.5941667</longitude>
  </city>
  <city name="`Agula">
    <latitude>20.4</latitude>
    <longitude>30.35</longitude>
  </city>
  <city name="Agul">
    <latitude>6.7122222</latitude>
    <longitude>30.8983333</longitude>
  </city>
  <city name="Aguma">
    <latitude>13.3833333</latitude>
    <longitude>22.3</longitude>
  </city>
  <city name="Agum">
    <latitude>11.7</latitude>
    <longitude>32.8666667</longitude>
  </city>
  <city name="Agumei">
    <latitude>13.2666667</latitude>
    <longitude>22.3666667</longitude>
  </city>
  <city name="Agungok">
    <latitude>9.35</latitude>
    <longitude>31.4333333</longitude>
  </city>
  <city name="Agur">
    <latitude>11.5894444</latitude>
    <longitude>30.4563889</longitude>
  </city>
  <city name="Aguran">
    <latitude>6.3</latitude>
    <longitude>30.1333333</longitude>
  </city>
  <city name="Agurfing">
    <latitude>7.9936111</latitude>
    <longitude>28.4505556</longitude>
  </city>
  <city name="Agurra">
    <latitude>13.5833333</latitude>
    <longitude>22.6</longitude>
  </city>
  <city name="Agurton">
    <latitude>8.7333333</latitude>
    <longitude>28.25</longitude>
  </city>
  <city name="Agwetta">
    <latitude>6.8166667</latitude>
    <longitude>34.5666667</longitude>
  </city>
  <city name="Agwit">
    <latitude>8.75</latitude>
    <longitude>27.8333333</longitude>
  </city>
  <city name="Agwok">
    <latitude>7.8758333</latitude>
    <longitude>28.4047222</longitude>
  </city>
  <city name="Agyagya">
    <latitude>9.9666667</latitude>
    <longitude>33.8666667</longitude>
  </city>
  <city name="Ahmad `Abd Allahi">
    <latitude>11.6166667</latitude>
    <longitude>26.9666667</longitude>
  </city>
  <city name="Ahmad Abu Jayrah">
    <latitude>15.3666667</latitude>
    <longitude>32.5833333</longitude>
  </city>
  <city name="Ahmad al Faki Muhammad">
    <latitude>15.0333333</latitude>
    <longitude>32.45</longitude>
  </city>
  <city name="Ahmad `Arabi">
    <latitude>9.1666667</latitude>
    <longitude>29.8166667</longitude>
  </city>
  <city name="Ahmad ash Shayn">
    <latitude>11.9166667</latitude>
    <longitude>28.05</longitude>
  </city>
  <city name="Ahmad Badw">
    <latitude>11.8333333</latitude>
    <longitude>28.0333333</longitude>
  </city>
  <city name="Ahmad Jabr">
    <latitude>11.6666667</latitude>
    <longitude>27.4166667</longitude>
  </city>
  <city name="Ahmad Wad al Wahidu">
    <latitude>14.7333333</latitude>
    <longitude>33.5833333</longitude>
  </city>
  <city name="Ahmar">
    <latitude>14.3333333</latitude>
    <longitude>24.3833333</longitude>
  </city>
  <city name="Ahmar Mawji">
    <latitude>12.4166667</latitude>
    <longitude>34.2666667</longitude>
  </city>
  <city name="Ahmar Mogi">
    <latitude>12.4166667</latitude>
    <longitude>34.2666667</longitude>
  </city>
  <city name="Ahmed `Abdullahi">
    <latitude>11.6166667</latitude>
    <longitude>26.9666667</longitude>
  </city>
  <city name="Ahmed Abu Geira">
    <latitude>15.3666667</latitude>
    <longitude>32.5833333</longitude>
  </city>
  <city name="Ahmed `Arabi">
    <latitude>9.1666667</latitude>
    <longitude>29.8166667</longitude>
  </city>
  <city name="Ahmed Badu">
    <latitude>11.8333333</latitude>
    <longitude>28.0333333</longitude>
  </city>
  <city name="Ahmed el Faki Muhammad">
    <latitude>15.0333333</latitude>
    <longitude>32.45</longitude>
  </city>
  <city name="Ahmed esh Shein">
    <latitude>11.9166667</latitude>
    <longitude>28.05</longitude>
  </city>
  <city name="Ahmed Gabr">
    <latitude>11.6666667</latitude>
    <longitude>27.4166667</longitude>
  </city>
  <city name="Ahmed Wad el Wahedu">
    <latitude>14.7333333</latitude>
    <longitude>33.5833333</longitude>
  </city>
  <city name="Aidam">
    <latitude>11.1333333</latitude>
    <longitude>25.0666667</longitude>
  </city>
  <city name="Aidu">
    <latitude>7.2852778</latitude>
    <longitude>28.5666667</longitude>
  </city>
  <city name="Aiet">
    <latitude>17.7666667</latitude>
    <longitude>38.2833333</longitude>
  </city>
  <city name="Aifis">
    <latitude>12.8666667</latitude>
    <longitude>31.8666667</longitude>
  </city>
  <city name="Ailliet">
    <latitude>11.95</latitude>
    <longitude>27.0666667</longitude>
  </city>
  <city name="Aineina">
    <latitude>15.0333333</latitude>
    <longitude>32.7</longitude>
  </city>
  <city name="Ain el Luweiqa">
    <latitude>14.1666667</latitude>
    <longitude>33.9166667</longitude>
  </city>
  <city name="Ainyar">
    <latitude>7.8494444</latitude>
    <longitude>28.1058333</longitude>
  </city>
  <city name="`Aish Barra">
    <latitude>14.5166667</latitude>
    <longitude>25.6166667</longitude>
  </city>
  <city name="Aiweng">
    <latitude>7.5333333</latitude>
    <longitude>31.4</longitude>
  </city>
  <city name="Aiwi">
    <latitude>7.6833333</latitude>
    <longitude>29.6333333</longitude>
  </city>
  <city name="Aiyen">
    <latitude>6.5833333</latitude>
    <longitude>29.7833333</longitude>
  </city>
  <city name="Aiyerri">
    <latitude>4.0419444</latitude>
    <longitude>32.4316667</longitude>
  </city>
  <city name="Aiyota">
    <latitude>10.75</latitude>
    <longitude>32.6666667</longitude>
  </city>
  <city name="Aiyot">
    <latitude>9.1183333</latitude>
    <longitude>31.6458333</longitude>
  </city>
  <city name="Aiyung">
    <latitude>9.3666667</latitude>
    <longitude>32.4666667</longitude>
  </city>
  <city name="`Ajab Allah">
    <latitude>11.3333333</latitude>
    <longitude>26.5833333</longitude>
  </city>
  <city name="`Ajajah">
    <latitude>10.75</latitude>
    <longitude>25.1</longitude>
  </city>
  <city name="Ajaj">
    <latitude>6.1641667</latitude>
    <longitude>31.2836111</longitude>
  </city>
  <city name="Ajak">
    <latitude>7.0286111</latitude>
    <longitude>30.5288889</longitude>
  </city>
  <city name="Ajak Bikr">
    <latitude>6.8469444</latitude>
    <longitude>31.3047222</longitude>
  </city>
  <city name="Ajako">
    <latitude>7.6558333</latitude>
    <longitude>28.7036111</longitude>
  </city>
  <city name="Ajaugo">
    <latitude>9.3636111</latitude>
    <longitude>31.4488889</longitude>
  </city>
  <city name="Ajibja">
    <latitude>7.0</latitude>
    <longitude>31.3833333</longitude>
  </city>
  <city name="Ajijo">
    <latitude>9.2166667</latitude>
    <longitude>33.8333333</longitude>
  </city>
  <city name="Ajijuit">
    <latitude>6.9166667</latitude>
    <longitude>29.6</longitude>
  </city>
  <city name="Ajingel">
    <latitude>10.4166667</latitude>
    <longitude>32.5666667</longitude>
  </city>
  <city name="Aj Jabalen">
    <latitude>12.6</latitude>
    <longitude>32.8</longitude>
  </city>
  <city name="Aj Janayef">
    <latitude>19.25</latitude>
    <longitude>32.7166667</longitude>
  </city>
  <city name="Aj Jined">
    <latitude>14.8</latitude>
    <longitude>33.3166667</longitude>
  </city>
  <city name="Aj Jinena">
    <latitude>13.45</latitude>
    <longitude>22.45</longitude>
  </city>
  <city name="Aj Juwer">
    <latitude>16.7758333</latitude>
    <longitude>33.5230556</longitude>
  </city>
  <city name="Ajoich">
    <latitude>7.0111111</latitude>
    <longitude>29.1230556</longitude>
  </city>
  <city name="Ajok">
    <latitude>7.3477778</latitude>
    <longitude>29.7525</longitude>
  </city>
  <city name="Ajon">
    <latitude>6.9669444</latitude>
    <longitude>31.4266667</longitude>
  </city>
  <city name="Ajuini">
    <latitude>7.4666667</latitude>
    <longitude>31.4166667</longitude>
  </city>
  <city name="Ajungmir">
    <latitude>8.45</latitude>
    <longitude>33.1833333</longitude>
  </city>
  <city name="Ajung Shol">
    <latitude>8.5833333</latitude>
    <longitude>28.2833333</longitude>
  </city>
  <city name="Ajwara">
    <latitude>7.1166667</latitude>
    <longitude>33.9833333</longitude>
  </city>
  <city name="Ajwir">
    <latitude>6.8775</latitude>
    <longitude>30.7019444</longitude>
  </city>
  <city name="Ajwok">
    <latitude>8.2333333</latitude>
    <longitude>28.6</longitude>
  </city>
  <city name="Akafi">
    <latitude>12.4</latitude>
    <longitude>32.3333333</longitude>
  </city>
  <city name="Akai">
    <latitude>8.7333333</latitude>
    <longitude>31.1</longitude>
  </city>
  <city name="Akait">
    <latitude>9.2333333</latitude>
    <longitude>29.6166667</longitude>
  </city>
  <city name="Akara">
    <latitude>14.8166667</latitude>
    <longitude>32.6166667</longitude>
  </city>
  <city name="'Akasha">
    <latitude>21.0</latitude>
    <longitude>30.25</longitude>
  </city>
  <city name="Akasha">
    <latitude>21.0833333</latitude>
    <longitude>30.7166667</longitude>
  </city>
  <city name="`Akashah">
    <latitude>21.0</latitude>
    <longitude>30.25</longitude>
  </city>
  <city name="Akeir">
    <latitude>9.2833333</latitude>
    <longitude>28.6666667</longitude>
  </city>
  <city name="Akelo">
    <latitude>6.8333333</latitude>
    <longitude>33.6666667</longitude>
  </city>
  <city name="Akeu">
    <latitude>6.2666667</latitude>
    <longitude>30.6166667</longitude>
  </city>
  <city name="Akheirleina">
    <latitude>13.6166667</latitude>
    <longitude>31.3833333</longitude>
  </city>
  <city name="Akhoshali">
    <latitude>11.5333333</latitude>
    <longitude>34.4666667</longitude>
  </city>
  <city name="Akiar">
    <latitude>7.6913889</latitude>
    <longitude>28.8983333</longitude>
  </city>
  <city name="Akik">
    <latitude>18.2333333</latitude>
    <longitude>38.2</longitude>
  </city>
  <city name="Akilili">
    <latitude>10.95</latitude>
    <longitude>34.3666667</longitude>
  </city>
  <city name="Akim">
    <latitude>8.4</latitude>
    <longitude>28.5166667</longitude>
  </city>
  <city name="Akite">
    <latitude>8.5833333</latitude>
    <longitude>27.7333333</longitude>
  </city>
  <city name="Akkad">
    <latitude>19.6666667</latitude>
    <longitude>30.3666667</longitude>
  </city>
  <city name="Akobo">
    <latitude>7.7833333</latitude>
    <longitude>33.0166667</longitude>
  </city>
  <city name="Akobo Post">
    <latitude>7.7833333</latitude>
    <longitude>33.0166667</longitude>
  </city>
  <city name="Akoich">
    <latitude>9.15</latitude>
    <longitude>28.0166667</longitude>
  </city>
  <city name="Akoite">
    <latitude>9.0333333</latitude>
    <longitude>27.2833333</longitude>
  </city>
  <city name="Akojan">
    <latitude>6.1</latitude>
    <longitude>30.7166667</longitude>
  </city>
  <city name="Akok">
    <latitude>7.7833333</latitude>
    <longitude>29.0833333</longitude>
  </city>
  <city name="Akoke">
    <latitude>9.7333333</latitude>
    <longitude>32.1833333</longitude>
  </city>
  <city name="Akok Fadiut">
    <latitude>7.4</latitude>
    <longitude>29.0666667</longitude>
  </city>
  <city name="Akola">
    <latitude>7.9833333</latitude>
    <longitude>33.0333333</longitude>
  </city>
  <city name="Akoloch">
    <latitude>6.7994444</latitude>
    <longitude>30.7013889</longitude>
  </city>
  <city name="Akon">
    <latitude>7.4091667</latitude>
    <longitude>29.0680556</longitude>
  </city>
  <city name="Akop">
    <latitude>7.3025</latitude>
    <longitude>29.4975</longitude>
  </city>
  <city name="Akoraweng">
    <latitude>9.7</latitude>
    <longitude>32.35</longitude>
  </city>
  <city name="Akoro">
    <latitude>4.1313889</latitude>
    <longitude>33.0655556</longitude>
  </city>
  <city name="Akort">
    <latitude>8.2</latitude>
    <longitude>28.2166667</longitude>
  </city>
  <city name="Akorwen">
    <latitude>10.7166667</latitude>
    <longitude>32.7833333</longitude>
  </city>
  <city name="Akorwet">
    <latitude>10.7166667</latitude>
    <longitude>32.7833333</longitude>
  </city>
  <city name="Akot">
    <latitude>10.4833333</latitude>
    <longitude>32.4833333</longitude>
  </city>
  <city name="Akoweit">
    <latitude>7.8955556</latitude>
    <longitude>28.9008333</longitude>
  </city>
  <city name="Akowit">
    <latitude>6.9919444</latitude>
    <longitude>31.0569444</longitude>
  </city>
  <city name="Akubu">
    <latitude>7.7833333</latitude>
    <longitude>33.0166667</longitude>
  </city>
  <city name="Akuich">
    <latitude>6.9858333</latitude>
    <longitude>31.2361111</longitude>
  </city>
  <city name="Akun">
    <latitude>8.8833333</latitude>
    <longitude>27.9833333</longitude>
  </city>
  <city name="Akurkwa">
    <latitude>10.5333333</latitude>
    <longitude>32.1166667</longitude>
  </city>
  <city name="Akurwa">
    <latitude>10.5333333</latitude>
    <longitude>32.1166667</longitude>
  </city>
  <city name="Akwai">
    <latitude>7.5891667</latitude>
    <longitude>28.3011111</longitude>
  </city>
  <city name="Akwain">
    <latitude>7.9166667</latitude>
    <longitude>28.8333333</longitude>
  </city>
  <city name="Akwairmam">
    <latitude>8.9166667</latitude>
    <longitude>26.9166667</longitude>
  </city>
  <city name="Akwaiya">
    <latitude>10.8166667</latitude>
    <longitude>32.4</longitude>
  </city>
  <city name="Akwaj">
    <latitude>10.3833333</latitude>
    <longitude>32.6166667</longitude>
  </city>
  <city name="Akwak">
    <latitude>6.3536111</latitude>
    <longitude>31.4591667</longitude>
  </city>
  <city name="Akwar">
    <latitude>9.1166667</latitude>
    <longitude>26.75</longitude>
  </city>
  <city name="Akwei">
    <latitude>6.5833333</latitude>
    <longitude>30.4666667</longitude>
  </city>
  <city name="Akwenno">
    <latitude>7.7430556</latitude>
    <longitude>28.3133333</longitude>
  </city>
  <city name="Akwer Nhom">
    <latitude>8.9166667</latitude>
    <longitude>26.9166667</longitude>
  </city>
  <city name="Akwolakwoy">
    <latitude>6.5030556</latitude>
    <longitude>30.5808333</longitude>
  </city>
  <city name="Akwong">
    <latitude>7.45</latitude>
    <longitude>28.3666667</longitude>
  </city>
  <city name="Akwongdair">
    <latitude>8.85</latitude>
    <longitude>26.95</longitude>
  </city>
  <city name="Akwongdau">
    <latitude>9.0166667</latitude>
    <longitude>26.9166667</longitude>
  </city>
  <city name="Akwongrail">
    <latitude>9.0833333</latitude>
    <longitude>26.6833333</longitude>
  </city>
  <city name="Akwongyik">
    <latitude>9.1166667</latitude>
    <longitude>26.9166667</longitude>
  </city>
  <city name="Akwot">
    <latitude>9.0666667</latitude>
    <longitude>32.4</longitude>
  </city>
  <city name="Al `Abbasiyah">
    <latitude>14.45</latitude>
    <longitude>33.5166667</longitude>
  </city>
  <city name="Al `Abbasiyya">
    <latitude>12.1666667</latitude>
    <longitude>31.3</longitude>
  </city>
  <city name="Al `Abdiyah">
    <latitude>12.1333333</latitude>
    <longitude>28.8</longitude>
  </city>
  <city name="Al Abyad">
    <latitude>13.5</latitude>
    <longitude>27.5</longitude>
  </city>
  <city name="Al `Affad">
    <latitude>18.0</latitude>
    <longitude>31.15</longitude>
  </city>
  <city name="Alaga">
    <latitude>13.2333333</latitude>
    <longitude>30.9333333</longitude>
  </city>
  <city name="Al Agharr">
    <latitude>13.4833333</latitude>
    <longitude>34.95</longitude>
  </city>
  <city name="Al Ahamidah">
    <latitude>14.8333333</latitude>
    <longitude>33.55</longitude>
  </city>
  <city name="Al Ait">
    <latitude>12.3666667</latitude>
    <longitude>27.45</longitude>
  </city>
  <city name="Alaitoi">
    <latitude>7.2091667</latitude>
    <longitude>29.4330556</longitude>
  </city>
  <city name="Alak">
    <latitude>8.1666667</latitude>
    <longitude>28.5333333</longitude>
  </city>
  <city name="Al Akhdar">
    <latitude>10.55</latitude>
    <longitude>25.1666667</longitude>
  </city>
  <city name="Al `Alali">
    <latitude>11.9</latitude>
    <longitude>32.9666667</longitude>
  </city>
  <city name="Al `Alaqah">
    <latitude>14.1166667</latitude>
    <longitude>32.7666667</longitude>
  </city>
  <city name="`Alali">
    <latitude>11.2833333</latitude>
    <longitude>30.2166667</longitude>
  </city>
  <city name="Al `Alim">
    <latitude>11.8666667</latitude>
    <longitude>27.0833333</longitude>
  </city>
  <city name="Al `Amarah">
    <latitude>14.05</latitude>
    <longitude>32.9666667</longitude>
  </city>
  <city name="Al `Amarin">
    <latitude>19.15</latitude>
    <longitude>32.5666667</longitude>
  </city>
  <city name="Al Amin">
    <latitude>10.4166667</latitude>
    <longitude>33.1666667</longitude>
  </city>
  <city name="Alan">
    <latitude>9.0666667</latitude>
    <longitude>27.1166667</longitude>
  </city>
  <city name="Alanga">
    <latitude>7.7166667</latitude>
    <longitude>33.0666667</longitude>
  </city>
  <city name="Alangalang">
    <latitude>10.0</latitude>
    <longitude>29.9666667</longitude>
  </city>
  <city name="Alangari">
    <latitude>8.2333333</latitude>
    <longitude>26.9</longitude>
  </city>
  <city name="`Alaqa">
    <latitude>14.1166667</latitude>
    <longitude>32.7666667</longitude>
  </city>
  <city name="Al Aqadah">
    <latitude>16.8394444</latitude>
    <longitude>33.5994444</longitude>
  </city>
  <city name="Al `Aradeiba Jazirah">
    <latitude>13.4166667</latitude>
    <longitude>34.0333333</longitude>
  </city>
  <city name="Al `Ara'ish">
    <latitude>9.65</latitude>
    <longitude>30.8666667</longitude>
  </city>
  <city name="Al Arak">
    <latitude>18.2</latitude>
    <longitude>31.6166667</longitude>
  </city>
  <city name="Al `Arid">
    <latitude>13.5666667</latitude>
    <longitude>34.8166667</longitude>
  </city>
  <city name="Al `Aris">
    <latitude>10.8</latitude>
    <longitude>25.7666667</longitude>
  </city>
  <city name="Al Arki">
    <latitude>18.1166667</latitude>
    <longitude>31.5333333</longitude>
  </city>
  <city name="Al `Arqan">
    <latitude>13.5166667</latitude>
    <longitude>29.2666667</longitude>
  </city>
  <city name="Al `Arshah">
    <latitude>13.8666667</latitude>
    <longitude>31.3166667</longitude>
  </city>
  <city name="Al `Ataya">
    <latitude>14.1666667</latitude>
    <longitude>33.5</longitude>
  </city>
  <city name="Al `Atrun">
    <latitude>18.1833333</latitude>
    <longitude>26.6</longitude>
  </city>
  <city name="Al `Awadi">
    <latitude>17.1</latitude>
    <longitude>34.75</longitude>
  </city>
  <city name="Al `Awaj">
    <latitude>14.0833333</latitude>
    <longitude>32.5833333</longitude>
  </city>
  <city name="Al `Awatib">
    <latitude>16.55</latitude>
    <longitude>33.15</longitude>
  </city>
  <city name="Al `Aylafun">
    <latitude>15.4375</latitude>
    <longitude>32.7266667</longitude>
  </city>
  <city name="Al `Ayn">
    <latitude>12.3833333</latitude>
    <longitude>30.6166667</longitude>
  </city>
  <city name="Al `Azazah">
    <latitude>14.9833333</latitude>
    <longitude>32.8166667</longitude>
  </city>
  <city name="Al `Azazi">
    <latitude>14.4666667</latitude>
    <longitude>32.75</longitude>
  </city>
  <city name="Al Bah">
    <latitude>13.0166667</latitude>
    <longitude>31.9333333</longitude>
  </city>
  <city name="Al Bajah">
    <latitude>18.2333333</latitude>
    <longitude>30.7166667</longitude>
  </city>
  <city name="Al Bakri">
    <latitude>18.3833333</latitude>
    <longitude>30.7</longitude>
  </city>
  <city name="Al Baniya">
    <latitude>14.0166667</latitude>
    <longitude>33.2666667</longitude>
  </city>
  <city name="Al Baqer">
    <latitude>18.7</latitude>
    <longitude>33.6333333</longitude>
  </city>
  <city name="Al Baragna">
    <latitude>14.1</latitude>
    <longitude>33.1333333</longitude>
  </city>
  <city name="Al Bar">
    <latitude>18.1333333</latitude>
    <longitude>31.55</longitude>
  </city>
  <city name="Al Bardab">
    <latitude>11.2</latitude>
    <longitude>29.6327778</longitude>
  </city>
  <city name="Al Barsa'">
    <latitude>18.1333333</latitude>
    <longitude>31.5666667</longitude>
  </city>
  <city name="Al Barun">
    <latitude>11.7333333</latitude>
    <longitude>33.5</longitude>
  </city>
  <city name="Al Basa">
    <latitude>18.1666667</latitude>
    <longitude>31.6166667</longitude>
  </city>
  <city name="Al Basabir">
    <latitude>16.5211111</latitude>
    <longitude>32.9411111</longitude>
  </city>
  <city name="Al Bashiri">
    <latitude>13.8</latitude>
    <longitude>30.1833333</longitude>
  </city>
  <city name="Al Bashir Ibrahim">
    <latitude>14.0833333</latitude>
    <longitude>33.0333333</longitude>
  </city>
  <city name="Al Bauga">
    <latitude>18.2666667</latitude>
    <longitude>33.9166667</longitude>
  </city>
  <city name="Al Bayda'">
    <latitude>10.6833333</latitude>
    <longitude>25.5666667</longitude>
  </city>
  <city name="Al Bayli">
    <latitude>17.4652778</latitude>
    <longitude>34.1825</longitude>
  </city>
  <city name="Al Beiri">
    <latitude>10.5166667</latitude>
    <longitude>30.3</longitude>
  </city>
  <city name="Al Beniya">
    <latitude>13.2166667</latitude>
    <longitude>30.0166667</longitude>
  </city>
  <city name="Al Berdab">
    <latitude>11.2</latitude>
    <longitude>29.6327778</longitude>
  </city>
  <city name="Al Bi'r">
    <latitude>11.1833333</latitude>
    <longitude>34.95</longitude>
  </city>
  <city name="Al Biri">
    <latitude>15.0</latitude>
    <longitude>26.75</longitude>
  </city>
  <city name="Al Birkah">
    <latitude>12.3</latitude>
    <longitude>32.2833333</longitude>
  </city>
  <city name="Al Birri">
    <latitude>15.0</latitude>
    <longitude>26.75</longitude>
  </city>
  <city name="Al Budayriyah">
    <latitude>12.1333333</latitude>
    <longitude>31.2666667</longitude>
  </city>
  <city name="Al Buhayr">
    <latitude>14.1</latitude>
    <longitude>30.7666667</longitude>
  </city>
  <city name="Al Buqayr">
    <latitude>18.7</latitude>
    <longitude>33.6333333</longitude>
  </city>
  <city name="Al Buwaydah">
    <latitude>14.2666667</latitude>
    <longitude>33.7833333</longitude>
  </city>
  <city name="Al Byeara">
    <latitude>11.05</latitude>
    <longitude>30.1333333</longitude>
  </city>
  <city name="Al Cardud">
    <latitude>11.95</latitude>
    <longitude>30.4666667</longitude>
  </city>
  <city name="Al Dabbah">
    <latitude>18.05</latitude>
    <longitude>30.95</longitude>
  </city>
  <city name="Alego">
    <latitude>4.4338889</latitude>
    <longitude>32.1597222</longitude>
  </city>
  <city name="Al Eiwad">
    <latitude>12.4333333</latitude>
    <longitude>35.05</longitude>
  </city>
  <city name="Alek">
    <latitude>11.4</latitude>
    <longitude>32.7333333</longitude>
  </city>
  <city name="Al Elain">
    <latitude>12.3</latitude>
    <longitude>26.9166667</longitude>
  </city>
  <city name="Alel">
    <latitude>9.4444444</latitude>
    <longitude>31.6411111</longitude>
  </city>
  <city name="Alelpaich">
    <latitude>6.6</latitude>
    <longitude>30.4333333</longitude>
  </city>
  <city name="Alelychok">
    <latitude>7.7777778</latitude>
    <longitude>28.0033333</longitude>
  </city>
  <city name="Alerwey">
    <latitude>6.5358333</latitude>
    <longitude>30.4991667</longitude>
  </city>
  <city name="Al Eseilat">
    <latitude>13.1</latitude>
    <longitude>30.0833333</longitude>
  </city>
  <city name="Alet">
    <latitude>8.2333333</latitude>
    <longitude>29.0666667</longitude>
  </city>
  <city name="Al Fadgoba">
    <latitude>15.1</latitude>
    <longitude>32.7833333</longitude>
  </city>
  <city name="Al Fadlab">
    <latitude>17.7011111</latitude>
    <longitude>33.9486111</longitude>
  </city>
  <city name="Al Faei">
    <latitude>11.0333333</latitude>
    <longitude>26.4333333</longitude>
  </city>
  <city name="Al Fahada">
    <latitude>17.3791667</latitude>
    <longitude>34.3422222</longitude>
  </city>
  <city name="Al Fakharin">
    <latitude>12.5666667</latitude>
    <longitude>31.3</longitude>
  </city>
  <city name="Al Fallatah">
    <latitude>10.0666667</latitude>
    <longitude>30.75</longitude>
  </city>
  <city name="Al Fanadik">
    <latitude>12.7</latitude>
    <longitude>31.9666667</longitude>
  </city>
  <city name="Al Faqqusah">
    <latitude>14.4166667</latitude>
    <longitude>32.8</longitude>
  </city>
  <city name="Al Farajab">
    <latitude>15.2</latitude>
    <longitude>32.6333333</longitude>
  </city>
  <city name="Al Fa'r">
    <latitude>10.4666667</latitude>
    <longitude>25.0</longitude>
  </city>
  <city name="Al Fashashawyah">
    <latitude>13.4</latitude>
    <longitude>32.5833333</longitude>
  </city>
  <city name="Al Fashir">
    <latitude>13.6333333</latitude>
    <longitude>25.35</longitude>
  </city>
  <city name="Al Faw">
    <latitude>14.15</latitude>
    <longitude>34.3333333</longitude>
  </city>
  <city name="Al Fayd">
    <latitude>11.5166667</latitude>
    <longitude>31.1333333</longitude>
  </city>
  <city name="Al Fayj Hamadna Allah">
    <latitude>14.5</latitude>
    <longitude>33.5833333</longitude>
  </city>
  <city name="Al Fazaru">
    <latitude>14.95</latitude>
    <longitude>33.3666667</longitude>
  </city>
  <city name="Al Fifi">
    <latitude>10.05</latitude>
    <longitude>25.0166667</longitude>
  </city>
  <city name="Al Fil">
    <latitude>9.95</latitude>
    <longitude>34.0333333</longitude>
  </city>
  <city name="Al Fujayjah">
    <latitude>16.6558333</latitude>
    <longitude>33.2952778</longitude>
  </city>
  <city name="Al Fulah">
    <latitude>12.95</latitude>
    <longitude>31.95</longitude>
  </city>
  <city name="Al Fuqara'">
    <latitude>14.65</latitude>
    <longitude>33.3666667</longitude>
  </city>
  <city name="Al Furay`ah">
    <latitude>13.4833333</latitude>
    <longitude>30.7666667</longitude>
  </city>
  <city name="Al Furay`">
    <latitude>14.3833333</latitude>
    <longitude>30.6333333</longitude>
  </city>
  <city name="Al Furaykhah">
    <latitude>18.15</latitude>
    <longitude>33.9666667</longitude>
  </city>
  <city name="Al Gagad">
    <latitude>17.0833333</latitude>
    <longitude>34.85</longitude>
  </city>
  <city name="Al Galgala">
    <latitude>15.1391667</latitude>
    <longitude>33.0975</longitude>
  </city>
  <city name="Al Gana">
    <latitude>11.4</latitude>
    <longitude>34.9333333</longitude>
  </city>
  <city name="Al Ganaet">
    <latitude>19.25</latitude>
    <longitude>32.7166667</longitude>
  </city>
  <city name="Al Gara">
    <latitude>14.55</latitude>
    <longitude>33.55</longitude>
  </city>
  <city name="Al Garef">
    <latitude>12.05</latitude>
    <longitude>34.3166667</longitude>
  </city>
  <city name="Al Gebir">
    <latitude>13.7166667</latitude>
    <longitude>29.8166667</longitude>
  </city>
  <city name="Al Geda">
    <latitude>17.2894444</latitude>
    <longitude>34.4822222</longitude>
  </city>
  <city name="Al Geddara">
    <latitude>12.8666667</latitude>
    <longitude>32.2833333</longitude>
  </city>
  <city name="Al Gedul">
    <latitude>12.3166667</latitude>
    <longitude>32.35</longitude>
  </city>
  <city name="Al Ghabah">
    <latitude>18.1666667</latitude>
    <longitude>30.75</longitude>
  </city>
  <city name="Al Ghabsha">
    <latitude>12.9</latitude>
    <longitude>31.45</longitude>
  </city>
  <city name="Al Ghabshah">
    <latitude>12.9</latitude>
    <longitude>31.45</longitude>
  </city>
  <city name="Al Ghanamah">
    <latitude>12.3333333</latitude>
    <longitude>34.4666667</longitude>
  </city>
  <city name="Al Ghassiba">
    <latitude>12.7666667</latitude>
    <longitude>30.1833333</longitude>
  </city>
  <city name="Al Ghilah">
    <latitude>12.2333333</latitude>
    <longitude>32.2833333</longitude>
  </city>
  <city name="Al Ghubayshab">
    <latitude>13.6333333</latitude>
    <longitude>30.7833333</longitude>
  </city>
  <city name="Al Ghubshan">
    <latitude>14.05</latitude>
    <longitude>33.5</longitude>
  </city>
  <city name="Alghulfan">
    <latitude>11.7833333</latitude>
    <longitude>29.5666667</longitude>
  </city>
  <city name="Al Ghuraybah">
    <latitude>18.1333333</latitude>
    <longitude>31.5833333</longitude>
  </city>
  <city name="Al Ghurayb">
    <latitude>19.4166667</latitude>
    <longitude>33.3333333</longitude>
  </city>
  <city name="Al Ghurayd">
    <latitude>14.0666667</latitude>
    <longitude>30.6166667</longitude>
  </city>
  <city name="Al Gilei Awlad Nafi">
    <latitude>17.3616667</latitude>
    <longitude>34.3638889</longitude>
  </city>
  <city name="Al Gilein">
    <latitude>17.425</latitude>
    <longitude>34.2244444</longitude>
  </city>
  <city name="Al Gowez">
    <latitude>17.3222222</latitude>
    <longitude>34.4361111</longitude>
  </city>
  <city name="Al-Gôz">
    <latitude>16.6166667</latitude>
    <longitude>33.25</longitude>
  </city>
  <city name="Al Gulishan">
    <latitude>14.2333333</latitude>
    <longitude>33.3166667</longitude>
  </city>
  <city name="Al Gureif">
    <latitude>16.54</latitude>
    <longitude>33.0427778</longitude>
  </city>
  <city name="Al Guroh">
    <latitude>10.8666667</latitude>
    <longitude>32.3333333</longitude>
  </city>
  <city name="Al Gurra`a `Abd al Ghani">
    <latitude>15.1405556</latitude>
    <longitude>33.5327778</longitude>
  </city>
  <city name="Al Guruna">
    <latitude>13.8666667</latitude>
    <longitude>32.1333333</longitude>
  </city>
  <city name="Al Guweir">
    <latitude>16.7758333</latitude>
    <longitude>33.5230556</longitude>
  </city>
  <city name="Al Gyuddul">
    <latitude>11.0333333</latitude>
    <longitude>25.2166667</longitude>
  </city>
  <city name="Al Habilah">
    <latitude>11.9166667</latitude>
    <longitude>33.0</longitude>
  </city>
  <city name="Al Hadabah">
    <latitude>14.7166667</latitude>
    <longitude>33.5166667</longitude>
  </city>
  <city name="Al Hafirah">
    <latitude>19.0833333</latitude>
    <longitude>33.6</longitude>
  </city>
  <city name="Al Hagab">
    <latitude>14.45</latitude>
    <longitude>33.0333333</longitude>
  </city>
  <city name="Al Hagagia">
    <latitude>14.1</latitude>
    <longitude>31.05</longitude>
  </city>
  <city name="Al Hageina">
    <latitude>14.3166667</latitude>
    <longitude>31.15</longitude>
  </city>
  <city name="Al Hageina as Suq">
    <latitude>13.05</latitude>
    <longitude>31.6166667</longitude>
  </city>
  <city name="Al Hajalij">
    <latitude>14.6</latitude>
    <longitude>31.9</longitude>
  </city>
