<?xml version="1.0" encoding="UTF-8"?>
<country code="sl" name="Sierra Leone">
  <city name="Aberdeen">
    <latitude>8.4925</latitude>
    <longitude>-13.2844444</longitude>
  </city>
  <city name="Adonkia">
    <latitude>8.4166667</latitude>
    <longitude>-13.2686111</longitude>
  </city>
  <city name="Aku Town">
    <latitude>8.6638889</latitude>
    <longitude>-13.1880556</longitude>
  </city>
  <city name="Alikalia">
    <latitude>9.1666667</latitude>
    <longitude>-11.4</longitude>
  </city>
  <city name="Allen Town">
    <latitude>8.4136111</latitude>
    <longitude>-13.1602778</longitude>
  </city>
  <city name="Amaria">
    <latitude>8.7302778</latitude>
    <longitude>-13.1905556</longitude>
  </city>
  <city name="Angola">
    <latitude>8.4119444</latitude>
    <longitude>-13.265</longitude>
  </city>
  <city name="Angola Town">
    <latitude>8.4119444</latitude>
    <longitude>-13.265</longitude>
  </city>
  <city name="Baama">
    <latitude>8.1880556</latitude>
    <longitude>-10.3461111</longitude>
  </city>
  <city name="Baba">
    <latitude>7.3069444</latitude>
    <longitude>-12.2219444</longitude>
  </city>
  <city name="Babahun">
    <latitude>8.05</latitude>
    <longitude>-10.9333333</longitude>
  </city>
  <city name="Babakalia">
    <latitude>9.35</latitude>
    <longitude>-11.95</longitude>
  </city>
  <city name="Babalahun">
    <latitude>7.9883333</latitude>
    <longitude>-11.3275</longitude>
  </city>
  <city name="Babawahun">
    <latitude>7.9883333</latitude>
    <longitude>-11.3275</longitude>
  </city>
  <city name="Babu">
    <latitude>7.4455556</latitude>
    <longitude>-12.46</longitude>
  </city>
  <city name="Babura">
    <latitude>8.9833333</latitude>
    <longitude>-11.5833333</longitude>
  </city>
  <city name="Baburo">
    <latitude>9.0333333</latitude>
    <longitude>-10.9166667</longitude>
  </city>
  <city name="Bachalo">
    <latitude>7.5947222</latitude>
    <longitude>-12.8588889</longitude>
  </city>
  <city name="Bada">
    <latitude>8.4666667</latitude>
    <longitude>-10.7</longitude>
  </city>
  <city name="Badi">
    <latitude>9.1666667</latitude>
    <longitude>-12.4333333</longitude>
  </city>
  <city name="Badja">
    <latitude>8.3666667</latitude>
    <longitude>-11.5333333</longitude>
  </city>
  <city name="Bado">
    <latitude>8.0</latitude>
    <longitude>-11.2833333</longitude>
  </city>
  <city name="Badugula">
    <latitude>9.9</latitude>
    <longitude>-12.2166667</longitude>
  </city>
  <city name="Bafawahun">
    <latitude>7.7166667</latitude>
    <longitude>-11.3</longitude>
  </city>
  <city name="Bafehun">
    <latitude>7.8833333</latitude>
    <longitude>-10.9166667</longitude>
  </city>
  <city name="Bafodia">
    <latitude>9.6833333</latitude>
    <longitude>-11.7333333</longitude>
  </city>
  <city name="Bafodu">
    <latitude>8.7166667</latitude>
    <longitude>-10.6166667</longitude>
  </city>
  <city name="Baga">
    <latitude>8.7166667</latitude>
    <longitude>-11.5666667</longitude>
  </city>
  <city name="Bagahun">
    <latitude>9.35</latitude>
    <longitude>-11.9833333</longitude>
  </city>
  <city name="Bagayima">
    <latitude>8.65</latitude>
    <longitude>-10.7166667</longitude>
  </city>
  <city name="Bagbamma">
    <latitude>8.3322222</latitude>
    <longitude>-13.0180556</longitude>
  </city>
  <city name="Bagbe">
    <latitude>7.3833333</latitude>
    <longitude>-11.2</longitude>
  </city>
  <city name="Bagbema">
    <latitude>8.7</latitude>
    <longitude>-11.25</longitude>
  </city>
  <city name="Bagbwema">
    <latitude>8.15</latitude>
    <longitude>-12.15</longitude>
  </city>
  <city name="Bagemba">
    <latitude>8.7</latitude>
    <longitude>-11.25</longitude>
  </city>
  <city name="Baha">
    <latitude>7.5091667</latitude>
    <longitude>-12.3183333</longitude>
  </city>
  <city name="Bahal">
    <latitude>7.5319444</latitude>
    <longitude>-12.0169444</longitude>
  </city>
  <city name="Bahama">
    <latitude>7.5888889</latitude>
    <longitude>-11.0663889</longitude>
  </city>
  <city name="Bahol">
    <latitude>7.5277778</latitude>
    <longitude>-12.0308333</longitude>
  </city>
  <city name="Baia">
    <latitude>8.6572222</latitude>
    <longitude>-13.1944444</longitude>
  </city>
  <city name="Baiama">
    <latitude>7.6666667</latitude>
    <longitude>-11.3333333</longitude>
  </city>
  <city name="Baiame">
    <latitude>8.5166667</latitude>
    <longitude>-10.9666667</longitude>
  </city>
  <city name="Baiawa">
    <latitude>7.4166667</latitude>
    <longitude>-11.7166667</longitude>
  </city>
  <city name="Baiawaindu">
    <latitude>8.9833333</latitude>
    <longitude>-11.0333333</longitude>
  </city>
  <city name="Baibunda">
    <latitude>8.8833333</latitude>
    <longitude>-12.3</longitude>
  </city>
  <city name="Baidu">
    <latitude>8.5</latitude>
    <longitude>-11.05</longitude>
  </city>
  <city name="Baiima">
    <latitude>7.9002778</latitude>
    <longitude>-10.9297222</longitude>
  </city>
  <city name="Bainaru">
    <latitude>8.1666667</latitude>
    <longitude>-10.6666667</longitude>
  </city>
  <city name="Baine">
    <latitude>8.4991667</latitude>
    <longitude>-13.0663889</longitude>
  </city>
  <city name="Baiwala">
    <latitude>7.9941667</latitude>
    <longitude>-10.6475</longitude>
  </city>
  <city name="Bajibo">
    <latitude>8.1</latitude>
    <longitude>-10.8</longitude>
  </city>
  <city name="Baka">
    <latitude>7.8436111</latitude>
    <longitude>-11.4661111</longitude>
  </city>
  <city name="Bakaia">
    <latitude>9.3666667</latitude>
    <longitude>-11.25</longitude>
  </city>
  <city name="Bakando">
    <latitude>8.95</latitude>
    <longitude>-10.7833333</longitude>
  </city>
  <city name="Bake">
    <latitude>8.9166667</latitude>
    <longitude>-11.9166667</longitude>
  </city>
  <city name="Bakebana">
    <latitude>8.4030556</latitude>
    <longitude>-13.0738889</longitude>
  </city>
  <city name="Bakedu">
    <latitude>8.6666667</latitude>
    <longitude>-11.15</longitude>
  </city>
  <city name="Bakelimri">
    <latitude>8.85</latitude>
    <longitude>-13.0847222</longitude>
  </city>
  <city name="Bake Loko">
    <latitude>8.4</latitude>
    <longitude>-12.3</longitude>
  </city>
  <city name="Bake Mamule">
    <latitude>8.4666667</latitude>
    <longitude>-12.9166667</longitude>
  </city>
  <city name="Bakinia">
    <latitude>8.7452778</latitude>
    <longitude>-13.165</longitude>
  </city>
  <city name="Baknya">
    <latitude>8.5</latitude>
    <longitude>-11.15</longitude>
  </city>
  <city name="Bakodu">
    <latitude>8.6166667</latitude>
    <longitude>-10.55</longitude>
  </city>
  <city name="Bakolo">
    <latitude>8.72</latitude>
    <longitude>-13.0641667</longitude>
  </city>
  <city name="Bakuidu">
    <latitude>8.85</latitude>
    <longitude>-10.9</longitude>
  </city>
  <city name="Bakuya">
    <latitude>8.5</latitude>
    <longitude>-11.15</longitude>
  </city>
  <city name="Balahun">
    <latitude>8.2533333</latitude>
    <longitude>-10.4916667</longitude>
  </city>
  <city name="Balalo">
    <latitude>7.4833333</latitude>
    <longitude>-12.5166667</longitude>
  </city>
  <city name="Balamuya">
    <latitude>9.1666667</latitude>
    <longitude>-12.95</longitude>
  </city>
  <city name="Balandugu">
    <latitude>9.6666667</latitude>
    <longitude>-11.5666667</longitude>
  </city>
  <city name="Balansera">
    <latitude>8.9158333</latitude>
    <longitude>-13.1794444</longitude>
  </city>
  <city name="Balantin">
    <latitude>8.1</latitude>
    <longitude>-12.7666667</longitude>
  </city>
  <city name="Balea">
    <latitude>8.9</latitude>
    <longitude>-11.45</longitude>
  </city>
  <city name="Bale">
    <latitude>9.2</latitude>
    <longitude>-10.7666667</longitude>
  </city>
  <city name="Balentakura">
    <latitude>9.8</latitude>
    <longitude>-12.3333333</longitude>
  </city>
  <city name="Balia">
    <latitude>8.9166667</latitude>
    <longitude>-11.7333333</longitude>
  </city>
  <city name="Bali">
    <latitude>8.85</latitude>
    <longitude>-13.1</longitude>
  </city>
  <city name="Balinia">
    <latitude>8.65</latitude>
    <longitude>-12.6</longitude>
  </city>
  <city name="Ballo Wharf">
    <latitude>8.8341667</latitude>
    <longitude>-13.2333333</longitude>
  </city>
  <city name="Balo">
    <latitude>7.4763889</latitude>
    <longitude>-12.3419444</longitude>
  </city>
  <city name="Balu">
    <latitude>8.3</latitude>
    <longitude>-10.6166667</longitude>
  </city>
  <city name="Bamabalia">
    <latitude>8.9166667</latitude>
    <longitude>-11.5</longitude>
  </city>
  <city name="Bama">
    <latitude>7.1713889</latitude>
    <longitude>-11.4036111</longitude>
  </city>
  <city name="Bamaia">
    <latitude>8.9666667</latitude>
    <longitude>-11.45</longitude>
  </city>
  <city name="Bamandu">
    <latitude>8.65</latitude>
    <longitude>-10.5833333</longitude>
  </city>
  <city name="Bamanjama">
    <latitude>8.3</latitude>
    <longitude>-11.5</longitude>
  </city>
  <city name="Bamata">
    <latitude>7.5166667</latitude>
    <longitude>-11.6333333</longitude>
  </city>
  <city name="Bamayama">
    <latitude>7.6</latitude>
    <longitude>-11.0833333</longitude>
  </city>
  <city name="Bamba">
    <latitude>8.3333333</latitude>
    <longitude>-10.3333333</longitude>
  </city>
  <city name="Bambaia">
    <latitude>8.9616667</latitude>
    <longitude>-13.1605556</longitude>
  </city>
  <city name="Bambakalia">
    <latitude>9.2666667</latitude>
    <longitude>-11.3333333</longitude>
  </city>
  <city name="Bambako">
    <latitude>7.3525</latitude>
    <longitude>-11.3641667</longitude>
  </city>
  <city name="Bambali">
    <latitude>8.6161111</latitude>
    <longitude>-13.1477778</longitude>
  </city>
  <city name="Bambara">
    <latitude>8.3166667</latitude>
    <longitude>-11.35</longitude>
  </city>
  <city name="Bambarakalima">
    <latitude>8.4666667</latitude>
    <longitude>-11.3333333</longitude>
  </city>
  <city name="Bambawo">
    <latitude>8.0</latitude>
    <longitude>-11.1166667</longitude>
  </city>
  <city name="Bambaworo">
    <latitude>8.3333333</latitude>
    <longitude>-12.35</longitude>
  </city>
  <city name="Bambayiraia">
    <latitude>8.8</latitude>
    <longitude>-11.4</longitude>
  </city>
  <city name="Bambe">
    <latitude>7.5113889</latitude>
    <longitude>-12.5502778</longitude>
  </city>
  <city name="Bambisu">
    <latitude>8.2</latitude>
    <longitude>-10.35</longitude>
  </city>
  <city name="Bamboria">
    <latitude>9.2333333</latitude>
    <longitude>-10.8666667</longitude>
  </city>
  <city name="Bambu">
    <latitude>9.5166667</latitude>
    <longitude>-11.5833333</longitude>
  </city>
  <city name="Bambugu">
    <latitude>9.4833333</latitude>
    <longitude>-11.5166667</longitude>
  </city>
  <city name="Bambuibu">
    <latitude>7.9188889</latitude>
    <longitude>-12.665</longitude>
  </city>
  <city name="Bambukoro">
    <latitude>9.55</latitude>
    <longitude>-11.4</longitude>
  </city>
  <city name="Bambuya">
    <latitude>9.3666667</latitude>
    <longitude>-11.35</longitude>
  </city>
  <city name="Bamfira">
    <latitude>8.7833333</latitude>
    <longitude>-11.6166667</longitude>
  </city>
  <city name="Bammbatuk">
    <latitude>8.3455556</latitude>
    <longitude>-13.2333333</longitude>
  </city>
  <city name="Bamoi">
    <latitude>9.0833333</latitude>
    <longitude>-12.75</longitude>
  </city>
  <city name="Bana">
    <latitude>8.9</latitude>
    <longitude>-13.0</longitude>
  </city>
  <city name="Banahu">
    <latitude>8.1</latitude>
    <longitude>-11.3</longitude>
  </city>
  <city name="Banahun">
    <latitude>8.1</latitude>
    <longitude>-10.7166667</longitude>
  </city>
  <city name="Banale">
    <latitude>7.4833333</latitude>
    <longitude>-11.85</longitude>
  </city>
  <city name="Banbut">
    <latitude>8.3666667</latitude>
    <longitude>-12.45</longitude>
  </city>
  <city name="Banda">
    <latitude>8.0666667</latitude>
    <longitude>-11.25</longitude>
  </city>
  <city name="Banda Bulima">
    <latitude>8.2833333</latitude>
    <longitude>-11.0333333</longitude>
  </city>
  <city name="Bandaia">
    <latitude>8.85</latitude>
    <longitude>-11.2833333</longitude>
  </city>
  <city name="Bandajama">
    <latitude>7.5744444</latitude>
    <longitude>-11.6525</longitude>
  </city>
  <city name="Bandajuma">
    <latitude>7.7219444</latitude>
    <longitude>-10.8575</longitude>
  </city>
  <city name="Bandakarafaia">
    <latitude>9.2666667</latitude>
    <longitude>-11.2</longitude>
  </city>
  <city name="Bandako">
    <latitude>8.6833333</latitude>
    <longitude>-10.55</longitude>
  </city>
  <city name="Bandakoro">
    <latitude>8.4166667</latitude>
    <longitude>-10.35</longitude>
  </city>
  <city name="Bandalahun">
    <latitude>7.55</latitude>
    <longitude>-11.0</longitude>
  </city>
  <city name="Bandama">
    <latitude>8.3483333</latitude>
    <longitude>-10.3513889</longitude>
  </city>
  <city name="Bandankoro">
    <latitude>8.9333333</latitude>
    <longitude>-11.35</longitude>
  </city>
  <city name="Bandankunduma">
    <latitude>9.3833333</latitude>
    <longitude>-10.8833333</longitude>
  </city>
  <city name="Bandaru">
    <latitude>8.4666667</latitude>
    <longitude>-11.1</longitude>
  </city>
  <city name="Bandasa">
    <latitude>7.7088889</latitude>
    <longitude>-12.0547222</longitude>
  </city>
  <city name="Bandasuma">
    <latitude>8.5166667</latitude>
    <longitude>-10.7166667</longitude>
  </city>
  <city name="Bandawa">
    <latitude>7.9969444</latitude>
    <longitude>-11.7963889</longitude>
  </city>
  <city name="Bandi">
    <latitude>8.0666667</latitude>
    <longitude>-10.9833333</longitude>
  </city>
  <city name="Bandivulahun">
    <latitude>8.25</latitude>
    <longitude>-10.5666667</longitude>
  </city>
  <city name="Bandiworo">
    <latitude>8.1683333</latitude>
    <longitude>-10.3805556</longitude>
  </city>
  <city name="Bandko">
    <latitude>8.6166667</latitude>
    <longitude>-10.6833333</longitude>
  </city>
  <city name="Bandoma">
    <latitude>8.2333333</latitude>
    <longitude>-10.4833333</longitude>
  </city>
  <city name="Bane">
    <latitude>8.85</latitude>
    <longitude>-12.6166667</longitude>
  </city>
  <city name="Banfele">
    <latitude>9.2833333</latitude>
    <longitude>-10.9333333</longitude>
  </city>
  <city name="Bangabu">
    <latitude>8.2333333</latitude>
    <longitude>-11.1666667</longitude>
  </city>
  <city name="Bangagolehun">
    <latitude>8.1177778</latitude>
    <longitude>-12.7166667</longitude>
  </city>
  <city name="Banga Ground">
    <latitude>8.2575</latitude>
    <longitude>-13.0186111</longitude>
  </city>
  <city name="Bangahun">
    <latitude>9.15</latitude>
    <longitude>-12.1333333</longitude>
  </city>
  <city name="Bangalo">
    <latitude>7.825</latitude>
    <longitude>-12.4022222</longitude>
  </city>
  <city name="Bangawilli">
    <latitude>8.2833333</latitude>
    <longitude>-12.9666667</longitude>
  </city>
  <city name="Bangba">
    <latitude>7.9166667</latitude>
    <longitude>-12.1666667</longitude>
  </city>
  <city name="Bangbalia">
    <latitude>7.5666667</latitude>
    <longitude>-11.9</longitude>
  </city>
  <city name="Bangbama">
    <latitude>8.2486111</latitude>
    <longitude>-12.3336111</longitude>
  </city>
  <city name="Bangbema">
    <latitude>8.25</latitude>
    <longitude>-12.5833333</longitude>
  </city>
  <city name="Bangema">
    <latitude>7.6666667</latitude>
    <longitude>-11.2833333</longitude>
  </city>
  <city name="Bango">
    <latitude>7.4866667</latitude>
    <longitude>-12.5811111</longitude>
  </city>
  <city name="Bangoma">
    <latitude>7.2241667</latitude>
    <longitude>-11.8405556</longitude>
  </city>
  <city name="Banguema">
    <latitude>8.9833333</latitude>
    <longitude>-12.1333333</longitude>
  </city>
  <city name="Bangulihun">
    <latitude>7.3166667</latitude>
    <longitude>-11.2333333</longitude>
  </city>
  <city name="Banguru">
    <latitude>8.8666667</latitude>
    <longitude>-12.5666667</longitude>
  </city>
  <city name="Bangwama">
    <latitude>8.4833333</latitude>
    <longitude>-11.3833333</longitude>
  </city>
  <city name="Bani">
    <latitude>9.1333333</latitude>
    <longitude>-12.4833333</longitude>
  </city>
  <city name="Banjala">
    <latitude>7.9925</latitude>
    <longitude>-11.3422222</longitude>
  </city>
  <city name="Banjema">
    <latitude>8.45</latitude>
    <longitude>-11.5333333</longitude>
  </city>
  <city name="Banjuguya">
    <latitude>9.9166667</latitude>
    <longitude>-11.2166667</longitude>
  </city>
  <city name="Banka">
    <latitude>8.5333333</latitude>
    <longitude>-12.4833333</longitude>
  </city>
  <city name="Bankafu">
    <latitude>8.3166667</latitude>
    <longitude>-12.4</longitude>
  </city>
  <city name="Bankanbaia">
    <latitude>8.8166667</latitude>
    <longitude>-11.1666667</longitude>
  </city>
  <city name="Bankoro">
    <latitude>9.6166667</latitude>
    <longitude>-11.5166667</longitude>
  </city>
  <city name="Banoajuma">
    <latitude>8.0333333</latitude>
    <longitude>-11.0166667</longitude>
  </city>
  <city name="Bantania">
    <latitude>9.8666667</latitude>
    <longitude>-11.4833333</longitude>
  </city>
  <city name="Bantantia">
    <latitude>9.8666667</latitude>
    <longitude>-11.4833333</longitude>
  </city>
  <city name="Bantele">
    <latitude>9.2833333</latitude>
    <longitude>-10.9333333</longitude>
  </city>
  <city name="Bantoro">
    <latitude>8.8833333</latitude>
    <longitude>-12.8</longitude>
  </city>
  <city name="Banyamahun">
    <latitude>8.2333333</latitude>
    <longitude>-11.4333333</longitude>
  </city>
  <city name="Baoma">
    <latitude>7.7058333</latitude>
    <longitude>-11.2033333</longitude>
  </city>
  <city name="Baomahun">
    <latitude>8.1833333</latitude>
    <longitude>-10.7833333</longitude>
  </city>
  <city name="Baomo">
    <latitude>7.9294444</latitude>
    <longitude>-11.4386111</longitude>
  </city>
  <city name="Baona">
    <latitude>8.7666667</latitude>
    <longitude>-11.2166667</longitude>
  </city>
  <city name="Bap">
    <latitude>7.3763889</latitude>
    <longitude>-12.2616667</longitude>
  </city>
  <city name="Bapi">
    <latitude>8.3333333</latitude>
    <longitude>-11.4166667</longitude>
  </city>
  <city name="Baponto">
    <latitude>8.2816667</latitude>
    <longitude>-13.0669444</longitude>
  </city>
  <city name="Bapuya">
    <latitude>9.0</latitude>
    <longitude>-13.1166667</longitude>
  </city>
  <city name="Barabara">
    <latitude>9.1666667</latitude>
    <longitude>-12.1666667</longitude>
  </city>
  <city name="Baradu">
    <latitude>8.3</latitude>
    <longitude>-10.3</longitude>
  </city>
  <city name="Baraka">
    <latitude>7.72</latitude>
    <longitude>-11.2244444</longitude>
  </city>
  <city name="Barawakomoia">
    <latitude>9.3833333</latitude>
    <longitude>-11.3</longitude>
  </city>
  <city name="Bar">
    <latitude>8.9333333</latitude>
    <longitude>-11.9666667</longitude>
  </city>
  <city name="Barbara">
    <latitude>8.8333333</latitude>
    <longitude>-13.1333333</longitude>
  </city>
  <city name="Barbo">
    <latitude>7.3763889</latitude>
    <longitude>-12.2616667</longitude>
  </city>
  <city name="Bare">
    <latitude>8.9333333</latitude>
    <longitude>-11.8666667</longitude>
  </city>
  <city name="Barema">
    <latitude>8.05</latitude>
    <longitude>-12.0</longitude>
  </city>
  <city name="Baremakha">
    <latitude>9.6333333</latitude>
    <longitude>-12.4833333</longitude>
  </city>
  <city name="Barengin">
    <latitude>8.5333333</latitude>
    <longitude>-12.3333333</longitude>
  </city>
  <city name="Bareta">
    <latitude>9.8333333</latitude>
    <longitude>-12.2833333</longitude>
  </city>
  <city name="Bari">
    <latitude>8.3666667</latitude>
    <longitude>-12.6333333</longitude>
  </city>
  <city name="Barimbe">
    <latitude>8.5666667</latitude>
    <longitude>-12.6166667</longitude>
  </city>
  <city name="Barimbi">
    <latitude>8.4166667</latitude>
    <longitude>-11.85</longitude>
  </city>
  <city name="Barinyin">
    <latitude>8.5333333</latitude>
    <longitude>-12.3333333</longitude>
  </city>
  <city name="Barlo">
    <latitude>8.8177778</latitude>
    <longitude>-13.2355556</longitude>
  </city>
  <city name="Barlo Wharf">
    <latitude>8.8341667</latitude>
    <longitude>-13.2333333</longitude>
  </city>
  <city name="Barma">
    <latitude>8.35</latitude>
    <longitude>-11.3333333</longitude>
  </city>
  <city name="Barmoi">
    <latitude>8.9833333</latitude>
    <longitude>-12.6333333</longitude>
  </city>
  <city name="Barmouth">
    <latitude>8.2333333</latitude>
    <longitude>-12.8166667</longitude>
  </city>
  <city name="Barve">
    <latitude>8.0333333</latitude>
    <longitude>-10.9833333</longitude>
  </city>
  <city name="Basa">
    <latitude>9.3333333</latitude>
    <longitude>-12.5666667</longitude>
  </city>
  <city name="Basaiya">
    <latitude>8.95</latitude>
    <longitude>-11.7666667</longitude>
  </city>
  <city name="Basale">
    <latitude>7.3166667</latitude>
    <longitude>-11.8</longitude>
  </city>
  <city name="Basama">
    <latitude>8.3833333</latitude>
    <longitude>-11.7166667</longitude>
  </city>
  <city name="Basaya">
    <latitude>8.8666667</latitude>
    <longitude>-11.65</longitude>
  </city>
  <city name="Basea">
    <latitude>8.5333333</latitude>
    <longitude>-11.2166667</longitude>
  </city>
  <city name="Basia">
    <latitude>8.5666667</latitude>
    <longitude>-11.5</longitude>
  </city>
  <city name="Bassa">
    <latitude>8.4388889</latitude>
    <longitude>-13.1844444</longitude>
  </city>
  <city name="Bassu Town">
    <latitude>8.325</latitude>
    <longitude>-13.0661111</longitude>
  </city>
  <city name="Batahol">
    <latitude>7.3455556</latitude>
    <longitude>-11.8752778</longitude>
  </city>
  <city name="Batama">
    <latitude>8.3166667</latitude>
    <longitude>-12.9666667</longitude>
  </city>
  <city name="Batawahun">
    <latitude>7.7166667</latitude>
    <longitude>-11.3</longitude>
  </city>
  <city name="Batbai">
    <latitude>8.1833333</latitude>
    <longitude>-12.9166667</longitude>
  </city>
  <city name="Batbal">
    <latitude>8.1833333</latitude>
    <longitude>-12.9166667</longitude>
  </city>
  <city name="Batbana">
    <latitude>8.3333333</latitude>
    <longitude>-12.45</longitude>
  </city>
  <city name="Bate">
    <latitude>8.6166667</latitude>
    <longitude>-10.6833333</longitude>
  </city>
  <city name="Batema">
    <latitude>8.0</latitude>
    <longitude>-11.7</longitude>
  </city>
  <city name="Bathurst">
    <latitude>8.4305556</latitude>
    <longitude>-13.1983333</longitude>
  </city>
  <city name="Batiema">
    <latitude>8.0833333</latitude>
    <longitude>-12.0833333</longitude>
  </city>
  <city name="Batiyema">
    <latitude>8.2</latitude>
    <longitude>-10.8166667</longitude>
  </city>
  <city name="Batkanu">
    <latitude>9.0833333</latitude>
    <longitude>-12.4166667</longitude>
  </city>
  <city name="Batoma">
    <latitude>8.15</latitude>
    <longitude>-11.3</longitude>
  </city>
  <city name="Batoru">
    <latitude>7.85</latitude>
    <longitude>-11.0333333</longitude>
  </city>
  <city name="Batpela">
    <latitude>8.45</latitude>
    <longitude>-11.7833333</longitude>
  </city>
  <city name="Batpo">
    <latitude>8.3</latitude>
    <longitude>-12.6333333</longitude>
  </city>
  <city name="Batpulun">
    <latitude>8.7166667</latitude>
    <longitude>-12.7</longitude>
  </city>
  <city name="Batsint">
    <latitude>8.3833333</latitude>
    <longitude>-12.45</longitude>
  </city>
  <city name="Battam Town">
    <latitude>8.2525</latitude>
    <longitude>-13.0486111</longitude>
  </city>
  <city name="Batwoma">
    <latitude>8.1166667</latitude>
    <longitude>-10.5333333</longitude>
  </city>
  <city name="Baudu">
    <latitude>8.85</latitude>
    <longitude>-11.1333333</longitude>
  </city>
  <city name="Baula">
    <latitude>8.05</latitude>
    <longitude>-11.5333333</longitude>
  </city>
  <city name="Bauya">
    <latitude>7.6177778</latitude>
    <longitude>-12.0805556</longitude>
  </city>
  <city name="Bawa">
    <latitude>8.7333333</latitude>
    <longitude>-10.7</longitude>
  </city>
  <city name="Bawadu">
    <latitude>8.9833333</latitude>
    <longitude>-10.5833333</longitude>
  </city>
  <city name="Bawahun">
    <latitude>8.2333333</latitude>
    <longitude>-11.3166667</longitude>
  </city>
  <city name="Bawbaw">
    <latitude>8.3427778</latitude>
    <longitude>-13.2197222</longitude>
  </city>
  <city name="Baw-o-bu">
    <latitude>8.3333333</latitude>
    <longitude>-12.9833333</longitude>
  </city>
  <city name="Bawura">
    <latitude>7.9166667</latitude>
    <longitude>-11.7</longitude>
  </city>
  <city name="Bayama">
    <latitude>7.4166667</latitude>
    <longitude>-11.7166667</longitude>
  </city>
  <city name="Bedu">
    <latitude>8.3</latitude>
    <longitude>-10.35</longitude>
  </city>
  <city name="Bejorma">
    <latitude>8.2833333</latitude>
    <longitude>-11.2833333</longitude>
  </city>
  <city name="Beki">
    <latitude>8.5166667</latitude>
    <longitude>-12.5333333</longitude>
  </city>
  <city name="Beko">
    <latitude>8.6333333</latitude>
    <longitude>-10.9166667</longitude>
  </city>
  <city name="Bekolimri">
    <latitude>8.85</latitude>
    <longitude>-13.0847222</longitude>
  </city>
  <city name="Bekoro">
    <latitude>8.6333333</latitude>
    <longitude>-11.0666667</longitude>
  </city>
  <city name="Belbul">
    <latitude>7.5511111</latitude>
    <longitude>-12.8380556</longitude>
  </city>
  <city name="Bele">
    <latitude>7.8</latitude>
    <longitude>-12.6</longitude>
  </city>
  <city name="Belebu">
    <latitude>7.6066667</latitude>
    <longitude>-11.0391667</longitude>
  </city>
  <city name="Belforia">
    <latitude>9.6833333</latitude>
    <longitude>-10.9833333</longitude>
  </city>
  <city name="Belibap">
    <latitude>8.5333333</latitude>
    <longitude>-12.6166667</longitude>
  </city>
  <city name="Belihu">
    <latitude>8.1</latitude>
    <longitude>-11.15</longitude>
  </city>
  <city name="Belihun">
    <latitude>8.35</latitude>
    <longitude>-11.6</longitude>
  </city>
  <city name="Beliya">
    <latitude>7.6666667</latitude>
    <longitude>-11.3166667</longitude>
  </city>
  <city name="Belor">
    <latitude>7.95</latitude>
    <longitude>-11.95</longitude>
  </city>
  <city name="Belu">
    <latitude>7.8333333</latitude>
    <longitude>-11.3833333</longitude>
  </city>
  <city name="Bembe">
    <latitude>8.0833333</latitude>
    <longitude>-12.7166667</longitude>
  </city>
  <city name="Bembebu">
    <latitude>7.55</latitude>
    <longitude>-12.5333333</longitude>
  </city>
  <city name="Bembelo Giema">
    <latitude>7.7352778</latitude>
    <longitude>-12.7061111</longitude>
  </city>
  <city name="Bembelo Glema">
    <latitude>7.7352778</latitude>
    <longitude>-12.7061111</longitude>
  </city>
  <city name="Bembelo Njala">
    <latitude>7.7166667</latitude>
    <longitude>-12.7166667</longitude>
  </city>
  <city name="Bembeya">
    <latitude>7.7666667</latitude>
    <longitude>-12.3333333</longitude>
  </city>
  <city name="Bembeyema">
    <latitude>7.8666667</latitude>
    <longitude>-10.8666667</longitude>
  </city>
  <city name="Bemebu">
    <latitude>7.55</latitude>
    <longitude>-12.5333333</longitude>
  </city>
  <city name="Bempa">
    <latitude>7.1833333</latitude>
    <longitude>-11.7666667</longitude>
  </city>
  <city name="Bena">
    <latitude>9.1333333</latitude>
    <longitude>-12.8166667</longitude>
  </city>
  <city name="Benalu">
    <latitude>8.2666667</latitude>
    <longitude>-10.6166667</longitude>
  </city>
  <city name="Bendehun">
    <latitude>8.1833333</latitude>
    <longitude>-11.5</longitude>
  </city>
  <city name="Bendia">
    <latitude>9.5</latitude>
    <longitude>-12.6166667</longitude>
  </city>
  <city name="Bendu">
    <latitude>8.1</latitude>
    <longitude>-10.9833333</longitude>
  </city>
  <city name="Bendugu">
    <latitude>10.0</latitude>
    <longitude>-11.7666667</longitude>
  </city>
  <city name="Benduhun">
    <latitude>7.5833333</latitude>
    <longitude>-11.1666667</longitude>
  </city>
  <city name="Benduma">
    <latitude>8.0</latitude>
    <longitude>-10.8166667</longitude>
  </city>
  <city name="Benekoro">
    <latitude>9.6166667</latitude>
    <longitude>-11.4666667</longitude>
  </city>
  <city name="Benga">
    <latitude>7.3716667</latitude>
    <longitude>-11.7547222</longitude>
  </city>
  <city name="Bengani">
    <latitude>7.1755556</latitude>
    <longitude>-11.9033333</longitude>
  </city>
  <city name="Bengberia">
    <latitude>8.8666667</latitude>
    <longitude>-11.3166667</longitude>
  </city>
  <city name="Benge">
    <latitude>7.4213889</latitude>
    <longitude>-11.9672222</longitude>
  </city>
  <city name="Bengelo">
    <latitude>7.825</latitude>
    <longitude>-12.4022222</longitude>
  </city>
  <city name="Bengi">
    <latitude>7.4583333</latitude>
    <longitude>-11.66</longitude>
  </city>
  <city name="Bengomaia">
    <latitude>8.8833333</latitude>
    <longitude>-11.1166667</longitude>
  </city>
  <city name="Benguema">
    <latitude>8.3213889</latitude>
    <longitude>-13.0727778</longitude>
  </city>
  <city name="Bengwema">
    <latitude>8.3213889</latitude>
    <longitude>-13.0727778</longitude>
  </city>
  <city name="Benia">
    <latitude>9.6</latitude>
    <longitude>-11.6</longitude>
  </city>
  <city name="Benikoro">
    <latitude>9.2666667</latitude>
    <longitude>-11.5833333</longitude>
  </city>
  <city name="Benkai">
    <latitude>8.65</latitude>
    <longitude>-12.9</longitude>
  </city>
  <city name="Benke">
    <latitude>8.6363889</latitude>
    <longitude>-13.2213889</longitude>
  </city>
  <city name="Benkeh">
    <latitude>7.8302778</latitude>
    <longitude>-12.5380556</longitude>
  </city>
  <city name="Benkia">
    <latitude>8.55</latitude>
    <longitude>-12.6833333</longitude>
  </city>
  <city name="Benkisa">
    <latitude>7.4166667</latitude>
    <longitude>-11.95</longitude>
  </city>
  <city name="Benkisi">
    <latitude>8.3666667</latitude>
    <longitude>-10.3</longitude>
  </city>
  <city name="Benoko">
    <latitude>8.2333333</latitude>
    <longitude>-10.5</longitude>
  </city>
  <city name="Benti">
    <latitude>7.4833333</latitude>
    <longitude>-12.0666667</longitude>
  </city>
  <city name="Benyama">
    <latitude>7.25</latitude>
    <longitude>-11.2166667</longitude>
  </city>
  <city name="Beobu">
    <latitude>7.5558333</latitude>
    <longitude>-11.1797222</longitude>
  </city>
  <city name="Bepi">
    <latitude>7.7</latitude>
    <longitude>-11.8333333</longitude>
  </city>
  <city name="Bepon">
    <latitude>7.25</latitude>
    <longitude>-11.2833333</longitude>
  </city>
  <city name="Berebu">
    <latitude>8.1333333</latitude>
    <longitude>-11.3166667</longitude>
  </city>
  <city name="Berekhuri">
    <latitude>9.4</latitude>
    <longitude>-12.6</longitude>
  </city>
  <city name="Berembe">
    <latitude>8.4</latitude>
    <longitude>-11.45</longitude>
  </city>
  <city name="Berimbe">
    <latitude>8.5666667</latitude>
    <longitude>-12.6166667</longitude>
  </city>
  <city name="Besane">
    <latitude>8.7</latitude>
    <longitude>-12.5333333</longitude>
  </city>
  <city name="Besebu">
    <latitude>7.9</latitude>
    <longitude>-10.8166667</longitude>
  </city>
  <city name="Besenia">
    <latitude>9.2666667</latitude>
    <longitude>-11.45</longitude>
  </city>
  <city name="Beshebu">
    <latitude>8.25</latitude>
    <longitude>-11.1</longitude>
  </city>
  <city name="Betesu">
    <latitude>8.1833333</latitude>
    <longitude>-10.4333333</longitude>
  </city>
  <city name="Bevehun">
    <latitude>7.4527778</latitude>
    <longitude>-11.4986111</longitude>
  </city>
  <city name="Bewobu">
    <latitude>7.7833333</latitude>
    <longitude>-11.0166667</longitude>
  </city>
  <city name="Beyama">
    <latitude>8.2</latitude>
    <longitude>-10.7166667</longitude>
  </city>
  <city name="Beyambu">
    <latitude>9.9666667</latitude>
    <longitude>-11.3166667</longitude>
  </city>
  <city name="Beyima">
    <latitude>8.5333333</latitude>
    <longitude>-10.8333333</longitude>
  </city>
  <city name="Biama">
    <latitude>7.85</latitude>
    <longitude>-11.4666667</longitude>
  </city>
  <city name="Bibodu">
    <latitude>8.5</latitude>
    <longitude>-10.8</longitude>
  </city>
  <city name="Biki">
    <latitude>8.5166667</latitude>
    <longitude>-12.5333333</longitude>
  </city>
  <city name="Bikidu">
    <latitude>8.6666667</latitude>
    <longitude>-10.85</longitude>
  </city>
  <city name="Bilafu">
    <latitude>8.7005556</latitude>
    <longitude>-12.2461111</longitude>
  </city>
  <city name="Bilasilaia">
    <latitude>8.8833333</latitude>
    <longitude>-11.4333333</longitude>
  </city>
  <city name="Bilo">
    <latitude>7.4</latitude>
    <longitude>-12.55</longitude>
  </city>
  <city name="Bimaso">
    <latitude>7.05</latitude>
    <longitude>-11.5666667</longitude>
  </city>
  <city name="Bimbaia">
    <latitude>8.6586111</latitude>
    <longitude>-13.2013889</longitude>
  </city>
  <city name="Bimbaiya">
    <latitude>9.3833333</latitude>
    <longitude>-12.7333333</longitude>
  </city>
  <city name="Bimbaya">
    <latitude>9.3833333</latitude>
    <longitude>-12.7333333</longitude>
  </city>
  <city name="Bimbi">
    <latitude>7.5113889</latitude>
    <longitude>-12.5502778</longitude>
  </city>
  <city name="Bina">
    <latitude>8.6333333</latitude>
    <longitude>-12.35</longitude>
  </city>
  <city name="Bindalahun">
    <latitude>7.4333333</latitude>
    <longitude>-11.2333333</longitude>
  </city>
  <city name="Bindi">
    <latitude>9.9166667</latitude>
    <longitude>-11.45</longitude>
  </city>
  <city name="Bindika">
    <latitude>8.1666667</latitude>
    <longitude>-11.05</longitude>
  </city>
  <city name="Bindohun">
    <latitude>7.4563889</latitude>
    <longitude>-12.3216667</longitude>
  </city>
  <city name="Binkolo">
    <latitude>8.95</latitude>
    <longitude>-11.9833333</longitude>
  </city>
  <city name="Binni">
    <latitude>8.305</latitude>
    <longitude>-13.0580556</longitude>
  </city>
  <city name="Biradu">
    <latitude>9.5333333</latitude>
    <longitude>-11.0166667</longitude>
  </city>
  <city name="Biribaia">
    <latitude>9.8166667</latitude>
    <longitude>-11.1666667</longitude>
  </city>
  <city name="Birimba">
    <latitude>9.3</latitude>
    <longitude>-10.7166667</longitude>
  </city>
  <city name="Birun">
    <latitude>9.0833333</latitude>
    <longitude>-13.0166667</longitude>
  </city>
  <city name="Bisao">
    <latitude>7.4166667</latitude>
    <longitude>-11.8833333</longitude>
  </city>
  <city name="Bisawo">
    <latitude>7.6405556</latitude>
    <longitude>-12.1572222</longitude>
  </city>
  <city name="Bisibu">
    <latitude>8.1166667</latitude>
    <longitude>-11.8666667</longitude>
  </city>
  <city name="Bith">
    <latitude>7.8533333</latitude>
    <longitude>-12.7713889</longitude>
  </city>
  <city name="Bitima">
    <latitude>8.15</latitude>
    <longitude>-11.6833333</longitude>
  </city>
  <city name="Blama">
    <latitude>7.8736111</latitude>
    <longitude>-11.3433333</longitude>
  </city>
  <city name="Boaboabu">
    <latitude>7.8191667</latitude>
    <longitude>-11.1988889</longitude>
  </city>
  <city name="Boabu">
    <latitude>8.3</latitude>
    <longitude>-11.25</longitude>
  </city>
  <city name="Boaia">
    <latitude>8.5</latitude>
    <longitude>-11.1</longitude>
  </city>
  <city name="Boajibu">
    <latitude>8.1833333</latitude>
    <longitude>-11.3333333</longitude>
  </city>
  <city name="Boalakarafaia">
    <latitude>9.6166667</latitude>
    <longitude>-11.0</longitude>
  </city>
  <city name="Bobe">
    <latitude>7.5761111</latitude>
    <longitude>-12.6541667</longitude>
  </city>
  <city name="Bo">
    <latitude>7.9375</latitude>
    <longitude>-11.3463889</longitude>
  </city>
  <city name="Bobobu">
    <latitude>7.6208333</latitude>
    <longitude>-11.1875</longitude>
  </city>
  <city name="Bobo Gieya">
    <latitude>7.8161111</latitude>
    <longitude>-10.9663889</longitude>
  </city>
  <city name="Bobowahun">
    <latitude>7.9883333</latitude>
    <longitude>-11.3275</longitude>
  </city>
  <city name="Bodu">
    <latitude>8.4833333</latitude>
    <longitude>-10.75</longitude>
  </city>
  <city name="Bogbema">
    <latitude>7.9636111</latitude>
    <longitude>-10.6488889</longitude>
  </city>
  <city name="Bogboabu">
    <latitude>7.5922222</latitude>
    <longitude>-11.3080556</longitude>
  </city>
  <city name="Bogema">
    <latitude>7.9636111</latitude>
    <longitude>-10.6488889</longitude>
  </city>
  <city name="Bohehun">
    <latitude>8.3833333</latitude>
    <longitude>-11.65</longitude>
  </city>
  <city name="Bohekema">
    <latitude>7.9891667</latitude>
    <longitude>-10.6897222</longitude>
  </city>
  <city name="Bohoi">
    <latitude>8.1383333</latitude>
    <longitude>-12.1794444</longitude>
  </city>
  <city name="Bohol">
    <latitude>7.3958333</latitude>
    <longitude>-12.1075</longitude>
  </city>
  <city name="Bohun">
    <latitude>7.2833333</latitude>
    <longitude>-11.9</longitude>
  </city>
  <city name="Boikandu">
    <latitude>8.3013889</latitude>
    <longitude>-13.0330556</longitude>
  </city>
  <city name="Boisawlaw">
    <latitude>8.5166667</latitude>
    <longitude>-12.6</longitude>
  </city>
  <city name="Bokaria">
    <latitude>8.9930556</latitude>
    <longitude>-13.1211111</longitude>
  </city>
  <city name="Bokarikondea">
    <latitude>9.5166667</latitude>
    <longitude>-11.0</longitude>
  </city>
  <city name="Bokari Town">
    <latitude>8.2527778</latitude>
    <longitude>-13.0791667</longitude>
  </city>
  <city name="Bokeni">
    <latitude>8.0666667</latitude>
    <longitude>-11.35</longitude>
  </city>
  <city name="Boko">
    <latitude>8.35</latitude>
    <longitude>-10.4</longitude>
  </city>
  <city name="Bokolu">
    <latitude>8.4</latitude>
    <longitude>-10.6666667</longitude>
  </city>
  <city name="Bokuma">
    <latitude>8.3166667</latitude>
    <longitude>-11.65</longitude>
  </city>
  <city name="Boleyama">
    <latitude>8.1</latitude>
    <longitude>-11.2166667</longitude>
  </city>
  <city name="Bolia">
    <latitude>8.6666667</latitude>
    <longitude>-11.35</longitude>
  </city>
  <city name="Bolilahun">
    <latitude>7.8833333</latitude>
    <longitude>-10.8333333</longitude>
  </city>
  <city name="Bolilanun">
    <latitude>7.8833333</latitude>
    <longitude>-10.8333333</longitude>
  </city>
  <city name="Bololo">
    <latitude>8.7166667</latitude>
    <longitude>-10.5333333</longitude>
  </city>
  <city name="Boloma">
    <latitude>7.2347222</latitude>
    <longitude>-11.3911111</longitude>
  </city>
  <city name="Bolota">
    <latitude>9.8333333</latitude>
    <longitude>-12.1166667</longitude>
  </city>
  <city name="Boma">
    <latitude>8.6666667</latitude>
    <longitude>-10.95</longitude>
  </city>
  <city name="Bomahun">
    <latitude>8.2</latitude>
    <longitude>-12.1666667</longitude>
  </city>
  <city name="Bomaru">
    <latitude>8.0166667</latitude>
    <longitude>-10.6166667</longitude>
  </city>
  <city name="Bomatok">
    <latitude>7.5469444</latitude>
    <longitude>-12.6022222</longitude>
  </city>
  <city name="Bombadu">
    <latitude>8.6166667</latitude>
    <longitude>-10.8666667</longitude>
  </city>
  <city name="Bombalibana">
    <latitude>8.9666667</latitude>
    <longitude>-12.0333333</longitude>
  </city>
  <city name="Bombali">
    <latitude>8.9827778</latitude>
    <longitude>-13.1508333</longitude>
  </city>
  <city name="Bombe">
    <latitude>7.9</latitude>
    <longitude>-11.0333333</longitude>
  </city>
  <city name="Bomboafuidu">
    <latitude>8.6166667</latitude>
    <longitude>-11.2833333</longitude>
  </city>
  <city name="Bombo">
    <latitude>8.9833333</latitude>
    <longitude>-12.7833333</longitude>
  </city>
  <city name="Bombohun">
    <latitude>7.965</latitude>
    <longitude>-10.8336111</longitude>
  </city>
  <city name="Bomboima">
    <latitude>7.9166667</latitude>
    <longitude>-11.1333333</longitude>
  </city>
  <city name="Bom">
    <latitude>9.0833333</latitude>
    <longitude>-12.9</longitude>
  </city>
  <city name="Bomboma">
    <latitude>7.9</latitude>
    <longitude>-10.9666667</longitude>
  </city>
  <city name="Bomboru">
    <latitude>8.2333333</latitude>
    <longitude>-10.3666667</longitude>
  </city>
  <city name="Bomdei">
    <latitude>7.8836111</latitude>
    <longitude>-12.5386111</longitude>
  </city>
  <city name="Bomemahun">
    <latitude>7.4830556</latitude>
    <longitude>-12.3788889</longitude>
  </city>
  <city name="Bomia">
    <latitude>8.8166667</latitude>
    <longitude>-13.2</longitude>
  </city>
  <city name="Bomi">
    <latitude>7.2461111</latitude>
    <longitude>-11.5258333</longitude>
  </city>
  <city name="Bomna">
    <latitude>8.75</latitude>
    <longitude>-11.85</longitude>
  </city>
  <city name="Bomodia">
    <latitude>8.6475</latitude>
    <longitude>-13.1911111</longitude>
  </city>
  <city name="Bomotoke">
    <latitude>7.82</latitude>
    <longitude>-12.6563889</longitude>
  </city>
  <city name="Bompetok">
    <latitude>7.8138889</latitude>
    <longitude>-12.85</longitude>
  </city>
  <city name="Bompeworo">
    <latitude>8.1333333</latitude>
    <longitude>-11.3833333</longitude>
  </city>
  <city name="Bomu">
    <latitude>7.4580556</latitude>
    <longitude>-11.6188889</longitude>
  </city>
  <city name="Bomuvulahun">
    <latitude>7.5</latitude>
    <longitude>-11.8166667</longitude>
  </city>
  <city name="Bonaia">
    <latitude>9.1666667</latitude>
    <longitude>-11.9833333</longitude>
  </city>
  <city name="Bondal">
    <latitude>7.995</latitude>
    <longitude>-12.7811111</longitude>
  </city>
  <city name="Bondama">
    <latitude>8.0333333</latitude>
    <longitude>-11.7833333</longitude>
  </city>
  <city name="Bondam">
    <latitude>7.8413889</latitude>
    <longitude>-12.6091667</longitude>
  </city>
  <city name="Bondayilahun">
    <latitude>8.0358333</latitude>
    <longitude>-12.1316667</longitude>
  </city>
  <city name="Bondayirahun">
    <latitude>8.1333333</latitude>
    <longitude>-11.9833333</longitude>
  </city>
  <city name="Bonde">
    <latitude>8.05</latitude>
    <longitude>-10.7666667</longitude>
  </city>
  <city name="Bondebu">
    <latitude>7.3119444</latitude>
    <longitude>-12.1480556</longitude>
  </city>
  <city name="Bondehun">
    <latitude>7.45</latitude>
    <longitude>-11.2</longitude>
  </city>
  <city name="Bondodu">
    <latitude>8.55</latitude>
    <longitude>-10.95</longitude>
  </city>
  <city name="Bondoma">
    <latitude>8.5166667</latitude>
    <longitude>-11.4166667</longitude>
  </city>
  <city name="Bondua">
    <latitude>9.4166667</latitude>
    <longitude>-11.8166667</longitude>
  </city>
  <city name="Bonekune">
    <latitude>8.1666667</latitude>
    <longitude>-10.55</longitude>
  </city>
  <city name="Bonga">
    <latitude>8.9333333</latitude>
    <longitude>-13.2</longitude>
  </city>
  <city name="Bongama">
    <latitude>8.0</latitude>
    <longitude>-11.05</longitude>
  </city>
  <city name="Bonganema">
    <latitude>8.1302778</latitude>
    <longitude>-12.0608333</longitude>
  </city>
  <city name="Bongboma">
    <latitude>7.0663889</latitude>
    <longitude>-11.4830556</longitude>
  </city>
  <city name="Bongboru">
    <latitude>8.3666667</latitude>
    <longitude>-10.8</longitude>
  </city>
  <city name="Bongbu">
    <latitude>8.0166667</latitude>
    <longitude>-11.0833333</longitude>
  </city>
  <city name="Bonge">
    <latitude>8.6333333</latitude>
    <longitude>-11.45</longitude>
  </city>
  <city name="Bongema">
    <latitude>8.5166667</latitude>
    <longitude>-10.75</longitude>
  </city>
  <city name="Bongere">
    <latitude>7.5333333</latitude>
    <longitude>-11.5166667</longitude>
  </city>
  <city name="Bo Ngieha">
    <latitude>8.05</latitude>
    <longitude>-11.0666667</longitude>
  </city>
  <city name="Bongka">
    <latitude>9.2666667</latitude>
    <longitude>-12.2333333</longitude>
  </city>
  <city name="Bongoadu">
    <latitude>8.4</latitude>
    <longitude>-10.8</longitude>
  </city>
  <city name="Bongo">
    <latitude>7.5730556</latitude>
    <longitude>-11.2219444</longitude>
  </city>
  <city name="Bongoia">
    <latitude>8.5333333</latitude>
    <longitude>-11.3333333</longitude>
  </city>
  <city name="Bongoma">
    <latitude>7.4411111</latitude>
    <longitude>-11.2730556</longitude>
  </city>
  <city name="Bongoya">
    <latitude>8.0177778</latitude>
    <longitude>-12.0986111</longitude>
  </city>
  <city name="Bonguema">
    <latitude>8.3213889</latitude>
    <longitude>-13.0727778</longitude>
  </city>
  <city name="Boni">
    <latitude>8.95</latitude>
    <longitude>-10.6</longitude>
  </city>
  <city name="Bonjema">
    <latitude>8.2333333</latitude>
    <longitude>-10.55</longitude>
  </city>
  <city name="Bonjeya">
    <latitude>8.25</latitude>
    <longitude>-10.8333333</longitude>
  </city>
  <city name="Bonka">
    <latitude>8.6666667</latitude>
    <longitude>-12.6</longitude>
  </city>
  <city name="Bonkamataka">
    <latitude>8.6333333</latitude>
    <longitude>-12.0666667</longitude>
  </city>
  <city name="Bonkiri">
    <latitude>8.6666667</latitude>
    <longitude>-12.8333333</longitude>
  </city>
  <city name="Bonkofoton">
    <latitude>9.8166667</latitude>
    <longitude>-12.45</longitude>
  </city>
  <city name="Bonkohun">
    <latitude>9.0666667</latitude>
    <longitude>-12.2166667</longitude>
  </city>
  <city name="Bonkomataka">
    <latitude>8.6333333</latitude>
    <longitude>-12.0666667</longitude>
  </city>
  <city name="Bonoyema">
    <latitude>7.7666667</latitude>
    <longitude>-10.9166667</longitude>
  </city>
  <city name="Bonth">
    <latitude>7.5263889</latitude>
    <longitude>-12.505</longitude>
  </city>
  <city name="Bonthe">
    <latitude>7.5263889</latitude>
    <longitude>-12.505</longitude>
  </city>
  <city name="Bontiwo">
    <latitude>7.6294444</latitude>
    <longitude>-11.6705556</longitude>
  </city>
  <city name="Bontiworo">
    <latitude>7.6816667</latitude>
    <longitude>-11.8133333</longitude>
  </city>
  <city name="Bopan">
    <latitude>7.1833333</latitude>
    <longitude>-11.6833333</longitude>
  </city>
  <city name="Bopo">
    <latitude>7.1705556</latitude>
    <longitude>-11.5919444</longitude>
  </city>
  <city name="Bopon">
    <latitude>7.1833333</latitude>
    <longitude>-11.4666667</longitude>
  </city>
  <city name="Borbana">
    <latitude>8.9833333</latitude>
    <longitude>-12.0666667</longitude>
  </city>
  <city name="Boria">
    <latitude>9.1333333</latitude>
    <longitude>-10.8</longitude>
  </city>
  <city name="Borobofu">
    <latitude>9.5833333</latitude>
    <longitude>-12.6166667</longitude>
  </city>
  <city name="Borokonko">
    <latitude>8.7166667</latitude>
    <longitude>-10.5166667</longitude>
  </city>
  <city name="Boronka">
    <latitude>9.45</latitude>
    <longitude>-12.2</longitude>
  </city>
  <city name="Boroso">
    <latitude>9.7</latitude>
    <longitude>-11.9</longitude>
  </city>
  <city name="Borwaila">
    <latitude>8.2833333</latitude>
    <longitude>-12.95</longitude>
  </city>
  <city name="Bosadu">
    <latitude>8.5833333</latitude>
    <longitude>-10.8</longitude>
  </city>
  <city name="Bosaia">
    <latitude>8.8166667</latitude>
    <longitude>-11.0333333</longitude>
  </city>
  <city name="Bosanda">
    <latitude>8.8</latitude>
    <longitude>-11.9666667</longitude>
  </city>
  <city name="Bosodu">
    <latitude>8.35</latitude>
    <longitude>-10.3666667</longitude>
  </city>
  <city name="Bosudu">
    <latitude>8.5166667</latitude>
    <longitude>-11.05</longitude>
  </city>
  <city name="Botima">
    <latitude>8.2833333</latitude>
    <longitude>-12.85</longitude>
  </city>
  <city name="Botiwa">
    <latitude>8.1666667</latitude>
    <longitude>-10.7333333</longitude>
  </city>
  <city name="Boto">
    <latitude>7.3947222</latitude>
    <longitude>-12.1561111</longitude>
  </city>
  <city name="Bouria">
    <latitude>9.35</latitude>
    <longitude>-11.9333333</longitude>
  </city>
  <city name="Bowahun">
    <latitude>7.75</latitude>
    <longitude>-11.0166667</longitude>
  </city>
  <city name="Bowama">
    <latitude>8.1333333</latitude>
    <longitude>-12.0</longitude>
  </city>
  <city name="Bowgere">
    <latitude>7.5333333</latitude>
    <longitude>-11.5166667</longitude>
  </city>
  <city name="Bowo">
    <latitude>8.3333333</latitude>
    <longitude>-10.4666667</longitude>
  </city>
  <city name="Bowobu">
    <latitude>8.35</latitude>
    <longitude>-10.85</longitude>
  </city>
  <city name="Boyago">
    <latitude>7.7375</latitude>
    <longitude>-10.9213889</longitude>
  </city>
  <city name="Boyama">
    <latitude>7.6833333</latitude>
    <longitude>-11.1</longitude>
  </city>
  <city name="Boyipie">
    <latitude>7.4166667</latitude>
    <longitude>-11.9333333</longitude>
  </city>
  <city name="Bradali">
    <latitude>8.9333333</latitude>
    <longitude>-11.7833333</longitude>
  </city>
  <city name="Bradford">
    <latitude>8.3</latitude>
    <longitude>-12.75</longitude>
  </city>
  <city name="Braia">
    <latitude>8.5166667</latitude>
    <longitude>-10.9166667</longitude>
  </city>
  <city name="Brama">
    <latitude>8.3666667</latitude>
    <longitude>-12.9666667</longitude>
  </city>
  <city name="Buabu">
    <latitude>8.15</latitude>
    <longitude>-11.4333333</longitude>
  </city>
  <city name="Buawola">
    <latitude>7.7333333</latitude>
    <longitude>-11.45</longitude>
  </city>
  <city name="Bubama">
    <latitude>7.7541667</latitude>
    <longitude>-11.15</longitude>
  </city>
  <city name="Bubania">
    <latitude>9.15</latitude>
    <longitude>-10.95</longitude>
  </city>
  <city name="Bubu Town">
    <latitude>8.3019444</latitude>
    <longitude>-13.0269444</longitude>
  </city>
  <city name="Bubuya">
    <latitude>9.0163889</latitude>
    <longitude>-13.0583333</longitude>
  </city>
  <city name="Buedu">
    <latitude>8.2802778</latitude>
    <longitude>-10.3719444</longitude>
  </city>
  <city name="Buelu">
    <latitude>8.1833333</latitude>
    <longitude>-10.5333333</longitude>
  </city>
  <city name="Bugami">
    <latitude>9.5</latitude>
    <longitude>-12.6166667</longitude>
  </city>
  <city name="Buguma">
    <latitude>7.7833333</latitude>
    <longitude>-11.1666667</longitude>
  </city>
  <city name="Buia">
    <latitude>8.8833333</latitude>
    <longitude>-12.0166667</longitude>
  </city>
  <city name="Bukema">
    <latitude>8.2</latitude>
    <longitude>-11.0</longitude>
  </city>
  <city name="Bukuya">
    <latitude>8.4833333</latitude>
    <longitude>-11.0333333</longitude>
  </city>
  <city name="Bulima">
    <latitude>7.9</latitude>
    <longitude>-11.0</longitude>
  </city>
  <city name="Bullom">
    <latitude>8.6372222</latitude>
    <longitude>-13.1619444</longitude>
  </city>
  <city name="Bululaminaia">
    <latitude>9.0313889</latitude>
    <longitude>-13.0833333</longitude>
  </city>
  <city name="Buma">
    <latitude>7.4986111</latitude>
    <longitude>-11.1213889</longitude>
  </city>
  <city name="Bumba">
    <latitude>8.7833333</latitude>
    <longitude>-12.5</longitude>
  </city>
  <city name="Bumban">
    <latitude>9.0166667</latitude>
    <longitude>-11.8166667</longitude>
  </city>
  <city name="Bumbande">
    <latitude>9.0833333</latitude>
    <longitude>-12.0</longitude>
  </city>
  <city name="Bumbanjia">
    <latitude>8.9333333</latitude>
    <longitude>-11.0333333</longitude>
  </city>
  <city name="Bumbe">
    <latitude>7.9</latitude>
    <longitude>-11.0333333</longitude>
  </city>
  <city name="Bumbeworo">
    <latitude>8.2833333</latitude>
    <longitude>-12.45</longitude>
  </city>
  <city name="Bumbo">
    <latitude>9.5333333</latitude>
    <longitude>-12.2166667</longitude>
  </city>
  <city name="Bumbolo">
    <latitude>8.7833333</latitude>
    <longitude>-10.7666667</longitude>
  </city>
  <city name="Bum">
    <latitude>7.5044444</latitude>
    <longitude>-11.8775</longitude>
  </city>
  <city name="Bumbuna">
    <latitude>9.05</latitude>
    <longitude>-11.7333333</longitude>
  </city>
  <city name="Bumbunkoro">
    <latitude>9.2833333</latitude>
    <longitude>-10.9833333</longitude>
  </city>
  <city name="Bumbunkura">
    <latitude>9.55</latitude>
    <longitude>-11.45</longitude>
  </city>
  <city name="Bumoe">
    <latitude>7.4897222</latitude>
    <longitude>-11.5627778</longitude>
  </city>
  <city name="Bumpa">
    <latitude>8.9833333</latitude>
    <longitude>-11.9333333</longitude>
  </city>
  <city name="Bumpe">
    <latitude>7.78</latitude>
    <longitude>-10.8125</longitude>
  </city>
  <city name="Bumpetok">
    <latitude>7.4025</latitude>
    <longitude>-12.0361111</longitude>
  </city>
  <city name="Bumpetoke">
    <latitude>7.8138889</latitude>
    <longitude>-12.85</longitude>
  </city>
  <city name="Bumplol">
    <latitude>8.6666667</latitude>
    <longitude>-12.8833333</longitude>
  </city>
  <city name="Bunabu">
    <latitude>8.1333333</latitude>
    <longitude>-12.1833333</longitude>
  </city>
  <city name="Bunbande">
    <latitude>9.0833333</latitude>
    <longitude>-12.0</longitude>
  </city>
  <city name="Bundayirahun">
    <latitude>8.3833333</latitude>
    <longitude>-11.3166667</longitude>
  </city>
  <city name="Bunde">
    <latitude>7.8094444</latitude>
    <longitude>-12.5991667</longitude>
  </city>
  <city name="Bundema">
    <latitude>8.3166667</latitude>
    <longitude>-10.7166667</longitude>
  </city>
  <city name="Bundima">
    <latitude>8.7</latitude>
    <longitude>-11.8833333</longitude>
  </city>
  <city name="Bundobu">
    <latitude>8.2833333</latitude>
    <longitude>-10.8166667</longitude>
  </city>
  <city name="Bundoia">
    <latitude>8.55</latitude>
    <longitude>-11.4</longitude>
  </city>
  <city name="Bundukaw">
    <latitude>7.15</latitude>
    <longitude>-11.7</longitude>
  </city>
  <city name="Bundundo">
    <latitude>8.95</latitude>
    <longitude>-10.9833333</longitude>
  </city>
  <city name="Bunga">
    <latitude>8.8333333</latitude>
    <longitude>-12.6333333</longitude>
  </city>
  <city name="Bunge">
    <latitude>7.5572222</latitude>
    <longitude>-12.7361111</longitude>
  </city>
  <city name="Bungema">
    <latitude>8.5333333</latitude>
    <longitude>-11.3666667</longitude>
  </city>
  <city name="Bunguema">
    <latitude>8.9833333</latitude>
    <longitude>-12.1333333</longitude>
  </city>
  <city name="Bunjema">
    <latitude>7.4166667</latitude>
    <longitude>-11.2</longitude>
  </city>
  <city name="Bunkababi">
    <latitude>8.3566667</latitude>
    <longitude>-12.2191667</longitude>
  </city>
  <city name="Bunka">
    <latitude>8.7666667</latitude>
    <longitude>-12.5333333</longitude>
  </city>
  <city name="Bunti">
    <latitude>7.8666667</latitude>
    <longitude>-12.8666667</longitude>
  </city>
  <city name="Bunumbu">
    <latitude>8.1666667</latitude>
    <longitude>-10.8666667</longitude>
  </city>
  <city name="Buobobo">
    <latitude>8.25</latitude>
    <longitude>-10.5333333</longitude>
  </city>
  <city name="Buobobu">
    <latitude>8.25</latitude>
    <longitude>-10.5333333</longitude>
  </city>
  <city name="Burahun">
    <latitude>8.9</latitude>
    <longitude>-12.4333333</longitude>
  </city>
  <city name="Buraia">
    <latitude>9.0</latitude>
    <longitude>-13.0666667</longitude>
  </city>
  <city name="Bure">
    <latitude>8.6833333</latitude>
    <longitude>-12.7333333</longitude>
  </city>
  <city name="Bure Town">
    <latitude>8.2011111</latitude>
    <longitude>-13.1513889</longitude>
  </city>
  <city name="Burie Town">
    <latitude>8.3177778</latitude>
    <longitude>-13.0580556</longitude>
  </city>
  <city name="Buru">
    <latitude>9.2833333</latitude>
    <longitude>-10.95</longitude>
  </city>
  <city name="Busu">
    <latitude>7.4841667</latitude>
    <longitude>-11.4469444</longitude>
  </city>
  <city name="Butehun">
    <latitude>8.4</latitude>
    <longitude>-10.85</longitude>
  </city>
  <city name="Buvehun">
    <latitude>8.2833333</latitude>
    <longitude>-12.9333333</longitude>
  </city>
  <city name="Buya">
    <latitude>8.7330556</latitude>
    <longitude>-12.1722222</longitude>
  </city>
  <city name="Buyama">
    <latitude>7.9833333</latitude>
    <longitude>-10.95</longitude>
  </city>
  <city name="Buyebu">
    <latitude>8.25</latitude>
    <longitude>-12.1166667</longitude>
  </city>
  <city name="Buyegema">
    <latitude>8.3166667</latitude>
    <longitude>-10.6833333</longitude>
  </city>
  <city name="Buyehun">
    <latitude>8.15</latitude>
    <longitude>-11.7166667</longitude>
  </city>
  <city name="Bwaia">
    <latitude>8.5666667</latitude>
    <longitude>-11.0666667</longitude>
  </city>
  <city name="Bwango Town">
    <latitude>8.25</latitude>
    <longitude>-13.05</longitude>
  </city>
  <city name="Bwedu">
    <latitude>8.2802778</latitude>
    <longitude>-10.3719444</longitude>
  </city>
  <city name="Bwema">
    <latitude>7.9</latitude>
    <longitude>-11.0</longitude>
  </city>
  <city name="Calaba Town">
    <latitude>8.4380556</latitude>
    <longitude>-13.1630556</longitude>
  </city>
  <city name="Campbell Town">
    <latitude>8.3066667</latitude>
    <longitude>-13.0502778</longitude>
  </city>
  <city name="Charlotte">
    <latitude>8.4241667</latitude>
    <longitude>-13.1916667</longitude>
  </city>
  <city name="Chembu">
    <latitude>9.4166667</latitude>
    <longitude>-12.2833333</longitude>
  </city>
  <city name="Cher">
    <latitude>7.8058333</latitude>
    <longitude>-12.7636111</longitude>
  </city>
  <city name="Chesuadu">
    <latitude>8.95</latitude>
    <longitude>-11.1666667</longitude>
  </city>
  <city name="Chokolo">
    <latitude>7.6333333</latitude>
    <longitude>-12.3666667</longitude>
  </city>
  <city name="Cline Town">
    <latitude>8.2627778</latitude>
    <longitude>-13.0808333</longitude>
  </city>
  <city name="Coldbath Town">
    <latitude>8.4333333</latitude>
    <longitude>-13.1666667</longitude>
  </city>
  <city name="Cole Town">
    <latitude>8.2722222</latitude>
    <longitude>-13.0797222</longitude>
  </city>
  <city name="Congo">
    <latitude>8.3547222</latitude>
    <longitude>-13.1086111</longitude>
  </city>
  <city name="Cotton Tree">
    <latitude>8.5525</latitude>
    <longitude>-13.1852778</longitude>
  </city>
  <city name="Daambu">
    <latitude>9.3333333</latitude>
    <longitude>-12.0</longitude>
  </city>
  <city name="Dablama">
    <latitude>7.9997222</latitude>
    <longitude>-10.7122222</longitude>
  </city>
  <city name="Dabu">
    <latitude>8.0833333</latitude>
    <longitude>-12.6166667</longitude>
  </city>
  <city name="Dada">
    <latitude>9.5166667</latitude>
    <longitude>-12.2666667</longitude>
  </city>
  <city name="Dagbu">
    <latitude>8.5833333</latitude>
    <longitude>-10.6</longitude>
  </city>
  <city name="Dagure">
    <latitude>9.75</latitude>
    <longitude>-11.3166667</longitude>
  </city>
  <city name="Dahama">
    <latitude>8.05</latitude>
    <longitude>-11.3333333</longitude>
  </city>
  <city name="Dakadu">
    <latitude>8.6833333</latitude>
    <longitude>-10.8</longitude>
  </city>
  <city name="Dakaia">
    <latitude>9.3666667</latitude>
    <longitude>-11.25</longitude>
  </city>
  <city name="Dakanene">
    <latitude>9.4833333</latitude>
    <longitude>-12.6</longitude>
  </city>
  <city name="Dakaro">
    <latitude>8.85</latitude>
    <longitude>-10.9333333</longitude>
  </city>
  <city name="Dakaw">
    <latitude>8.0333333</latitude>
    <longitude>-10.6166667</longitude>
  </city>
  <city name="Dakokalia">
    <latitude>9.4666667</latitude>
    <longitude>-10.8833333</longitude>
  </city>
  <city name="Dakunaia">
    <latitude>9.55</latitude>
    <longitude>-11.5833333</longitude>
  </city>
  <city name="Dalmusaia">
    <latitude>9.7833333</latitude>
    <longitude>-11.2166667</longitude>
  </city>
  <city name="Dama">
    <latitude>7.2244444</latitude>
    <longitude>-11.8591667</longitude>
  </city>
  <city name="Damando">
    <latitude>8.7166667</latitude>
    <longitude>-10.6333333</longitude>
  </city>
  <city name="Damaworo">
    <latitude>7.4783333</latitude>
    <longitude>-11.2175</longitude>
  </city>
  <city name="Damawuro">
    <latitude>7.4783333</latitude>
    <longitude>-11.2175</longitude>
  </city>
  <city name="Dambaba">
    <latitude>8.1166667</latitude>
    <longitude>-11.7</longitude>
  </city>
  <city name="Damba">
    <latitude>8.3166667</latitude>
    <longitude>-10.3166667</longitude>
  </city>
  <city name="Dambadu">
    <latitude>8.6166667</latitude>
    <longitude>-10.5833333</longitude>
  </city>
  <city name="Dambalu">
    <latitude>8.1955556</latitude>
    <longitude>-10.4086111</longitude>
  </city>
  <city name="Dambara">
    <latitude>7.5225</latitude>
    <longitude>-10.8975</longitude>
  </city>
  <city name="Dambo">
    <latitude>8.3166667</latitude>
    <longitude>-10.3166667</longitude>
  </city>
  <city name="Dambu">
    <latitude>7.9783333</latitude>
    <longitude>-10.8997222</longitude>
  </city>
  <city name="Dandabu">
    <latitude>7.85</latitude>
    <longitude>-11.3333333</longitude>
  </city>
  <city name="Danda">
    <latitude>8.85</latitude>
    <longitude>-11.7333333</longitude>
  </city>
  <city name="Dandafara">
    <latitude>9.2833333</latitude>
    <longitude>-10.6833333</longitude>
  </city>
  <city name="Dandaia">
    <latitude>9.8833333</latitude>
    <longitude>-12.2166667</longitude>
  </city>
  <city name="Dandando">
    <latitude>8.7166667</latitude>
    <longitude>-10.9166667</longitude>
  </city>
  <city name="Dandaya">
    <latitude>8.8833333</latitude>
    <longitude>-11.65</longitude>
  </city>
  <city name="Dandebu">
    <latitude>7.85</latitude>
    <longitude>-11.3333333</longitude>
  </city>
  <city name="Dandegahun">
    <latitude>7.4041667</latitude>
    <longitude>-11.4358333</longitude>
  </city>
  <city name="Dandu">
    <latitude>8.9333333</latitude>
    <longitude>-11.0666667</longitude>
  </city>
  <city name="Dangbwidu">
    <latitude>8.7166667</latitude>
    <longitude>-10.9666667</longitude>
  </city>
  <city name="Dankan">
    <latitude>9.2166667</latitude>
    <longitude>-11.6833333</longitude>
  </city>
  <city name="Dankankuma">
    <latitude>9.6166667</latitude>
    <longitude>-11.55</longitude>
  </city>
  <city name="Dankawali">
    <latitude>9.6333333</latitude>
    <longitude>-11.3333333</longitude>
  </city>
  <city name="Dankowolia">
    <latitude>8.9166667</latitude>
    <longitude>-11.6</longitude>
  </city>
  <city name="Dankwali">
    <latitude>9.6333333</latitude>
    <longitude>-11.3333333</longitude>
  </city>
  <city name="Dansadia">
    <latitude>9.9833333</latitude>
    <longitude>-11.2333333</longitude>
  </city>
  <city name="Dansaia">
    <latitude>9.9333333</latitude>
    <longitude>-11.2166667</longitude>
  </city>
  <city name="Darakuru">
    <latitude>9.2</latitude>
    <longitude>-11.5333333</longitude>
  </city>
  <city name="Dare">
    <latitude>8.6502778</latitude>
    <longitude>-13.05</longitude>
  </city>
  <city name="Dar-es-Salaam">
    <latitude>8.3666667</latitude>
    <longitude>-10.4333333</longitude>
  </city>
  <city name="Dar-es-Salam">
    <latitude>9.3166667</latitude>
    <longitude>-11.9166667</longitude>
  </city>
  <city name="Dar-es-Selaam">
    <latitude>9.3166667</latitude>
    <longitude>-11.9166667</longitude>
  </city>
  <city name="Darina">
    <latitude>9.2833333</latitude>
    <longitude>-11.9</longitude>
  </city>
  <city name="Daru">
    <latitude>7.9919444</latitude>
    <longitude>-10.8405556</longitude>
  </city>
  <city name="Dawa">
    <latitude>8.2588889</latitude>
    <longitude>-10.3161111</longitude>
  </city>
  <city name="Dawambu">
    <latitude>9.25</latitude>
    <longitude>-12.0333333</longitude>
  </city>
  <city name="Dawia">
    <latitude>8.8833333</latitude>
    <longitude>-11.55</longitude>
  </city>
  <city name="Dawule">
    <latitude>9.15</latitude>
    <longitude>-11.1166667</longitude>
  </city>
  <city name="Dawulema">
    <latitude>9.0333333</latitude>
    <longitude>-10.6333333</longitude>
  </city>
  <city name="Deadu">
    <latitude>8.7833333</latitude>
    <longitude>-11.2166667</longitude>
  </city>
  <city name="Deili">
    <latitude>9.15</latitude>
    <longitude>-12.5833333</longitude>
  </city>
  <city name="Deilo">
    <latitude>9.15</latitude>
    <longitude>-12.5833333</longitude>
  </city>
  <city name="Deima">
    <latitude>7.9802778</latitude>
    <longitude>-11.2566667</longitude>
  </city>
  <city name="Delken">
    <latitude>7.6247222</latitude>
    <longitude>-12.7408333</longitude>
  </city>
  <city name="Delkin">
    <latitude>7.6247222</latitude>
    <longitude>-12.7408333</longitude>
  </city>
  <city name="Demaboa">
    <latitude>7.55</latitude>
    <longitude>-12.0</longitude>
  </city>
  <city name="Dema">
    <latitude>8.1166667</latitude>
    <longitude>-10.8</longitude>
  </city>
  <city name="Demba">
    <latitude>9.1166667</latitude>
    <longitude>-12.5</longitude>
  </city>
  <city name="Dembema">
    <latitude>8.65</latitude>
    <longitude>-11.0833333</longitude>
  </city>
  <city name="Dendegahun">
    <latitude>7.4041667</latitude>
    <longitude>-11.4358333</longitude>
  </city>
  <city name="Dendehun">
    <latitude>9.2666667</latitude>
    <longitude>-12.1333333</longitude>
  </city>
  <city name="Dengedu">
    <latitude>8.6333333</latitude>
    <longitude>-10.5166667</longitude>
  </city>
  <city name="Denibe">
    <latitude>7.1</latitude>
    <longitude>-11.5333333</longitude>
  </city>
  <city name="Dentema">
    <latitude>8.6944444</latitude>
    <longitude>-13.2108333</longitude>
  </city>
  <city name="Denti">
    <latitude>8.6997222</latitude>
    <longitude>-13.2166667</longitude>
  </city>
  <city name="Depea Water">
    <latitude>8.3580556</latitude>
    <longitude>-13.0819444</longitude>
  </city>
  <city name="Devil Hole">
    <latitude>8.37</latitude>
    <longitude>-13.0933333</longitude>
  </city>
  <city name="Dewadu">
    <latitude>8.6</latitude>
    <longitude>-10.9166667</longitude>
  </city>
  <city name="Deyaw">
    <latitude>8.5</latitude>
    <longitude>-10.7666667</longitude>
  </city>
  <city name="Dia">
    <latitude>7.9166667</latitude>
    <longitude>-11.0333333</longitude>
  </city>
  <city name="Diama">
    <latitude>7.7872222</latitude>
    <longitude>-11.2147222</longitude>
  </city>
  <city name="Diamani">
    <latitude>7.2305556</latitude>
    <longitude>-11.9022222</longitude>
  </city>
  <city name="Diame">
    <latitude>7.7286111</latitude>
    <longitude>-11.1425</longitude>
  </city>
  <city name="Diamei">
    <latitude>7.4333333</latitude>
    <longitude>-11.6666667</longitude>
  </city>
  <city name="Diamein">
    <latitude>7.4338889</latitude>
    <longitude>-11.6588889</longitude>
  </city>
  <city name="Dian Sokurela">
    <latitude>9.35</latitude>
    <longitude>-11.5166667</longitude>
  </city>
  <city name="Dibia">
    <latitude>9.0833333</latitude>
    <longitude>-12.85</longitude>
  </city>
  <city name="Dibid">
    <latitude>6.9891667</latitude>
    <longitude>-11.5983333</longitude>
  </city>
  <city name="Dibo">
    <latitude>9.4</latitude>
    <longitude>-12.4333333</longitude>
  </city>
  <city name="Didia">
    <latitude>9.65</latitude>
    <longitude>-11.4166667</longitude>
  </city>
  <city name="Dige">
    <latitude>8.0333333</latitude>
    <longitude>-11.2333333</longitude>
  </city>
  <city name="Diima">
    <latitude>7.9802778</latitude>
    <longitude>-11.2566667</longitude>
  </city>
  <city name="Dikpaya">
    <latitude>7.8333333</latitude>
    <longitude>-11.7833333</longitude>
  </city>
  <city name="Dilma">
    <latitude>7.9802778</latitude>
    <longitude>-11.2566667</longitude>
  </city>
  <city name="Dina">
    <latitude>7.5833333</latitude>
    <longitude>-11.7166667</longitude>
  </city>
  <city name="Dindi">
    <latitude>8.4833333</latitude>
    <longitude>-10.3166667</longitude>
  </city>
  <city name="Dinga">
    <latitude>7.4166667</latitude>
    <longitude>-12.5611111</longitude>
  </city>
  <city name="Dintilipan">
    <latitude>9.055</latitude>
    <longitude>-13.2144444</longitude>
  </city>
  <city name="Dipala">
    <latitude>7.5</latitude>
    <longitude>-12.1333333</longitude>
  </city>
  <city name="Disa">
    <latitude>8.0666667</latitude>
    <longitude>-11.1166667</longitude>
  </city>
  <city name="Disalami">
    <latitude>7.2361111</latitude>
    <longitude>-11.26</longitude>
  </city>
  <city name="Diwa">
    <latitude>8.2833333</latitude>
    <longitude>-11.0666667</longitude>
  </city>
  <city name="Diyange">
    <latitude>7.3069444</latitude>
    <longitude>-11.6144444</longitude>
  </city>
  <city name="Dodo">
    <latitude>7.8175</latitude>
    <longitude>-10.8511111</longitude>
  </city>
  <city name="Dogema">
    <latitude>7.8716667</latitude>
    <longitude>-12.1783333</longitude>
  </city>
  <city name="Doijo">
    <latitude>7.8097222</latitude>
    <longitude>-11.4141667</longitude>
  </city>
  <city name="Dombadu">
    <latitude>8.5</latitude>
    <longitude>-11.2333333</longitude>
  </city>
  <city name="Domboma">
    <latitude>8.0544444</latitude>
    <longitude>-12.0816667</longitude>
  </city>
  <city name="Dombu">
    <latitude>7.3166667</latitude>
    <longitude>-11.2666667</longitude>
  </city>
  <city name="Domingo Farm">
    <latitude>8.3783333</latitude>
    <longitude>-13.2413889</longitude>
  </city>
  <city name="Domliyan">
    <latitude>8.9833333</latitude>
    <longitude>-11.85</longitude>
  </city>
  <city name="Domo">
    <latitude>7.7911111</latitude>
    <longitude>-12.7205556</longitude>
  </city>
  <city name="Dongowa">
    <latitude>8.4294444</latitude>
    <longitude>-10.3963889</longitude>
  </city>
  <city name="Donia">
    <latitude>9.75</latitude>
    <longitude>-12.2666667</longitude>
  </city>
  <city name="Doumbu">
    <latitude>7.3166667</latitude>
    <longitude>-11.2666667</longitude>
  </city>
  <city name="Dowoju">
    <latitude>7.8097222</latitude>
    <longitude>-11.4141667</longitude>
  </city>
  <city name="Dowoloma">
    <latitude>7.2166667</latitude>
    <longitude>-11.4</longitude>
  </city>
  <city name="Dowoma">
    <latitude>7.2166667</latitude>
    <longitude>-11.4</longitude>
  </city>
  <city name="Duago">
    <latitude>9.2333333</latitude>
    <longitude>-11.9</longitude>
  </city>
  <city name="Duako">
    <latitude>8.7333333</latitude>
    <longitude>-10.5666667</longitude>
  </city>
  <city name="Dubaia">
    <latitude>9.5166667</latitude>
    <longitude>-11.9666667</longitude>
  </city>
  <city name="Dublin">
    <latitude>8.1333333</latitude>
    <longitude>-13.2002778</longitude>
  </city>
  <city name="Dudia">
    <latitude>7.4</latitude>
    <longitude>-11.95</longitude>
  </city>
  <city name="Dugaia">
    <latitude>9.7166667</latitude>
    <longitude>-12.5</longitude>
  </city>
  <city name="Dugbema">
    <latitude>8.5166667</latitude>
    <longitude>-10.6833333</longitude>
  </city>
  <city name="Dugbudu">
    <latitude>8.5166667</latitude>
    <longitude>-10.6333333</longitude>
  </city>
  <city name="Dugulama">
    <latitude>9.4</latitude>
    <longitude>-10.85</longitude>
  </city>
  <city name="Dukono">
    <latitude>8.3</latitude>
    <longitude>-10.7333333</longitude>
  </city>
  <city name="Duladi">
    <latitude>9.5</latitude>
    <longitude>-12.65</longitude>
  </city>
  <city name="Dulema">
    <latitude>9.2833333</latitude>
    <longitude>-10.85</longitude>
  </city>
  <city name="Dulipuibu">
    <latitude>7.7958333</latitude>
    <longitude>-12.0436111</longitude>
  </city>
  <city name="Dumagbe">
    <latitude>7.0811111</latitude>
    <longitude>-11.6169444</longitude>
  </city>
  <city name="Dumbaia">
    <latitude>9.8833333</latitude>
    <longitude>-12.2666667</longitude>
  </city>
  <city name="Dumbilibu">
    <latitude>8.45</latitude>
    <longitude>-11.4166667</longitude>
  </city>
  <city name="Dunamaro">
    <latitude>8.65</latitude>
    <longitude>-10.55</longitude>
  </city>
  <city name="Dunamo">
    <latitude>8.6666667</latitude>
    <longitude>-10.65</longitude>
  </city>
  <city name="Dunduko">
    <latitude>9.5166667</latitude>
    <longitude>-11.4</longitude>
  </city>
  <city name="Dunduwa">
    <latitude>9.0166667</latitude>
    <longitude>-11.05</longitude>
  </city>
  <city name="Dunemaro">
    <latitude>8.65</latitude>
    <longitude>-10.8833333</longitude>
  </city>
  <city name="Durukoro">
    <latitude>9.0166667</latitude>
    <longitude>-10.7166667</longitude>
  </city>
  <city name="Duvubu">
    <latitude>8.0833333</latitude>
    <longitude>-11.1166667</longitude>
  </city>
  <city name="Duwulema">
    <latitude>9.0333333</latitude>
    <longitude>-10.6333333</longitude>
  </city>
  <city name="Duya">
    <latitude>8.35</latitude>
    <longitude>-11.5166667</longitude>
  </city>
  <city name="Duyamahun">
    <latitude>8.4166667</latitude>
    <longitude>-10.7833333</longitude>
  </city>
  <city name="Eaiama">
    <latitude>7.5283333</latitude>
    <longitude>-10.9980556</longitude>
  </city>
  <city name="Egbema">
    <latitude>7.1352778</latitude>
    <longitude>-11.3558333</longitude>
  </city>
  <city name="Eneya">
    <latitude>8.6522222</latitude>
    <longitude>-13.2211111</longitude>
  </city>
  <city name="Faabu">
    <latitude>8.0</latitude>
    <longitude>-11.35</longitude>
  </city>
  <city name="Fabaina">
    <latitude>8.05</latitude>
    <longitude>-10.8333333</longitude>
  </city>
  <city name="Fabu">
    <latitude>7.6333333</latitude>
    <longitude>-11.8833333</longitude>
  </city>
  <city name="Factri">
    <latitude>7.5236111</latitude>
    <longitude>-12.2525</longitude>
  </city>
  <city name="Fada">
    <latitude>8.6666667</latitude>
    <longitude>-10.8833333</longitude>
  </city>
  <city name="Fadu">
    <latitude>8.7666667</latitude>
    <longitude>-10.9333333</longitude>
  </city>
  <city name="Fadugu">
    <latitude>9.3833333</latitude>
    <longitude>-11.7666667</longitude>
  </city>
  <city name="Fafo">
    <latitude>8.85</latitude>
    <longitude>-10.6666667</longitude>
  </city>
  <city name="Fagoia">
    <latitude>8.2333333</latitude>
    <longitude>-10.7666667</longitude>
  </city>
  <city name="Fagona">
    <latitude>8.25</latitude>
    <longitude>-10.9333333</longitude>
  </city>
  <city name="Fagoya">
    <latitude>7.9166667</latitude>
    <longitude>-10.8833333</longitude>
  </city>
  <city name="Faiama">
    <latitude>7.5283333</latitude>
    <longitude>-10.9980556</longitude>
  </city>
  <city name="Faikundo">
    <latitude>7.2333333</latitude>
    <longitude>-11.9</longitude>
  </city>
  <city name="Failahun">
    <latitude>7.7833333</latitude>
    <longitude>-11.7666667</longitude>
  </city>
  <city name="Faima">
    <latitude>7.6852778</latitude>
    <longitude>-11.5697222</longitude>
  </city>
  <city name="Fainda">
    <latitude>7.05</latitude>
    <longitude>-11.5833333</longitude>
  </city>
  <city name="Faindu">
    <latitude>8.7166667</latitude>
    <longitude>-10.5666667</longitude>
  </city>
  <city name="Fairo">
    <latitude>7.0927778</latitude>
    <longitude>-11.4033333</longitude>
  </city>
  <city name="Fa-iya">
    <latitude>9.0</latitude>
    <longitude>-10.7666667</longitude>
  </city>
  <city name="Fajkundo">
    <latitude>7.8019444</latitude>
    <longitude>-11.8958333</longitude>
  </city>
  <city name="Fakabai">
    <latitude>7.9847222</latitude>
    <longitude>-12.7858333</longitude>
  </city>
  <city name="Fakai">
    <latitude>7.4783333</latitude>
    <longitude>-11.3788889</longitude>
  </city>
  <city name="Fakaisana">
    <latitude>7.4930556</latitude>
    <longitude>-12.6036111</longitude>
  </city>
  <city name="Fakina">
    <latitude>8.2838889</latitude>
    <longitude>-13.0719444</longitude>
  </city>
  <city name="Fakono">
    <latitude>7.4822222</latitude>
    <longitude>-12.0155556</longitude>
  </city>
  <city name="Fakor">
    <latitude>9.0166667</latitude>
    <longitude>-11.1166667</longitude>
  </city>
  <city name="Fakoro">
    <latitude>8.7666667</latitude>
    <longitude>-10.6333333</longitude>
  </city>
  <city name="Fakoya">
    <latitude>8.5166667</latitude>
    <longitude>-11.0</longitude>
  </city>
  <city name="Fakundija">
    <latitude>8.9833333</latitude>
    <longitude>-10.7666667</longitude>
  </city>
  <city name="Fakunding-ya">
    <latitude>9.0666667</latitude>
    <longitude>-10.7</longitude>
  </city>
  <city name="Falabadi">
    <latitude>9.7833333</latitude>
    <longitude>-12.0333333</longitude>
  </city>
  <city name="Falaba">
    <latitude>8.0333333</latitude>
    <longitude>-10.7</longitude>
  </city>
  <city name="Falabodi">
    <latitude>9.7833333</latitude>
    <longitude>-12.0333333</longitude>
  </city>
  <city name="Falabu">
    <latitude>7.9833333</latitude>
    <longitude>-11.7686111</longitude>
  </city>
  <city name="Fala">
    <latitude>8.2833333</latitude>
    <longitude>-11.3833333</longitude>
  </city>
  <city name="Falahun">
    <latitude>8.3</latitude>
    <longitude>-10.6833333</longitude>
  </city>
  <city name="Falo">
    <latitude>8.5833333</latitude>
    <longitude>-10.8166667</longitude>
  </city>
  <city name="Falu">
    <latitude>7.9333333</latitude>
    <longitude>-11.5833333</longitude>
  </city>
  <city name="Fana">
    <latitude>9.7</latitude>
    <longitude>-12.4166667</longitude>
  </city>
  <city name="Fanama">
    <latitude>8.9833333</latitude>
    <longitude>-10.95</longitude>
  </city>
  <city name="Fanda">
    <latitude>8.65</latitude>
    <longitude>-10.6</longitude>
  </city>
  <city name="Fandala">
    <latitude>9.0666667</latitude>
    <longitude>-11.05</longitude>
  </city>
  <city name="Fandehun">
    <latitude>8.6</latitude>
    <longitude>-11.2833333</longitude>
  </city>
  <city name="Fandu">
    <latitude>8.2288889</latitude>
    <longitude>-10.4544444</longitude>
  </city>
  <city name="Fangamadu">
    <latitude>8.2452778</latitude>
    <longitude>-10.3144444</longitude>
  </city>
  <city name="Fangoia">
    <latitude>8.9666667</latitude>
    <longitude>-11.2833333</longitude>
  </city>
  <city name="Fanima">
    <latitude>8.9833333</latitude>
    <longitude>-10.95</longitude>
  </city>
  <city name="Fankaia">
    <latitude>9.35</latitude>
    <longitude>-10.8</longitude>
  </city>
  <city name="Fankama">
    <latitude>9.5666667</latitude>
    <longitude>-11.9166667</longitude>
  </city>
  <city name="Fankoya">
    <latitude>9.1666667</latitude>
    <longitude>-10.9666667</longitude>
  </city>
  <city name="Fanta">
    <latitude>9.2833333</latitude>
    <longitude>-12.6166667</longitude>
  </city>
  <city name="Fanye">
    <latitude>8.6333333</latitude>
    <longitude>-12.8833333</longitude>
  </city>
  <city name="Faragbema">
    <latitude>9.1833333</latitude>
    <longitude>-10.7833333</longitude>
  </city>
  <city name="Farakoro">
    <latitude>9.0</latitude>
    <longitude>-11.3666667</longitude>
  </city>
  <city name="Farama">
    <latitude>8.5833333</latitude>
    <longitude>-11.6</longitude>
  </city>
  <city name="Farandu">
    <latitude>8.6666667</latitude>
    <longitude>-10.9666667</longitude>
  </city>
  <city name="Farandugu">
    <latitude>9.4833333</latitude>
    <longitude>-11.45</longitude>
  </city>
  <city name="Farangbaya">
    <latitude>8.9833333</latitude>
    <longitude>-11.7166667</longitude>
  </city>
  <city name="Faransula">
    <latitude>8.8833333</latitude>
    <longitude>-11.6</longitude>
  </city>
  <city name="Farataw">
    <latitude>8.9666667</latitude>
    <longitude>-11.6166667</longitude>
  </city>
  <city name="Farawaro">
    <latitude>9.3666667</latitude>
    <longitude>-10.85</longitude>
  </city>
  <city name="Fasinaia">
    <latitude>9.4</latitude>
    <longitude>-12.6333333</longitude>
  </city>
  <city name="Fasonkodu">
    <latitude>8.4469444</latitude>
    <longitude>-10.3105556</longitude>
  </city>
  <city name="Fataba">
    <latitude>8.2166667</latitude>
    <longitude>-12.3833333</longitude>
  </city>
  <city name="Fatio">
    <latitude>7.4666667</latitude>
    <longitude>-11.2833333</longitude>
  </city>
  <city name="Fatori">
    <latitude>9.2666667</latitude>
    <longitude>-12.6333333</longitude>
  </city>
  <city name="Fauia">
    <latitude>8.7166667</latitude>
    <longitude>-11.1</longitude>
  </city>
  <city name="Fawaneemaa">
    <latitude>7.9072222</latitude>
    <longitude>-11.9833333</longitude>
  </city>
  <city name="Fayama">
    <latitude>7.8436111</latitude>
    <longitude>-11.5191667</longitude>
  </city>
  <city name="Fayima">
    <latitude>7.65</latitude>
    <longitude>-11.1833333</longitude>
  </city>
  <city name="Feba">
    <latitude>7.6847222</latitude>
    <longitude>-11.9233333</longitude>
  </city>
  <city name="Febana">
    <latitude>7.6847222</latitude>
    <longitude>-11.9233333</longitude>
  </city>
  <city name="Febena">
    <latitude>7.6847222</latitude>
    <longitude>-11.9233333</longitude>
  </city>
  <city name="Feja">
    <latitude>7.95</latitude>
    <longitude>-10.8166667</longitude>
  </city>
  <city name="Felnabalia">
    <latitude>9.6333333</latitude>
    <longitude>-11.0333333</longitude>
  </city>
  <city name="Fembedu">
    <latitude>8.5</latitude>
    <longitude>-10.8333333</longitude>
  </city>
  <city name="Fengehun">
    <latitude>7.98</latitude>
    <longitude>-11.5908333</longitude>
  </city>
  <city name="Fengka">
    <latitude>8.75</latitude>
    <longitude>-12.7</longitude>
  </city>
  <city name="Fenkembaia">
    <latitude>8.9333333</latitude>
    <longitude>-11.65</longitude>
  </city>
  <city name="Fensedu">
    <latitude>8.85</latitude>
    <longitude>-11.1</longitude>
  </city>
  <city name="Fentikhura">
    <latitude>9.8666667</latitude>
    <longitude>-12.2333333</longitude>
  </city>
  <city name="Fentikhuri">
    <latitude>9.8666667</latitude>
    <longitude>-12.2333333</longitude>
  </city>
  <city name="Feremabalia">
    <latitude>9.5666667</latitude>
    <longitude>-10.95</longitude>
  </city>
  <city name="Fernando Po">
    <latitude>8.5977778</latitude>
    <longitude>-13.0194444</longitude>
  </city>
  <city name="Fero">
    <latitude>8.8</latitude>
    <longitude>-10.65</longitude>
  </city>
  <city name="Fiama">
    <latitude>8.15</latitude>
    <longitude>-11.0</longitude>
  </city>
  <city name="Fiawo">
    <latitude>8.5333333</latitude>
    <longitude>-10.9166667</longitude>
  </city>
  <city name="Figi">
    <latitude>8.7833333</latitude>
    <longitude>-11.9666667</longitude>
  </city>
  <city name="Filina">
    <latitude>9.9166667</latitude>
    <longitude>-11.6666667</longitude>
  </city>
  <city name="Fimbadu">
    <latitude>8.9</latitude>
    <longitude>-10.75</longitude>
  </city>
  <city name="Fimbaia">
    <latitude>8.6666667</latitude>
    <longitude>-11.1</longitude>
  </city>
  <city name="Finabania">
    <latitude>9.3666667</latitude>
    <longitude>-10.9333333</longitude>
  </city>
  <city name="Fintibaia">
    <latitude>9.0333333</latitude>
    <longitude>-11.1</longitude>
  </city>
  <city name="Fintonia">
    <latitude>9.6666667</latitude>
    <longitude>-12.2333333</longitude>
  </city>
  <city name="Firawa">
    <latitude>9.35</latitude>
    <longitude>-11.3</longitude>
  </city>
  <city name="Firikaia">
    <latitude>8.8666667</latitude>
    <longitude>-11.4</longitude>
  </city>
  <city name="Fisher Lane">
    <latitude>8.4833333</latitude>
    <longitude>-13.2</longitude>
  </city>
  <city name="Foau">
    <latitude>8.2333333</latitude>
    <longitude>-10.9833333</longitude>
  </city>
  <city name="Fobu">
    <latitude>7.8655556</latitude>
    <longitude>-10.6569444</longitude>
  </city>
  <city name="Fodia">
    <latitude>9.2833333</latitude>
    <longitude>-12.95</longitude>
  </city>
  <city name="Fodi Town">
    <latitude>8.1833333</latitude>
    <longitude>-13.1333333</longitude>
  </city>
  <city name="Fogbanjo">
    <latitude>7.0333333</latitude>
    <longitude>-11.65</longitude>
  </city>
  <city name="Fogbanju">
    <latitude>7.0333333</latitude>
    <longitude>-11.65</longitude>
  </city>
  <city name="Fogbodu">
    <latitude>8.3333333</latitude>
    <longitude>-10.45</longitude>
  </city>
  <city name="Fogbo">
    <latitude>8.3019444</latitude>
    <longitude>-12.04</longitude>
  </city>
  <city name="Fo-gbo">
    <latitude>8.2666667</latitude>
    <longitude>-12.9833333</longitude>
  </city>
  <city name="Fogo">
    <latitude>9.25</latitude>
    <longitude>-11.6666667</longitude>
  </city>
  <city name="Foiboma">
    <latitude>8.75</latitude>
    <longitude>-11.2666667</longitude>
  </city>
  <city name="Foidu">
    <latitude>8.5666667</latitude>
    <longitude>-10.65</longitude>
  </city>
  <city name="Foimangadu">
    <latitude>8.9166667</latitude>
    <longitude>-11.2</longitude>
  </city>
  <city name="Foinba">
    <latitude>8.3833333</latitude>
    <longitude>-11.1333333</longitude>
  </city>
  <city name="Foinda">
    <latitude>7.6833333</latitude>
    <longitude>-12.3333333</longitude>
  </city>
  <city name="Foindu">
    <latitude>8.1</latitude>
    <longitude>-11.0666667</longitude>
  </city>
  <city name="Foiya">
    <latitude>8.3</latitude>
    <longitude>-12.9666667</longitude>
  </city>
  <city name="Fokaw">
    <latitude>8.9166667</latitude>
    <longitude>-12.9833333</longitude>
  </city>
  <city name="Fola">
    <latitude>7.9772222</latitude>
    <longitude>-10.9833333</longitude>
  </city>
  <city name="Folima">
    <latitude>7.5025</latitude>
    <longitude>-11.2625</longitude>
  </city>
  <city name="Folodu">
    <latitude>8.4333333</latitude>
    <longitude>-10.65</longitude>
  </city>
  <city name="Folu">
    <latitude>7.9241667</latitude>
    <longitude>-10.8991667</longitude>
  </city>
  <city name="Fomadu">
    <latitude>8.6833333</latitude>
    <longitude>-10.5333333</longitude>
  </city>
  <city name="Fomaia">
    <latitude>8.5</latitude>
    <longitude>-11.3</longitude>
  </city>
  <city name="Fomaya">
    <latitude>7.9666667</latitude>
    <longitude>-10.9166667</longitude>
  </city>
  <city name="Fonaia">
    <latitude>9.2666667</latitude>
    <longitude>-11.9666667</longitude>
  </city>
  <city name="Fonayama">
    <latitude>8.4833333</latitude>
    <longitude>-10.95</longitude>
  </city>
  <city name="Fondokhuri">
    <latitude>9.7666667</latitude>
    <longitude>-12.2333333</longitude>
  </city>
  <city name="Fondu">
    <latitude>8.4333333</latitude>
    <longitude>-12.7833333</longitude>
  </city>
  <city name="Foniko">
    <latitude>7.3233333</latitude>
    <longitude>-11.5880556</longitude>
  </city>
  <city name="Fonima">
    <latitude>8.3666667</latitude>
    <longitude>-10.9666667</longitude>
  </city>
  <city name="Foredugu">
    <latitude>8.75</latitude>
    <longitude>-12.5</longitude>
  </city>
  <city name="Fore">
    <latitude>9.7333333</latitude>
    <longitude>-11.15</longitude>
  </city>
  <city name="Foremoria">
    <latitude>9.8</latitude>
    <longitude>-11.5833333</longitude>
  </city>
  <city name="Foremusaia">
    <latitude>9.8666667</latitude>
    <longitude>-11.3666667</longitude>
  </city>
  <city name="Foria">
    <latitude>9.2333333</latitude>
    <longitude>-11.2</longitude>
  </city>
  <city name="Forikolo">
    <latitude>8.725</latitude>
    <longitude>-13.1638889</longitude>
  </city>
  <city name="Forobine">
    <latitude>8.65</latitude>
    <longitude>-11.4</longitude>
  </city>
  <city name="Forodugu">
    <latitude>8.4188889</latitude>
    <longitude>-13.0547222</longitude>
  </city>
  <city name="Forokoia">
    <latitude>8.8833333</latitude>
    <longitude>-11.35</longitude>
  </city>
  <city name="Fotani">
    <latitude>8.5666667</latitude>
    <longitude>-11.3833333</longitude>
  </city>
  <city name="Fotingaia">
    <latitude>8.6333333</latitude>
    <longitude>-11.1166667</longitude>
  </city>
  <city name="Foto">
    <latitude>9.7</latitude>
    <longitude>-12.2833333</longitude>
  </city>
  <city name="Fotori">
    <latitude>9.2666667</latitude>
    <longitude>-12.6333333</longitude>
  </city>
  <city name="Four Miles">
    <latitude>8.3386111</latitude>
    <longitude>-13.0047222</longitude>
  </city>
  <city name="Fowa">
    <latitude>8.3358333</latitude>
    <longitude>-10.4063889</longitude>
  </city>
  <city name="Fowaya">
    <latitude>8.1</latitude>
    <longitude>-10.7833333</longitude>
  </city>
  <city name="Foya">
    <latitude>7.8941667</latitude>
    <longitude>-11.1305556</longitude>
  </city>
  <city name="Foyama">
    <latitude>7.9666667</latitude>
    <longitude>-10.9166667</longitude>
  </city>
  <city name="Fransa">
    <latitude>8.9</latitude>
    <longitude>-12.65</longitude>
  </city>
  <city name="Freetown">
    <latitude>8.49</latitude>
    <longitude>-13.2341667</longitude>
  </city>
  <city name="Fuendo">
    <latitude>8.45</latitude>
    <longitude>-10.7166667</longitude>
  </city>
  <city name="Fuendu">
    <latitude>8.45</latitude>
    <longitude>-10.7166667</longitude>
  </city>
  <city name="Fuero">
    <latitude>8.6</latitude>
    <longitude>-10.65</longitude>
  </city>
  <city name="Fuhiko">
    <latitude>7.3233333</latitude>
    <longitude>-11.5880556</longitude>
  </city>
  <city name="Fuidu">
    <latitude>8.7833333</latitude>
    <longitude>-10.9</longitude>
  </city>
  <city name="Fukunba">
    <latitude>9.3666667</latitude>
    <longitude>-11.75</longitude>
  </city>
  <city name="Fula">
    <latitude>7.5411111</latitude>
    <longitude>-11.965</longitude>
  </city>
  <city name="Fulahun">
    <latitude>8.25</latitude>
    <longitude>-10.7</longitude>
  </city>
  <city name="Fulako">
    <latitude>8.4166667</latitude>
    <longitude>-10.7333333</longitude>
  </city>
  <city name="Fulaninahun">
    <latitude>7.9</latitude>
    <longitude>-12.05</longitude>
  </city>
  <city name="Fulatown">
    <latitude>8.8333333</latitude>
    <longitude>-12.4</longitude>
  </city>
  <city name="Fula Town">
    <latitude>9.3166667</latitude>
    <longitude>-11.8666667</longitude>
  </city>
  <city name="Fulawahun">
    <latitude>8.1166667</latitude>
    <longitude>-11.1333333</longitude>
  </city>
  <city name="Fulewama">
    <latitude>8.1180556</latitude>
    <longitude>-12.1647222</longitude>
  </city>
  <city name="Fuliwama">
    <latitude>7.9538889</latitude>
    <longitude>-12.0855556</longitude>
  </city>
  <city name="Fulun">
    <latitude>8.8</latitude>
    <longitude>-12.8</longitude>
  </city>
  <city name="Fumbala">
    <latitude>8.0333333</latitude>
    <longitude>-10.6166667</longitude>
  </city>
  <city name="Fundo">
    <latitude>8.4333333</latitude>
    <longitude>-12.7833333</longitude>
  </city>
  <city name="Fundu">
    <latitude>8.6</latitude>
    <longitude>-12.8166667</longitude>
  </city>
  <city name="Fundusuma">
    <latitude>9.2166667</latitude>
    <longitude>-10.75</longitude>
  </city>
  <city name="Funeba">
    <latitude>9.15</latitude>
    <longitude>-11.3166667</longitude>
  </city>
  <city name="Funehun">
    <latitude>7.1</latitude>
    <longitude>-11.6</longitude>
  </city>
  <city name="Funemba">
    <latitude>9.15</latitude>
    <longitude>-11.3166667</longitude>
  </city>
  <city name="Fungia">
    <latitude>8.1</latitude>
    <longitude>-12.0166667</longitude>
  </city>
  <city name="Funihun">
    <latitude>7.1</latitude>
    <longitude>-11.6</longitude>
  </city>
  <city name="Funiko">
    <latitude>7.3233333</latitude>
    <longitude>-11.5880556</longitude>
  </city>
  <city name="Funima">
    <latitude>8.2333333</latitude>
    <longitude>-11.2833333</longitude>
  </city>
  <city name="Funkia">
    <latitude>7.8666667</latitude>
    <longitude>-12.5666667</longitude>
  </city>
  <city name="Funkin">
    <latitude>9.1</latitude>
    <longitude>-12.45</longitude>
  </city>
  <city name="Funkio">
    <latitude>7.7397222</latitude>
    <longitude>-12.7355556</longitude>
  </city>
  <city name="Funknyin">
    <latitude>9.1</latitude>
    <longitude>-12.45</longitude>
  </city>
  <city name="Funkuya">
    <latitude>9.0</latitude>
    <longitude>-12.9166667</longitude>
  </city>
  <city name="Furia">
    <latitude>8.95</latitude>
    <longitude>-11.7166667</longitude>
  </city>
  <city name="Furibalia">
    <latitude>8.8666667</latitude>
    <longitude>-11.55</longitude>
  </city>
  <city name="Furikaria">
    <latitude>8.9833333</latitude>
    <longitude>-12.5333333</longitude>
  </city>
  <city name="Fusia">
    <latitude>9.9</latitude>
    <longitude>-11.3333333</longitude>
  </city>
  <city name="Futa">
    <latitude>8.4833333</latitude>
    <longitude>-12.9166667</longitude>
  </city>
  <city name="Futani">
    <latitude>8.5666667</latitude>
    <longitude>-11.8166667</longitude>
  </city>
  <city name="Futawahn">
    <latitude>8.05</latitude>
    <longitude>-11.7333333</longitude>
  </city>
  <city name="Futawahun">
    <latitude>8.05</latitude>
    <longitude>-11.7333333</longitude>
  </city>
  <city name="Futawoma">
    <latitude>7.8666667</latitude>
    <longitude>-11.9833333</longitude>
  </city>
  <city name="Fuyero">
    <latitude>8.7666667</latitude>
    <longitude>-10.9166667</longitude>
  </city>
  <city name="Gaahun">
    <latitude>8.05</latitude>
    <longitude>-11.0166667</longitude>
  </city>
  <city name="Gaama">
    <latitude>7.7333333</latitude>
    <longitude>-11.2166667</longitude>
  </city>
  <city name="Gabweba">
    <latitude>8.2166667</latitude>
    <longitude>-11.55</longitude>
  </city>
  <city name="Gafton">
    <latitude>8.3936111</latitude>
    <longitude>-13.1536111</longitude>
  </city>
  <city name="Gahun">
    <latitude>7.6161111</latitude>
    <longitude>-11.0805556</longitude>
  </city>
  <city name="Gaidehun">
    <latitude>8.3666667</latitude>
    <longitude>-11.75</longitude>
  </city>
  <city name="Gaigba">
    <latitude>7.85</latitude>
    <longitude>-10.7166667</longitude>
  </city>
  <city name="Gaigo">
    <latitude>8.2166667</latitude>
    <longitude>-10.5333333</longitude>
  </city>
  <city name="Gaioura">
    <latitude>7.65</latitude>
    <longitude>-11.65</longitude>
  </city>
  <city name="Gaivolu">
    <latitude>8.1833333</latitude>
    <longitude>-10.6</longitude>
  </city>
  <city name="Gajubaoma">
    <latitude>7.3166667</latitude>
    <longitude>-11.4666667</longitude>
  </city>
  <city name="Galahun">
    <latitude>8.3</latitude>
    <longitude>-11.05</longitude>
  </city>
  <city name="Galema">
    <latitude>8.6736111</latitude>
    <longitude>-10.4702778</longitude>
  </city>
  <city name="Galu">
    <latitude>7.7994444</latitude>
    <longitude>-11.1713889</longitude>
  </city>
  <city name="Gama">
    <latitude>7.7333333</latitude>
    <longitude>-11.2166667</longitude>
  </city>
  <city name="Gamayama">
    <latitude>7.6494444</latitude>
    <longitude>-11.5469444</longitude>
  </city>
  <city name="Gambia">
    <latitude>7.5325</latitude>
    <longitude>-12.1769444</longitude>
  </city>
  <city name="Gando">
    <latitude>7.6333333</latitude>
    <longitude>-11.45</longitude>
  </city>
  <city name="Gandohun">
    <latitude>7.6333333</latitude>
    <longitude>-11.45</longitude>
  </city>
  <city name="Gandorhun">
    <latitude>7.9305556</latitude>
    <longitude>-11.2933333</longitude>
  </city>
  <city name="Gangama">
    <latitude>8.0</latitude>
    <longitude>-11.05</longitude>
  </city>
  <city name="Gangodu">
    <latitude>8.5166667</latitude>
    <longitude>-10.9</longitude>
  </city>
  <city name="Ganguhun">
    <latitude>8.1841667</latitude>
    <longitude>-12.1997222</longitude>
  </city>
  <city name="Ganjama">
    <latitude>8.2333333</latitude>
    <longitude>-11.6166667</longitude>
  </city>
  <city name="Ganya">
    <latitude>9.6166667</latitude>
    <longitude>-12.4666667</longitude>
  </city>
  <city name="Garahun">
    <latitude>8.3</latitude>
    <longitude>-11.6166667</longitude>
  </city>
  <city name="Garama">
