<?xml version="1.0" encoding="UTF-8"?>
<country code="so" name="Somalie">
  <city name="Aabaan Weyn">
    <latitude>2.65</latitude>
    <longitude>44.0166667</longitude>
  </city>
  <city name="Aabaan Yare">
    <latitude>2.6166667</latitude>
    <longitude>44.0333333</longitude>
  </city>
  <city name="Aabarak">
    <latitude>3.0666667</latitude>
    <longitude>43.5</longitude>
  </city>
  <city name="Aabow">
    <latitude>3.0333333</latitude>
    <longitude>44.1666667</longitude>
  </city>
  <city name="Aadan Harmey">
    <latitude>1.4333333</latitude>
    <longitude>43.9166667</longitude>
  </city>
  <city name="Aadan Nuur">
    <latitude>1.8333333</latitude>
    <longitude>44.6333333</longitude>
  </city>
  <city name="Aadan Waraabow">
    <latitude>3.5833333</latitude>
    <longitude>43.8666667</longitude>
  </city>
  <city name="Aadan Yabaal">
    <latitude>3.7833333</latitude>
    <longitude>46.25</longitude>
  </city>
  <city name="Aaminaay">
    <latitude>2.3</latitude>
    <longitude>42.3333333</longitude>
  </city>
  <city name="Aantaara">
    <latitude>11.4413889</latitude>
    <longitude>49.5530556</longitude>
  </city>
  <city name="Aawla">
    <latitude>2.9666667</latitude>
    <longitude>44.0166667</longitude>
  </city>
  <city name="Aayolay">
    <latitude>3.05</latitude>
    <longitude>43.95</longitude>
  </city>
  <city name="Abaaji">
    <latitude>3.6</latitude>
    <longitude>46.95</longitude>
  </city>
  <city name="Abaarey">
    <latitude>7.0833333</latitude>
    <longitude>47.4833333</longitude>
  </city>
  <city name="Abaarso">
    <latitude>9.6</latitude>
    <longitude>43.8833333</longitude>
  </city>
  <city name="Abaar Yoma">
    <latitude>2.6833333</latitude>
    <longitude>44.1</longitude>
  </city>
  <city name="Abaati">
    <latitude>2.0833333</latitude>
    <longitude>42.5166667</longitude>
  </city>
  <city name="Abaayle">
    <latitude>2.1</latitude>
    <longitude>42.25</longitude>
  </city>
  <city name="Abaayow">
    <latitude>2.6833333</latitude>
    <longitude>45.1</longitude>
  </city>
  <city name="Ababscia">
    <latitude>1.6333333</latitude>
    <longitude>44.2666667</longitude>
  </city>
  <city name="Abac Gurei">
    <latitude>2.7666667</latitude>
    <longitude>43.7833333</longitude>
  </city>
  <city name="Abag Dheere">
    <latitude>3.9833333</latitude>
    <longitude>44.35</longitude>
  </city>
  <city name="Abakor Cadaawe">
    <latitude>10.0333333</latitude>
    <longitude>43.35</longitude>
  </city>
  <city name="Abal">
    <latitude>3.9333333</latitude>
    <longitude>43.9333333</longitude>
  </city>
  <city name="Abaq Dheere">
    <latitude>1.6169444</latitude>
    <longitude>42.3833333</longitude>
  </city>
  <city name="Abaq Mudule">
    <latitude>1.35</latitude>
    <longitude>44.2</longitude>
  </city>
  <city name="Abaqsaarre">
    <latitude>2.9166667</latitude>
    <longitude>44.05</longitude>
  </city>
  <city name="`Abasa">
    <latitude>10.1166667</latitude>
    <longitude>43.2333333</longitude>
  </city>
  <city name="Abawle">
    <latitude>2.7666667</latitude>
    <longitude>44.1</longitude>
  </city>
  <city name="Abbaayow">
    <latitude>2.7</latitude>
    <longitude>45.0833333</longitude>
  </city>
  <city name="Abbannaale">
    <latitude>2.2166667</latitude>
    <longitude>45.15</longitude>
  </city>
  <city name="Abbas">
    <latitude>2.8833333</latitude>
    <longitude>45.45</longitude>
  </city>
  <city name="Abdi Ali">
    <latitude>1.75</latitude>
    <longitude>44.4833333</longitude>
  </city>
  <city name="Abdi Arbo">
    <latitude>-0.0333333</latitude>
    <longitude>42.6</longitude>
  </city>
  <city name="Abdi Boloh">
    <latitude>9.2666667</latitude>
    <longitude>45.8333333</longitude>
  </city>
  <city name="Abdi Farah">
    <latitude>9.1833333</latitude>
    <longitude>44.9833333</longitude>
  </city>
  <city name="Abdille">
    <latitude>2.3333333</latitude>
    <longitude>44.8333333</longitude>
  </city>
  <city name="Abdi Uurane">
    <latitude>2.8833333</latitude>
    <longitude>43.8666667</longitude>
  </city>
  <city name="Abdurug">
    <latitude>3.0166667</latitude>
    <longitude>43.4833333</longitude>
  </city>
  <city name="Abduuch">
    <latitude>6.2166667</latitude>
    <longitude>46.3833333</longitude>
  </city>
  <city name="Abeesaale">
    <latitude>4.9</latitude>
    <longitude>44.5166667</longitude>
  </city>
  <city name="Abees Eemid">
    <latitude>3.1166667</latitude>
    <longitude>43.4666667</longitude>
  </city>
  <city name="Abeesgarwaal">
    <latitude>3.1166667</latitude>
    <longitude>43.5</longitude>
  </city>
  <city name="Abesale">
    <latitude>4.9</latitude>
    <longitude>44.5166667</longitude>
  </city>
  <city name="Abikarow">
    <latitude>1.7333333</latitude>
    <longitude>44.6666667</longitude>
  </city>
  <city name="Abliko">
    <latitude>1.8666667</latitude>
    <longitude>44.7333333</longitude>
  </city>
  <city name="Abo">
    <latitude>11.7833333</latitude>
    <longitude>50.5166667</longitude>
  </city>
  <city name="Aboow Cali">
    <latitude>1.75</latitude>
    <longitude>44.55</longitude>
  </city>
  <city name="Aboreu">
    <latitude>0.0755556</latitude>
    <longitude>42.7327778</longitude>
  </city>
  <city name="Aborey">
    <latitude>4.0166667</latitude>
    <longitude>45.6833333</longitude>
  </city>
  <city name="Aborko">
    <latitude>2.9</latitude>
    <longitude>43.95</longitude>
  </city>
  <city name="Aboro">
    <latitude>0.0755556</latitude>
    <longitude>42.7327778</longitude>
  </city>
  <city name="Aborou">
    <latitude>0.0755556</latitude>
    <longitude>42.7327778</longitude>
  </city>
  <city name="Abou">
    <latitude>4.35</latitude>
    <longitude>43.05</longitude>
  </city>
  <city name="Abrarow">
    <latitude>1.3333333</latitude>
    <longitude>43.8333333</longitude>
  </city>
  <city name="Abrone">
    <latitude>2.4666667</latitude>
    <longitude>41.5833333</longitude>
  </city>
  <city name="Abu Gala">
    <latitude>0.0666667</latitude>
    <longitude>41.3666667</longitude>
  </city>
  <city name="Aburriin">
    <latitude>9.5166667</latitude>
    <longitude>43.8166667</longitude>
  </city>
  <city name="Abuukar Xaaji Figow">
    <latitude>2.9666667</latitude>
    <longitude>43.4</longitude>
  </city>
  <city name="Abuu Sheegow">
    <latitude>1.4166667</latitude>
    <longitude>44.2833333</longitude>
  </city>
  <city name="Acable">
    <latitude>4.35</latitude>
    <longitude>44.7</longitude>
  </city>
  <city name="Acaca">
    <latitude>1.5433333</latitude>
    <longitude>42.4341667</longitude>
  </city>
  <city name="Acqua Uadi">
    <latitude>8.15</latitude>
    <longitude>48.35</longitude>
  </city>
  <city name="Ada">
    <latitude>9.9166667</latitude>
    <longitude>43.7833333</longitude>
  </city>
  <city name="Adada">
    <latitude>-1.1</latitude>
    <longitude>41.7333333</longitude>
  </city>
  <city name="Adad">
    <latitude>8.9333333</latitude>
    <longitude>45.95</longitude>
  </city>
  <city name="Adadere">
    <latitude>3.2666667</latitude>
    <longitude>45.6333333</longitude>
  </city>
  <city name="Adad Gheri">
    <latitude>2.3166667</latitude>
    <longitude>42.7166667</longitude>
  </city>
  <city name="Adadle">
    <latitude>9.7666667</latitude>
    <longitude>44.6833333</longitude>
  </city>
  <city name="Adadleh">
    <latitude>9.7666667</latitude>
    <longitude>44.6833333</longitude>
  </city>
  <city name="Adado">
    <latitude>6.15</latitude>
    <longitude>46.6333333</longitude>
  </city>
  <city name="`Adado">
    <latitude>-1.1</latitude>
    <longitude>41.7333333</longitude>
  </city>
  <city name="Adahio">
    <latitude>2.3833333</latitude>
    <longitude>45.7666667</longitude>
  </city>
  <city name="Adaio">
    <latitude>4.4</latitude>
    <longitude>46.4333333</longitude>
  </city>
  <city name="Adale">
    <latitude>2.75</latitude>
    <longitude>46.3166667</longitude>
  </city>
  <city name="Adale Afuen">
    <latitude>3.2333333</latitude>
    <longitude>45.4166667</longitude>
  </city>
  <city name="Adale Afweyna">
    <latitude>3.2333333</latitude>
    <longitude>45.4166667</longitude>
  </city>
  <city name="Adalei">
    <latitude>1.9333333</latitude>
    <longitude>43.3</longitude>
  </city>
  <city name="Adale Ibrahim">
    <latitude>3.2</latitude>
    <longitude>45.3666667</longitude>
  </city>
  <city name="Adaliyow">
    <latitude>1.75</latitude>
    <longitude>44.6333333</longitude>
  </city>
  <city name="Adalou">
    <latitude>2.9</latitude>
    <longitude>45.5166667</longitude>
  </city>
  <city name="Adat">
    <latitude>5.4166667</latitude>
    <longitude>47.5166667</longitude>
  </city>
  <city name="Addomò">
    <latitude>0.6666667</latitude>
    <longitude>42.7166667</longitude>
  </city>
  <city name="Addow">
    <latitude>3.5833333</latitude>
    <longitude>43.8166667</longitude>
  </city>
  <city name="`Addudo">
    <latitude>1.1666667</latitude>
    <longitude>43.1333333</longitude>
  </city>
  <city name="Ade Adeye">
    <latitude>8.6666667</latitude>
    <longitude>47.15</longitude>
  </city>
  <city name="Adega">
    <latitude>2.55</latitude>
    <longitude>45.3333333</longitude>
  </city>
  <city name="Adega Mobilen">
    <latitude>2.55</latitude>
    <longitude>45.3333333</longitude>
  </city>
  <city name="Adego">
    <latitude>8.9666667</latitude>
    <longitude>49.5833333</longitude>
  </city>
  <city name="Adegow">
    <latitude>3.4166667</latitude>
    <longitude>43.3833333</longitude>
  </city>
  <city name="Adeile">
    <latitude>1.9333333</latitude>
    <longitude>43.3</longitude>
  </city>
  <city name="Adelta">
    <latitude>1.15</latitude>
    <longitude>43.4666667</longitude>
  </city>
  <city name="Adhicadeeye">
    <latitude>8.6666667</latitude>
    <longitude>47.15</longitude>
  </city>
  <city name="Adim">
    <latitude>4.6544444</latitude>
    <longitude>47.8575</longitude>
  </city>
  <city name="Adinsoone">
    <latitude>9.5333333</latitude>
    <longitude>49.2333333</longitude>
  </city>
  <city name="Adizona">
    <latitude>9.5333333</latitude>
    <longitude>49.2333333</longitude>
  </city>
  <city name="Adudo">
    <latitude>1.1666667</latitude>
    <longitude>43.1333333</longitude>
  </city>
  <city name="Aduma">
    <latitude>1.7666667</latitude>
    <longitude>44.5666667</longitude>
  </city>
  <city name="Aesow">
    <latitude>1.75</latitude>
    <longitude>44.6</longitude>
  </city>
  <city name="Aeula">
    <latitude>11.9666667</latitude>
    <longitude>50.75</longitude>
  </city>
  <city name="Afaafo">
    <latitude>2.35</latitude>
    <longitude>43.7666667</longitude>
  </city>
  <city name="Afad">
    <latitude>3.5833333</latitude>
    <longitude>45.6666667</longitude>
  </city>
  <city name="Afar Daar">
    <latitude>3.1666667</latitude>
    <longitude>44.8166667</longitude>
  </city>
  <city name="Afar Iato">
    <latitude>3.25</latitude>
    <longitude>43.55</longitude>
  </city>
  <city name="Af Barwaaqo">
    <latitude>6.5</latitude>
    <longitude>48.7833333</longitude>
  </city>
  <city name="Af Ed">
    <latitude>1.9666667</latitude>
    <longitude>43.3666667</longitude>
  </city>
  <city name="Af Gedud">
    <latitude>8.3833333</latitude>
    <longitude>49.15</longitude>
  </city>
  <city name="Afgoi Addo">
    <latitude>3.25</latitude>
    <longitude>45.55</longitude>
  </city>
  <city name="Afgoi">
    <latitude>2.15</latitude>
    <longitude>45.1166667</longitude>
  </city>
  <city name="Afgooy">
    <latitude>0.9491667</latitude>
    <longitude>42.6216667</longitude>
  </city>
  <city name="Afgooye">
    <latitude>3.45</latitude>
    <longitude>43.8333333</longitude>
  </city>
  <city name="Afgooye Cadde">
    <latitude>3.25</latitude>
    <longitude>45.55</longitude>
  </city>
  <city name="Afgooye Yare">
    <latitude>1.6666667</latitude>
    <longitude>44.4166667</longitude>
  </city>
  <city name="Afgoye">
    <latitude>2.15</latitude>
    <longitude>45.1166667</longitude>
  </city>
  <city name="Af Gudud">
    <latitude>10.0666667</latitude>
    <longitude>50.1833333</longitude>
  </city>
  <city name="Af Gudut">
    <latitude>10.0666667</latitude>
    <longitude>50.1833333</longitude>
  </city>
  <city name="Afguduudle">
    <latitude>5.7666667</latitude>
    <longitude>48.05</longitude>
  </city>
  <city name="Afhuug">
    <latitude>3.1333333</latitude>
    <longitude>43.6333333</longitude>
  </city>
  <city name="Afjiinow">
    <latitude>2.9333333</latitude>
    <longitude>43.6333333</longitude>
  </city>
  <city name="Afkala Haya">
    <latitude>11.9</latitude>
    <longitude>50.5833333</longitude>
  </city>
  <city name="Af Karin">
    <latitude>11.2833333</latitude>
    <longitude>50.1666667</longitude>
  </city>
  <city name="Afmadoow">
    <latitude>0.5172222</latitude>
    <longitude>42.0711111</longitude>
  </city>
  <city name="Afmadow">
    <latitude>0.5172222</latitude>
    <longitude>42.0711111</longitude>
  </city>
  <city name="Afmadu">
    <latitude>0.5172222</latitude>
    <longitude>42.0711111</longitude>
  </city>
  <city name="Af Ruugleey">
    <latitude>10.2166667</latitude>
    <longitude>50.9</longitude>
  </city>
  <city name="Afuein">
    <latitude>1.5333333</latitude>
    <longitude>44.5333333</longitude>
  </city>
  <city name="Af Uen">
    <latitude>3.3</latitude>
    <longitude>45.15</longitude>
  </city>
  <city name="Afweyn">
    <latitude>1.5333333</latitude>
    <longitude>44.5333333</longitude>
  </city>
  <city name="Af Yar">
    <latitude>2.4333333</latitude>
    <longitude>42.3166667</longitude>
  </city>
  <city name="Agabar">
    <latitude>9.9166667</latitude>
    <longitude>43.9166667</longitude>
  </city>
  <city name="`Ag">
    <latitude>8.4333333</latitude>
    <longitude>50.2333333</longitude>
  </city>
  <city name="Agagable">
    <latitude>2.1666667</latitude>
    <longitude>42.15</longitude>
  </city>
  <city name="Agamsaha">
    <latitude>9.6833333</latitude>
    <longitude>43.6833333</longitude>
  </city>
  <city name="Agarada">
    <latitude>8.6333333</latitude>
    <longitude>45.7</longitude>
  </city>
  <city name="Agarboale">
    <latitude>10.4833333</latitude>
    <longitude>50.8166667</longitude>
  </city>
  <city name="Agar Gul">
    <latitude>3.6166667</latitude>
    <longitude>46.8</longitude>
  </city>
  <city name="Agarrei">
    <latitude>5.1166667</latitude>
    <longitude>47.1</longitude>
  </city>
  <city name="Aggherar">
    <latitude>4.05</latitude>
    <longitude>42.6666667</longitude>
  </city>
  <city name="Agghini">
    <latitude>2.4166667</latitude>
    <longitude>42.4333333</longitude>
  </city>
  <city name="Agh">
    <latitude>8.4333333</latitude>
    <longitude>50.2333333</longitude>
  </city>
  <city name="Agi Alí">
    <latitude>2.2</latitude>
    <longitude>45.1833333</longitude>
  </city>
  <city name="Agille">
    <latitude>-0.7833333</latitude>
    <longitude>41.75</longitude>
  </city>
  <city name="Agin">
    <latitude>8.4166667</latitude>
    <longitude>49.8833333</longitude>
  </city>
  <city name="Agodi">
    <latitude>-0.1333333</latitude>
    <longitude>41.9666667</longitude>
  </city>
  <city name="Ago Merodeh">
    <latitude>10.2166667</latitude>
    <longitude>44.6666667</longitude>
  </city>
  <city name="Agordaban">
    <latitude>10.0333333</latitude>
    <longitude>49.3833333</longitude>
  </city>
  <city name="Ahable">
    <latitude>11.2</latitude>
    <longitude>50.4166667</longitude>
  </city>
  <city name="Ahg">
    <latitude>8.4333333</latitude>
    <longitude>50.2333333</longitude>
  </city>
  <city name="Ai Culei">
    <latitude>3.05</latitude>
    <longitude>43.95</longitude>
  </city>
  <city name="Aiesloho">
    <latitude>11.5666667</latitude>
    <longitude>51.1166667</longitude>
  </city>
  <city name="Aifelle">
    <latitude>0.9</latitude>
    <longitude>43.2833333</longitude>
  </city>
  <city name="Aifodo">
    <latitude>2.9</latitude>
    <longitude>44.2</longitude>
  </city>
  <city name="Aik">
    <latitude>9.0</latitude>
    <longitude>45.3666667</longitude>
  </city>
  <city name="Aikijedi">
    <latitude>3.2</latitude>
    <longitude>43.6166667</longitude>
  </city>
  <city name="Ailesho">
    <latitude>2.5666667</latitude>
    <longitude>43.9666667</longitude>
  </city>
  <city name="Ainabo">
    <latitude>8.95</latitude>
    <longitude>46.4333333</longitude>
  </city>
  <city name="Ainle">
    <latitude>9.35</latitude>
    <longitude>44.1</longitude>
  </city>
  <city name="Ainleh">
    <latitude>9.35</latitude>
    <longitude>44.1</longitude>
  </city>
  <city name="Airebehje">
    <latitude>11.9166667</latitude>
    <longitude>50.75</longitude>
  </city>
  <city name="Ajaaw">
    <latitude>3.0833333</latitude>
    <longitude>42.4</longitude>
  </city>
  <city name="`Ajin">
    <latitude>8.4166667</latitude>
    <longitude>49.8833333</longitude>
  </city>
  <city name="Akamso">
    <latitude>9.6666667</latitude>
    <longitude>43.65</longitude>
  </city>
  <city name="Alaalacadka">
    <latitude>9.85</latitude>
    <longitude>44.35</longitude>
  </city>
  <city name="Aladhajo">
    <latitude>1.3</latitude>
    <longitude>44.1333333</longitude>
  </city>
  <city name="Alafuutow">
    <latitude>1.5666667</latitude>
    <longitude>44.0166667</longitude>
  </city>
  <city name="Alamburo">
    <latitude>1.7833333</latitude>
    <longitude>44.5166667</longitude>
  </city>
  <city name="Alambuur">
    <latitude>1.7833333</latitude>
    <longitude>44.5166667</longitude>
  </city>
  <city name="Alàmo">
    <latitude>4.3833333</latitude>
    <longitude>43.15</longitude>
  </city>
  <city name="`Alan Dabé">
    <latitude>8.75</latitude>
    <longitude>45.9</longitude>
  </city>
  <city name="Alan Debe">
    <latitude>8.75</latitude>
    <longitude>45.9</longitude>
  </city>
  <city name="Alanshile">
    <latitude>1.4166667</latitude>
    <longitude>43.95</longitude>
  </city>
  <city name="Al Cad">
    <latitude>3.5833333</latitude>
    <longitude>45.6666667</longitude>
  </city>
  <city name="Aleibadei">
    <latitude>9.3833333</latitude>
    <longitude>43.5166667</longitude>
  </city>
  <city name="Alessandra">
    <latitude>0.5</latitude>
    <longitude>42.7666667</longitude>
  </city>
  <city name="Ali Assan">
    <latitude>1.0666667</latitude>
    <longitude>43.4166667</longitude>
  </city>
  <city name="Alì Banga">
    <latitude>0.4666667</latitude>
    <longitude>42.75</longitude>
  </city>
  <city name="Alifow">
    <latitude>2.2833333</latitude>
    <longitude>45.1833333</longitude>
  </city>
  <city name="Ali Gala">
    <latitude>10.45</latitude>
    <longitude>43.25</longitude>
  </city>
  <city name="Ali Isa">
    <latitude>8.55</latitude>
    <longitude>45.5166667</longitude>
  </city>
  <city name="Aliò Edda">
    <latitude>1.2666667</latitude>
    <longitude>43.8833333</longitude>
  </city>
  <city name="Alio Eddao">
    <latitude>1.2666667</latitude>
    <longitude>43.8833333</longitude>
  </city>
  <city name="Alla Gabe">
    <latitude>3.7333333</latitude>
    <longitude>43.75</longitude>
  </city>
  <city name="Allanga Gurrow">
    <latitude>-0.3166667</latitude>
    <longitude>41.05</longitude>
  </city>
  <city name="Allango Gurru">
    <latitude>-0.3166667</latitude>
    <longitude>41.05</longitude>
  </city>
  <city name="Allegada">
    <latitude>10.45</latitude>
    <longitude>43.25</longitude>
  </city>
  <city name="Allenta">
    <latitude>2.5166667</latitude>
    <longitude>42.9833333</longitude>
  </city>
  <city name="Alleqalla">
    <latitude>10.45</latitude>
    <longitude>43.25</longitude>
  </city>
  <city name="Al Marodle">
    <latitude>10.4</latitude>
    <longitude>50.6166667</longitude>
  </city>
  <city name="Al Medou">
    <latitude>0.8666667</latitude>
    <longitude>43.65</longitude>
  </city>
  <city name="Alol Lamma Gad">
    <latitude>1.9833333</latitude>
    <longitude>43.3833333</longitude>
  </city>
  <city name="Alula">
    <latitude>11.9666667</latitude>
    <longitude>50.75</longitude>
  </city>
  <city name="Alundi">
    <latitude>1.8333333</latitude>
    <longitude>44.7</longitude>
  </city>
  <city name="`Amadere">
    <latitude>9.25</latitude>
    <longitude>45.0833333</longitude>
  </city>
  <city name="Ambago">
    <latitude>0.3136111</latitude>
    <longitude>42.7541667</longitude>
  </city>
  <city name="Ambalio">
    <latitude>5.1</latitude>
    <longitude>47.8833333</longitude>
  </city>
  <city name="Ambul">
    <latitude>2.7</latitude>
    <longitude>44.0833333</longitude>
  </city>
  <city name="Amiiney">
    <latitude>0.4666667</latitude>
    <longitude>42.75</longitude>
  </city>
  <city name="Aminei">
    <latitude>2.3</latitude>
    <longitude>42.3333333</longitude>
  </city>
  <city name="Aminow">
    <latitude>0.3730556</latitude>
    <longitude>42.8344444</longitude>
  </city>
  <city name="Amisighei">
    <latitude>2.8666667</latitude>
    <longitude>44.2666667</longitude>
  </city>
  <city name="`Amtara">
    <latitude>11.4413889</latitude>
    <longitude>49.5530556</longitude>
  </city>
  <city name="Analgubi Hal">
    <latitude>11.0666667</latitude>
    <longitude>50.1833333</longitude>
  </city>
  <city name="Ancherrou">
    <latitude>1.25</latitude>
    <longitude>44.1166667</longitude>
  </city>
  <city name="Ando Bait">
    <latitude>10.0</latitude>
    <longitude>43.25</longitude>
  </city>
  <city name="Andobeid">
    <latitude>10.0</latitude>
    <longitude>43.25</longitude>
  </city>
  <city name="Anduuma">
    <latitude>0.6666667</latitude>
    <longitude>42.7166667</longitude>
  </city>
  <city name="Anghor">
    <latitude>11.25</latitude>
    <longitude>50.1333333</longitude>
  </city>
  <city name="Anghor Daban">
    <latitude>10.0333333</latitude>
    <longitude>49.3833333</longitude>
  </city>
  <city name="Angole">
    <latitude>1.0833333</latitude>
    <longitude>42.5811111</longitude>
  </city>
  <city name="Angole Uen">
    <latitude>1.0833333</latitude>
    <longitude>42.5811111</longitude>
  </city>
  <city name="Angolle Uein">
    <latitude>1.0833333</latitude>
    <longitude>42.5811111</longitude>
  </city>
  <city name="Angolle Uen">
    <latitude>1.0833333</latitude>
    <longitude>42.5811111</longitude>
  </city>
  <city name="Angorti Dalmadol">
    <latitude>9.95</latitude>
    <longitude>49.9333333</longitude>
  </city>
  <city name="Angorti Dalmadot">
    <latitude>9.95</latitude>
    <longitude>49.9333333</longitude>
  </city>
  <city name="Aniuma">
    <latitude>0.8</latitude>
    <longitude>42.6</longitude>
  </city>
  <city name="Anjuma">
    <latitude>0.8</latitude>
    <longitude>42.6</longitude>
  </city>
  <city name="Ankele">
    <latitude>0.4166667</latitude>
    <longitude>42.7333333</longitude>
  </city>
  <city name="Ankhor">
    <latitude>10.7763889</latitude>
    <longitude>46.1947222</longitude>
  </city>
  <city name="Ankor">
    <latitude>10.7763889</latitude>
    <longitude>46.1947222</longitude>
  </city>
  <city name="Anole">
    <latitude>2.0166667</latitude>
    <longitude>42.3166667</longitude>
  </city>
  <city name="Ansubisto">
    <latitude>0.6666667</latitude>
    <longitude>41.8166667</longitude>
  </city>
  <city name="Antara">
    <latitude>11.4413889</latitude>
    <longitude>49.5530556</longitude>
  </city>
  <city name="Anteral">
    <latitude>10.7166667</latitude>
    <longitude>45.6</longitude>
  </city>
  <city name="Anzubisto">
    <latitude>0.6666667</latitude>
    <longitude>41.8166667</longitude>
  </city>
  <city name="Aproni">
    <latitude>2.4666667</latitude>
    <longitude>41.5833333</longitude>
  </city>
  <city name="Aqab Doco">
    <latitude>2.9</latitude>
    <longitude>45.75</longitude>
  </city>
  <city name="Aqal Saar">
    <latitude>2.45</latitude>
    <longitude>45.3166667</longitude>
  </city>
  <city name="Araara">
    <latitude>0.03</latitude>
    <longitude>42.6916667</longitude>
  </city>
  <city name="Arabsiyo">
    <latitude>9.6833333</latitude>
    <longitude>43.7666667</longitude>
  </city>
  <city name="Arale">
    <latitude>4.2666667</latitude>
    <longitude>45.2666667</longitude>
  </city>
  <city name="Arapsio">
    <latitude>9.6833333</latitude>
    <longitude>43.7666667</longitude>
  </city>
  <city name="Araqolab">
    <latitude>9.9166667</latitude>
    <longitude>43.2166667</longitude>
  </city>
  <city name="Arara Ueine">
    <latitude>0.03</latitude>
    <longitude>42.6916667</longitude>
  </city>
  <city name="Ararchi Eggi">
    <latitude>3.1833333</latitude>
    <longitude>45.5666667</longitude>
  </city>
  <city name="Arar Gubetti">
    <latitude>10.9166667</latitude>
    <longitude>50.8833333</longitude>
  </city>
  <city name="Arar Lugole">
    <latitude>3.2666667</latitude>
    <longitude>45.4666667</longitude>
  </city>
  <city name="Araroba">
    <latitude>0.7333333</latitude>
    <longitude>41.5333333</longitude>
  </city>
  <city name="Arar Yarey">
    <latitude>0.0197222</latitude>
    <longitude>42.675</longitude>
  </city>
  <city name="Arbadinle">
    <latitude>0.7833333</latitude>
    <longitude>43.3</longitude>
  </city>
  <city name="Arbey Cabdi">
    <latitude>0.5102778</latitude>
    <longitude>42.9755556</longitude>
  </city>
  <city name="Arbi">
    <latitude>2.5666667</latitude>
    <longitude>44.8</longitude>
  </city>
  <city name="Arbo Abdi">
    <latitude>0.45</latitude>
    <longitude>43.0666667</longitude>
  </city>
  <city name="Arbò Haro">
    <latitude>1.5833333</latitude>
    <longitude>44.1833333</longitude>
  </city>
  <city name="Arbohiray">
    <latitude>1.85</latitude>
    <longitude>42.9</longitude>
  </city>
  <city name="Arbow">
    <latitude>2.15</latitude>
    <longitude>44.55</longitude>
  </city>
  <city name="Arbowoheerow">
    <latitude>1.5833333</latitude>
    <longitude>44.1833333</longitude>
  </city>
  <city name="Arec">
    <latitude>3.1666667</latitude>
    <longitude>43.75</longitude>
  </city>
  <city name="Areeg">
    <latitude>3.1666667</latitude>
    <longitude>43.75</longitude>
  </city>
  <city name="Arenaga">
    <latitude>0.5333333</latitude>
    <longitude>42.9166667</longitude>
  </city>
  <city name="Areri">
    <latitude>8.8333333</latitude>
    <longitude>50.0833333</longitude>
  </city>
  <city name="Areri Lalamod">
    <latitude>7.3833333</latitude>
    <longitude>49.15</longitude>
  </city>
  <city name="Areri Lolammod">
    <latitude>7.3833333</latitude>
    <longitude>49.15</longitude>
  </city>
  <city name="Areri Mallim Uarfai">
    <latitude>4.5666667</latitude>
    <longitude>47.35</longitude>
  </city>
  <city name="Arfuda">
    <latitude>6.6333333</latitude>
    <longitude>47.6</longitude>
  </city>
  <city name="Argeeg">
    <latitude>9.7333333</latitude>
    <longitude>43.3833333</longitude>
  </city>
  <city name="Arghed">
    <latitude>0.4505556</latitude>
    <longitude>42.7063889</longitude>
  </city>
  <city name="Arghes">
    <latitude>-0.2666667</latitude>
    <longitude>41.8833333</longitude>
  </city>
  <city name="Ar Gummo">
    <latitude>3.7333333</latitude>
    <longitude>44.9</longitude>
  </city>
  <city name="Ari Adeso">
    <latitude>10.4</latitude>
    <longitude>44.7333333</longitude>
  </city>
  <city name="Arieegle">
    <latitude>2.5</latitude>
    <longitude>44.9166667</longitude>
  </city>
  <city name="Arilay">
    <latitude>3.15</latitude>
    <longitude>43.0666667</longitude>
  </city>
  <city name="Arinder">
    <latitude>9.6666667</latitude>
    <longitude>50.8333333</longitude>
  </city>
  <city name="Arindirri">
    <latitude>7.9833333</latitude>
    <longitude>49.8666667</longitude>
  </city>
  <city name="Arin Ragazz">
    <latitude>7.9833333</latitude>
    <longitude>49.8666667</longitude>
  </city>
  <city name="Ariradle">
    <latitude>1.8</latitude>
    <longitude>44.8833333</longitude>
  </city>
  <city name="Arisimo">
    <latitude>7.8</latitude>
    <longitude>49.15</longitude>
  </city>
  <city name="Armugia">
    <latitude>11.4166667</latitude>
    <longitude>50.75</longitude>
  </city>
  <city name="Aro Berar">
    <latitude>9.6</latitude>
    <longitude>43.45</longitude>
  </city>
  <city name="Arole">
    <latitude>2.9666667</latitude>
    <longitude>46.55</longitude>
  </city>
  <city name="Aroori">
    <latitude>9.35</latitude>
    <longitude>45.4666667</longitude>
  </city>
  <city name="Aroos Beenaat">
    <latitude>2.85</latitude>
    <longitude>45.6666667</longitude>
  </city>
  <city name="Aroos Eber">
    <latitude>1.6166667</latitude>
    <longitude>44.3833333</longitude>
  </city>
  <city name="Aroos Ibir">
    <latitude>3.0833333</latitude>
    <longitude>43.55</longitude>
  </city>
  <city name="Aroos Xaawa">
    <latitude>3.1833333</latitude>
    <longitude>43.5</longitude>
  </city>
  <city name="Arosurre">
    <latitude>1.9813889</latitude>
    <longitude>42.23</longitude>
  </city>
  <city name="Arraoba">
    <latitude>0.7333333</latitude>
    <longitude>41.5333333</longitude>
  </city>
  <city name="Arrinmoog">
    <latitude>2.2</latitude>
    <longitude>45.2</longitude>
  </city>
  <city name="Arroberar">
    <latitude>9.6</latitude>
    <longitude>43.45</longitude>
  </city>
  <city name="Ar Uein">
    <latitude>9.0166667</latitude>
    <longitude>50.25</longitude>
  </city>
  <city name="Ar Ueir">
    <latitude>9.0166667</latitude>
    <longitude>50.25</longitude>
  </city>
  <city name="Ar Uen">
    <latitude>9.0166667</latitude>
    <longitude>50.25</longitude>
  </city>
  <city name="Arundolei">
    <latitude>0.6333333</latitude>
    <longitude>42.7497222</longitude>
  </city>
  <city name="Arundoole">
    <latitude>0.6333333</latitude>
    <longitude>42.7497222</longitude>
  </city>
  <city name="Arunlei">
    <latitude>4.2166667</latitude>
    <longitude>42.95</longitude>
  </city>
  <city name="`Ar Weyn">
    <latitude>9.0166667</latitude>
    <longitude>50.25</longitude>
  </city>
  <city name="Ascia Gáva">
    <latitude>3.2666667</latitude>
    <longitude>43.6166667</longitude>
  </city>
  <city name="Ascira">
    <latitude>10.3666667</latitude>
    <longitude>50.95</longitude>
  </city>
  <city name="Asculle">
    <latitude>2.6833333</latitude>
    <longitude>46.2666667</longitude>
  </city>
  <city name="Asgoi">
    <latitude>2.15</latitude>
    <longitude>45.1166667</longitude>
  </city>
  <city name="Asha Farfow">
    <latitude>3.2666667</latitude>
    <longitude>43.5666667</longitude>
  </city>
  <city name="Asha Gab">
    <latitude>3.2666667</latitude>
    <longitude>43.6166667</longitude>
  </city>
  <city name="Ashagow">
    <latitude>3.0833333</latitude>
    <longitude>43.55</longitude>
  </city>
  <city name="Assaley">
    <latitude>2.1666667</latitude>
    <longitude>45.5666667</longitude>
  </city>
  <city name="Astur">
    <latitude>3.1333333</latitude>
    <longitude>43.8833333</longitude>
  </city>
  <city name="Ato">
    <latitude>4.6166667</latitude>
    <longitude>43.35</longitude>
  </city>
  <city name="Auadle">
    <latitude>2.5666667</latitude>
    <longitude>45.5</longitude>
  </city>
  <city name="Auadlei">
    <latitude>2.5666667</latitude>
    <longitude>45.5</longitude>
  </city>
  <city name="Aual Afra Mussa">
    <latitude>4.9333333</latitude>
    <longitude>46.0166667</longitude>
  </city>
  <city name="Aual Alas">
    <latitude>4.9166667</latitude>
    <longitude>47.45</longitude>
  </city>
  <city name="Aual Allas">
    <latitude>4.9166667</latitude>
    <longitude>47.45</longitude>
  </city>
  <city name="Aualbulle">
    <latitude>1.2333333</latitude>
    <longitude>43.7666667</longitude>
  </city>
  <city name="Auale Gupti">
    <latitude>3.7833333</latitude>
    <longitude>46.45</longitude>
  </city>
  <city name="Aual Giohar">
    <latitude>4.6333333</latitude>
    <longitude>46.6333333</longitude>
  </city>
  <city name="Aualgube Hai">
    <latitude>11.0666667</latitude>
    <longitude>50.1833333</longitude>
  </city>
  <city name="Aual Nagot">
    <latitude>2.05</latitude>
    <longitude>45.1666667</longitude>
  </city>
  <city name="Aual Selo">
    <latitude>2.35</latitude>
    <longitude>45.4</longitude>
  </city>
  <city name="Au">
    <latitude>0.55</latitude>
    <longitude>41.4166667</longitude>
  </city>
  <city name="Audegle">
    <latitude>1.9833333</latitude>
    <longitude>44.8333333</longitude>
  </city>
  <city name="Audelle Ier">
    <latitude>10.65</latitude>
    <longitude>49.0166667</longitude>
  </city>
  <city name="Audelle Uein">
    <latitude>10.6666667</latitude>
    <longitude>49.1166667</longitude>
  </city>
  <city name="Audelle Uen">
    <latitude>10.6666667</latitude>
    <longitude>49.1166667</longitude>
  </city>
  <city name="Audelle Wein">
    <latitude>10.6666667</latitude>
    <longitude>49.1166667</longitude>
  </city>
  <city name="Audelle Yer">
    <latitude>10.65</latitude>
    <longitude>49.0166667</longitude>
  </city>
  <city name="Audinle">
    <latitude>3.1833333</latitude>
    <longitude>43.4</longitude>
  </city>
  <city name="Aughèle">
    <latitude>0.4166667</latitude>
    <longitude>42.7333333</longitude>
  </city>
  <city name="Aukhor">
    <latitude>10.7763889</latitude>
    <longitude>46.1947222</longitude>
  </city>
  <city name="Aule">
    <latitude>2.9666667</latitude>
    <longitude>44.0166667</longitude>
  </city>
  <city name="Au Misighei">
    <latitude>2.8666667</latitude>
    <longitude>44.2666667</longitude>
  </city>
  <city name="Au Nordi">
    <latitude>3.0333333</latitude>
    <longitude>44.1833333</longitude>
  </city>
  <city name="Aur Bogeis">
    <latitude>9.5666667</latitude>
    <longitude>47.75</longitude>
  </city>
  <city name="Avai">
    <latitude>1.1666667</latitude>
    <longitude>43.7166667</longitude>
  </city>
  <city name="Availe">
    <latitude>2.1</latitude>
    <longitude>42.25</longitude>
  </city>
  <city name="Avai Onole">
    <latitude>0.9333333</latitude>
    <longitude>43.2833333</longitude>
  </city>
  <city name="Avalbullè">
    <latitude>1.2333333</latitude>
    <longitude>43.7666667</longitude>
  </city>
  <city name="Avarboda">
    <latitude>1.1333333</latitude>
    <longitude>43.8666667</longitude>
  </city>
  <city name="Avarfaro">
    <latitude>10.9833333</latitude>
    <longitude>50.8833333</longitude>
  </city>
  <city name="Aveno">
    <latitude>4.2</latitude>
    <longitude>45.8333333</longitude>
  </city>
  <city name="Avesale">
    <latitude>4.9</latitude>
    <longitude>44.5166667</longitude>
  </city>
  <city name="Aw Aadan Fayi">
    <latitude>3.6</latitude>
    <longitude>43.7833333</longitude>
  </city>
  <city name="Awaala Gupte">
    <latitude>3.7833333</latitude>
    <longitude>46.45</longitude>
  </city>
  <city name="Aw Aamow Rooble">
    <latitude>2.7</latitude>
    <longitude>44.9</longitude>
  </city>
  <city name="Awal Buley">
    <latitude>1.2333333</latitude>
    <longitude>43.7666667</longitude>
  </city>
  <city name="`Awalegubtey">
    <latitude>3.7833333</latitude>
    <longitude>46.45</longitude>
  </city>
  <city name="Aw Axmad">
    <latitude>2.5</latitude>
    <longitude>44.7833333</longitude>
  </city>
  <city name="Aw Baasow">
    <latitude>2.8</latitude>
    <longitude>44.1333333</longitude>
  </city>
  <city name="Aw Biti">
    <latitude>2.5666667</latitude>
    <longitude>44.9166667</longitude>
  </city>
  <city name="Aw Bitte">
    <latitude>2.4</latitude>
    <longitude>44.8333333</longitude>
  </city>
  <city name="Aw Cariif">
    <latitude>2.5</latitude>
    <longitude>44.85</longitude>
  </city>
  <city name="Aw Cusmaan">
    <latitude>2.65</latitude>
    <longitude>44.9333333</longitude>
  </city>
  <city name="Aw Daarow">
    <latitude>2.8833333</latitude>
    <longitude>44.2</longitude>
  </city>
  <city name="Awdey">
    <latitude>3.6166667</latitude>
    <longitude>43.7666667</longitude>
  </city>
  <city name="Awdheegle">
    <latitude>1.9833333</latitude>
    <longitude>44.8333333</longitude>
  </city>
  <city name="Awdheere">
    <latitude>3.2166667</latitude>
    <longitude>43.2833333</longitude>
  </city>
  <city name="Aw Dhiinle">
    <latitude>3.1833333</latitude>
    <longitude>43.4</longitude>
  </city>
  <city name="Aw Dhuroow">
    <latitude>2.8166667</latitude>
    <longitude>44.1666667</longitude>
  </city>
  <city name="Awdiinle">
    <latitude>3.1833333</latitude>
    <longitude>43.4</longitude>
  </city>
  <city name="Aw Dinle">
    <latitude>3.1833333</latitude>
    <longitude>43.4</longitude>
  </city>
  <city name="Aweey">
    <latitude>3.2</latitude>
    <longitude>43.8833333</longitude>
  </city>
  <city name="Awgoosh">
    <latitude>3.1333333</latitude>
    <longitude>43.5333333</longitude>
  </city>
  <city name="Aw Gooye">
    <latitude>2.2</latitude>
    <longitude>45.1833333</longitude>
  </city>
  <city name="Aw Guurow">
    <latitude>2.65</latitude>
    <longitude>44.8666667</longitude>
  </city>
  <city name="Aw Humoow">
    <latitude>2.8</latitude>
    <longitude>44.25</longitude>
  </city>
  <city name="Aw Jiloole">
    <latitude>2.95</latitude>
    <longitude>43.95</longitude>
  </city>
  <city name="Aw Kuulamuudey">
    <latitude>2.4333333</latitude>
    <longitude>44.8166667</longitude>
  </city>
  <city name="Aw Kuulaw">
    <latitude>2.9</latitude>
    <longitude>44.1833333</longitude>
  </city>
  <city name="Awla Sidi">
    <latitude>1.1666667</latitude>
    <longitude>44.0</longitude>
  </city>
  <city name="Aw Liibaan">
    <latitude>2.4333333</latitude>
    <longitude>44.75</longitude>
  </city>
  <city name="Awlo">
    <latitude>3.2333333</latitude>
    <longitude>43.55</longitude>
  </city>
  <city name="Aw Mayow">
    <latitude>2.8333333</latitude>
    <longitude>44.1666667</longitude>
  </city>
  <city name="Aw Misigey">
    <latitude>2.8666667</latitude>
    <longitude>44.2666667</longitude>
  </city>
  <city name="Aw Mordi">
    <latitude>3.0333333</latitude>
    <longitude>44.1833333</longitude>
  </city>
  <city name="Aw Nagay">
    <latitude>3.0833333</latitude>
    <longitude>44.1</longitude>
  </city>
  <city name="Aw Raansow">
    <latitude>2.4166667</latitude>
    <longitude>44.8333333</longitude>
  </city>
  <city name="Aw Reenow">
    <latitude>2.95</latitude>
    <longitude>44.1833333</longitude>
  </city>
  <city name="Aw Riinow">
    <latitude>2.8</latitude>
    <longitude>44.0166667</longitude>
  </city>
  <city name="Aw Sacad Aawow">
    <latitude>2.1666667</latitude>
    <longitude>45.2</longitude>
  </city>
  <city name="Aw Sagaare">
    <latitude>2.5333333</latitude>
    <longitude>44.8666667</longitude>
  </city>
  <city name="Aw Shabeel Isaaq">
    <latitude>3.05</latitude>
    <longitude>44.1666667</longitude>
  </city>
  <city name="Aw Shini">
    <latitude>3.2166667</latitude>
    <longitude>43.4</longitude>
  </city>
  <city name="Aw Xajow">
    <latitude>1.86</latitude>
    <longitude>45.0013889</longitude>
  </city>
  <city name="Aw Yaale">
    <latitude>2.85</latitude>
    <longitude>44.2666667</longitude>
  </city>
  <city name="Aw Yaay">
    <latitude>2.8166667</latitude>
    <longitude>44.05</longitude>
  </city>
  <city name="Aw Yarow">
    <latitude>2.85</latitude>
    <longitude>44.2333333</longitude>
  </city>
  <city name="Aw Yarow Maroodiyoow">
    <latitude>2.8333333</latitude>
    <longitude>44.25</longitude>
  </city>
  <city name="Axmed Cigoow">
    <latitude>2.9166667</latitude>
    <longitude>45.55</longitude>
  </city>
  <city name="Axmed Gaas">
    <latitude>1.7333333</latitude>
    <longitude>44.4833333</longitude>
  </city>
  <city name="Axmed Guure">
    <latitude>1.7333333</latitude>
    <longitude>44.5666667</longitude>
  </city>
  <city name="Axmed Kamatiirey">
    <latitude>0.3069444</latitude>
    <longitude>42.7533333</longitude>
  </city>
  <city name="Axmed Maxamed Cali">
    <latitude>3.4</latitude>
    <longitude>46.6333333</longitude>
  </city>
  <city name="Ayaroy">
    <latitude>3.0666667</latitude>
    <longitude>44.15</longitude>
  </city>
  <city name="Ay Buulleey">
    <latitude>2.65</latitude>
    <longitude>44.9833333</longitude>
  </city>
  <city name="Ay Buuraaley">
    <latitude>2.55</latitude>
    <longitude>45.0333333</longitude>
  </city>
  <city name="Ay Dooya">
    <latitude>2.9</latitude>
    <longitude>44.2333333</longitude>
  </city>
  <city name="Ay Guud Wiin">
    <latitude>2.8</latitude>
    <longitude>44.2166667</longitude>
  </city>
  <city name="Ayl">
    <latitude>7.9833333</latitude>
    <longitude>49.8166667</longitude>
  </city>
  <city name="`Aynle">
    <latitude>9.4166667</latitude>
    <longitude>44.1666667</longitude>
  </city>
  <city name="Ayroobley">
    <latitude>3.35</latitude>
    <longitude>43.6666667</longitude>
  </city>
  <city name="Aysuure">
    <latitude>1.05</latitude>
    <longitude>43.8333333</longitude>
  </city>
  <city name="Baabaagob">
    <latitude>9.1666667</latitude>
    <longitude>44.65</longitude>
  </city>
  <city name="Baabash">
    <latitude>2.4666667</latitude>
    <longitude>44.7833333</longitude>
  </city>
  <city name="Baabo">
    <latitude>-1.45</latitude>
    <longitude>41.6</longitude>
  </city>
  <city name="Baacyar">
    <latitude>4.5</latitude>
    <longitude>45.3</longitude>
  </city>
  <city name="Baad">
    <latitude>11.3516667</latitude>
    <longitude>49.4494444</longitude>
  </city>
  <city name="Baad Faadan">
    <latitude>1.4833333</latitude>
    <longitude>43.9833333</longitude>
  </city>
  <city name="Baad Fadumo">
    <latitude>1.3833333</latitude>
    <longitude>43.9</longitude>
  </city>
  <city name="Baaduin">
    <latitude>5.35</latitude>
    <longitude>47.9166667</longitude>
  </city>
  <city name="Ba`adweyn">
    <latitude>7.2</latitude>
    <longitude>47.5333333</longitude>
  </city>
  <city name="Baahan">
    <latitude>3.0833333</latitude>
    <longitude>43.45</longitude>
  </city>
  <city name="Baalcad">
    <latitude>4.4666667</latitude>
    <longitude>45.3</longitude>
  </city>
  <city name="Baale">
    <latitude>2.8833333</latitude>
    <longitude>44.05</longitude>
  </city>
  <city name="Baalgudde">
    <latitude>-0.4833333</latitude>
    <longitude>42.2</longitude>
  </city>
  <city name="Baalley">
    <latitude>2.8166667</latitude>
    <longitude>45.1666667</longitude>
  </city>
  <city name="Baanyaale">
    <latitude>2.9833333</latitude>
    <longitude>43.7666667</longitude>
  </city>
  <city name="Baanyale Banka">
    <latitude>3.0</latitude>
    <longitude>43.7666667</longitude>
  </city>
  <city name="Baanyale Goot Galoole">
    <latitude>3.0333333</latitude>
    <longitude>43.7666667</longitude>
  </city>
  <city name="Baanyale Mubaarak">
    <latitude>3.0</latitude>
    <longitude>43.7833333</longitude>
  </city>
  <city name="Baar">
    <latitude>-0.0166667</latitude>
    <longitude>42.6333333</longitude>
  </city>
  <city name="Baarbacadle">
    <latitude>7.8166667</latitude>
    <longitude>49.8</longitude>
  </city>
  <city name="Baarbadan">
    <latitude>2.8333333</latitude>
    <longitude>42.4</longitude>
  </city>
  <city name="Baardheere">
    <latitude>2.3333333</latitude>
    <longitude>42.2833333</longitude>
  </city>
  <city name="Baarey">
    <latitude>4.55</latitude>
    <longitude>45.2833333</longitude>
  </city>
  <city name="Baargaal">
    <latitude>11.2833333</latitude>
    <longitude>51.0833333</longitude>
  </city>
  <city name="Ba Aror">
    <latitude>4.7</latitude>
    <longitude>45.4666667</longitude>
  </city>
  <city name="Baarow">
    <latitude>1.6166667</latitude>
    <longitude>44.3</longitude>
  </city>
  <city name="Baarrow Weyne">
    <latitude>2.8666667</latitude>
    <longitude>45.5333333</longitude>
  </city>
  <city name="Baarta Faanye">
    <latitude>2.1</latitude>
    <longitude>42.2666667</longitude>
  </city>
  <city name="Baasaay">
    <latitude>0.2630556</latitude>
    <longitude>42.7483333</longitude>
  </city>
  <city name="Baasani Anjalo">
    <latitude>1.7666667</latitude>
    <longitude>44.6333333</longitude>
  </city>
  <city name="Baasani">
    <latitude>1.75</latitude>
    <longitude>44.65</longitude>
  </city>
  <city name="Baasani Oreste">
    <latitude>1.7666667</latitude>
    <longitude>44.6833333</longitude>
  </city>
  <city name="Baasi">
    <latitude>1.6333333</latitude>
    <longitude>44.55</longitude>
  </city>
  <city name="Baas Ma Leh">
    <latitude>2.7333333</latitude>
    <longitude>43.6333333</longitude>
  </city>
  <city name="Babaay">
    <latitude>1.8166667</latitude>
    <longitude>44.7</longitude>
  </city>
  <city name="Babagog">
    <latitude>9.1666667</latitude>
    <longitude>44.65</longitude>
  </city>
  <city name="Babbagob">
    <latitude>9.1666667</latitude>
    <longitude>44.65</longitude>
  </city>
  <city name="Babbagog">
    <latitude>9.1666667</latitude>
    <longitude>44.65</longitude>
  </city>
  <city name="Babelow">
    <latitude>2.6</latitude>
    <longitude>44.15</longitude>
  </city>
  <city name="Bacaad">
    <latitude>11.3516667</latitude>
    <longitude>49.4494444</longitude>
  </city>
  <city name="Bacaadley">
    <latitude>2.6666667</latitude>
    <longitude>45.5</longitude>
  </city>
  <city name="Bacaadlow">
    <latitude>4.6666667</latitude>
    <longitude>45.2166667</longitude>
  </city>
  <city name="Bacaadweeyn">
    <latitude>7.2</latitude>
    <longitude>47.5333333</longitude>
  </city>
  <city name="Bacaadweyn">
    <latitude>7.2</latitude>
    <longitude>47.5333333</longitude>
  </city>
  <city name="Bacado">
    <latitude>9.6333333</latitude>
    <longitude>44.0833333</longitude>
  </city>
  <city name="Bacadweyne">
    <latitude>5.3333333</latitude>
    <longitude>47.9</longitude>
  </city>
  <city name="Bacaw">
    <latitude>2.0666667</latitude>
    <longitude>44.9166667</longitude>
  </city>
  <city name="Baceyga">
    <latitude>9.65</latitude>
    <longitude>43.3833333</longitude>
  </city>
  <city name="Bactili">
    <latitude>1.7</latitude>
    <longitude>41.0833333</longitude>
  </city>
  <city name="Bacugia">
    <latitude>11.15</latitude>
    <longitude>49.5</longitude>
  </city>
  <city name="Bad Adda">
    <latitude>-1.0333333</latitude>
    <longitude>41.4833333</longitude>
  </city>
  <city name="Badan">
    <latitude>10.7166667</latitude>
    <longitude>48.35</longitude>
  </city>
  <city name="Badanbadu">
    <latitude>3.6166667</latitude>
    <longitude>43.6166667</longitude>
  </city>
  <city name="Bad-Bad">
    <latitude>2.7333333</latitude>
    <longitude>45.6666667</longitude>
  </city>
  <city name="Bad Daada">
    <latitude>-1.0333333</latitude>
    <longitude>41.4833333</longitude>
  </city>
  <city name="Baddada">
    <latitude>-1.0333333</latitude>
    <longitude>41.4833333</longitude>
  </city>
  <city name="Baddana">
    <latitude>-1.0333333</latitude>
    <longitude>41.4833333</longitude>
  </city>
  <city name="Badey">
    <latitude>7.9666667</latitude>
    <longitude>49.8166667</longitude>
  </city>
  <city name="Badhaadhe">
    <latitude>-1.0333333</latitude>
    <longitude>41.4833333</longitude>
  </city>
  <city name="Badhadha">
    <latitude>-1.0333333</latitude>
    <longitude>41.4833333</longitude>
  </city>
  <city name="Badhan">
    <latitude>10.7166667</latitude>
    <longitude>48.35</longitude>
  </city>
  <city name="Baduen">
    <latitude>7.2</latitude>
    <longitude>47.5333333</longitude>
  </city>
  <city name="Badwein">
    <latitude>7.2</latitude>
    <longitude>47.5333333</longitude>
  </city>
  <city name="Badweyn">
    <latitude>9.0</latitude>
    <longitude>46.65</longitude>
  </city>
  <city name="Baemada">
    <latitude>3.3</latitude>
    <longitude>43.5166667</longitude>
  </city>
  <city name="Baenada">
    <latitude>3.3</latitude>
    <longitude>43.5166667</longitude>
  </city>
  <city name="Bafley">
    <latitude>0.7</latitude>
    <longitude>43.1</longitude>
  </city>
  <city name="Bagaadey">
    <latitude>1.8166667</latitude>
    <longitude>42.65</longitude>
  </city>
  <city name="Bagahar">
    <latitude>6.5166667</latitude>
    <longitude>48.8333333</longitude>
  </city>
  <city name="Bagalle">
    <latitude>3.1833333</latitude>
    <longitude>43.6166667</longitude>
  </city>
  <city name="Bagallei">
    <latitude>3.1833333</latitude>
    <longitude>43.6166667</longitude>
  </city>
  <city name="Bagdad">
    <latitude>2.2666667</latitude>
    <longitude>45.2166667</longitude>
  </city>
  <city name="Bahadlei">
    <latitude>2.6666667</latitude>
    <longitude>45.5</longitude>
  </city>
  <city name="Bahado">
    <latitude>5.7833333</latitude>
    <longitude>47.2166667</longitude>
  </city>
  <city name="Bahanjo">
    <latitude>11.0666667</latitude>
    <longitude>50.1666667</longitude>
  </city>
  <city name="Bahle Dogli">
    <latitude>2.6166667</latitude>
    <longitude>44.9</longitude>
  </city>
  <city name="Baidabho">
    <latitude>3.1166667</latitude>
    <longitude>43.65</longitude>
  </city>
  <city name="Baidabo">
    <latitude>3.1166667</latitude>
    <longitude>43.65</longitude>
  </city>
  <city name="Baidoa">
    <latitude>3.1166667</latitude>
    <longitude>43.65</longitude>
  </city>
  <city name="Bajeela">
    <latitude>5.7833333</latitude>
    <longitude>47.7</longitude>
  </city>
  <city name="Bajiino Jannaay">
    <latitude>1.6833333</latitude>
    <longitude>44.6</longitude>
  </city>
  <city name="Bakaar Yar">
    <latitude>3.6166667</latitude>
    <longitude>43.4666667</longitude>
  </city>
  <city name="Bakal">
    <latitude>2.3333333</latitude>
    <longitude>42.3333333</longitude>
  </city>
  <city name="Bakari">
    <latitude>0.05</latitude>
    <longitude>42.8333333</longitude>
  </city>
  <city name="Bakar Weyn">
    <latitude>3.65</latitude>
    <longitude>43.4333333</longitude>
  </city>
  <city name="Bakhtiti">
    <latitude>1.7</latitude>
    <longitude>41.0833333</longitude>
  </city>
  <city name="Balaaw">
    <latitude>2.7666667</latitude>
    <longitude>44.1</longitude>
  </city>
  <city name="Balac">
    <latitude>7.35</latitude>
    <longitude>48.9</longitude>
  </city>
  <city name="Balad Al Amiin">
    <latitude>2.8666667</latitude>
    <longitude>43.75</longitude>
  </city>
  <city name="Balad">
    <latitude>2.35</latitude>
    <longitude>45.3833333</longitude>
  </city>
  <city name="Balad Raxma">
    <latitude>2.6166667</latitude>
    <longitude>45.5</longitude>
  </city>
  <city name="Balad Raxman">
    <latitude>0.0830556</latitude>
    <longitude>42.7211111</longitude>
  </city>
  <city name="Baladul Kariim">
    <latitude>0.5472222</latitude>
    <longitude>42.7405556</longitude>
  </city>
  <city name="Baladu Raxma">
    <latitude>0.4975</latitude>
    <longitude>42.7630556</longitude>
  </city>
  <city name="Balad Weyn">
    <latitude>4.75</latitude>
    <longitude>45.2</longitude>
  </city>
  <city name="Balamballa">
    <latitude>10.2</latitude>
    <longitude>49.1666667</longitude>
  </city>
  <city name="Balamballe">
    <latitude>10.2</latitude>
    <longitude>49.1666667</longitude>
  </city>
  <city name="Balanbaal">
    <latitude>8.8833333</latitude>
    <longitude>45.7666667</longitude>
  </city>
  <city name="Balanbal">
    <latitude>7.45</latitude>
    <longitude>48.1333333</longitude>
  </city>
  <city name="Balanballe">
    <latitude>8.4166667</latitude>
    <longitude>46.6666667</longitude>
  </city>
  <city name="Balbal">
    <latitude>1.4666667</latitude>
    <longitude>43.9166667</longitude>
  </city>
  <city name="Balbale">
    <latitude>1.4666667</latitude>
    <longitude>43.9166667</longitude>
  </city>
  <city name="Bal Balle">
    <latitude>1.4666667</latitude>
    <longitude>43.9166667</longitude>
  </city>
  <city name="Balcad">
    <latitude>2.35</latitude>
    <longitude>45.3833333</longitude>
  </city>
  <city name="Bale Abdi Dere">
    <latitude>9.0833333</latitude>
    <longitude>44.7666667</longitude>
  </city>
  <city name="Bale Abdi Farah">
    <latitude>9.1833333</latitude>
    <longitude>44.9833333</longitude>
  </city>
  <city name="Bale Dobeheya">
    <latitude>9.1166667</latitude>
    <longitude>44.6833333</longitude>
  </city>
  <city name="Baleh Dandan">
    <latitude>8.2</latitude>
    <longitude>46.5333333</longitude>
  </city>
  <city name="Baleh Hileh">
    <latitude>9.1833333</latitude>
    <longitude>45.5833333</longitude>
  </city>
  <city name="Bale Hile">
    <latitude>9.1833333</latitude>
    <longitude>45.5833333</longitude>
  </city>
  <city name="Balguri">
    <latitude>2.7666667</latitude>
    <longitude>45.5166667</longitude>
  </city>
  <city name="Balhile">
    <latitude>9.1833333</latitude>
    <longitude>45.5833333</longitude>
  </city>
  <city name="Balhileh">
    <latitude>9.1833333</latitude>
    <longitude>45.5833333</longitude>
  </city>
  <city name="Balidandan">
    <latitude>8.2</latitude>
    <longitude>46.5333333</longitude>
  </city>
  <city name="Baligorda">
    <latitude>8.25</latitude>
    <longitude>46.75</longitude>
  </city>
  <city name="Baljey">
    <latitude>0.6119444</latitude>
    <longitude>42.7525</longitude>
  </city>
  <city name="Ballamballei">
    <latitude>10.2</latitude>
    <longitude>49.1666667</longitude>
  </city>
  <city name="Ballanbaal">
    <latitude>9.6</latitude>
    <longitude>46.6833333</longitude>
  </city>
  <city name="Ballay Hiile">
    <latitude>9.1833333</latitude>
    <longitude>45.5833333</longitude>
  </city>
  <city name="Balleey">
    <latitude>2.8833333</latitude>
    <longitude>42.4666667</longitude>
  </city>
  <city name="Balleh Abane">
    <latitude>9.15</latitude>
    <longitude>43.85</longitude>
  </city>
  <city name="Balleh Ahmed">
    <latitude>9.4333333</latitude>
    <longitude>44.5</longitude>
  </city>
  <city name="Balleh Dobo Haya">
    <latitude>9.1166667</latitude>
    <longitude>44.6833333</longitude>
  </city>
  <city name="Balleh Durad">
    <latitude>9.0166667</latitude>
    <longitude>44.9666667</longitude>
  </city>
  <city name="Balleh Gubadle">
    <latitude>9.0</latitude>
    <longitude>44.0</longitude>
  </city>
  <city name="Balleh Hile">
    <latitude>9.1833333</latitude>
    <longitude>45.5833333</longitude>
  </city>
  <city name="Balleh Jalelo">
    <latitude>9.1666667</latitude>
    <longitude>44.7333333</longitude>
  </city>
  <city name="Balleh Khadar">
    <latitude>9.0</latitude>
    <longitude>44.0</longitude>
  </city>
  <city name="Balleh Qorilugud">
    <latitude>8.55</latitude>
    <longitude>46.2333333</longitude>
  </city>
  <city name="Ballei">
    <latitude>2.8833333</latitude>
    <longitude>42.4666667</longitude>
  </city>
  <city name="Balléy">
    <latitude>2.8833333</latitude>
    <longitude>42.4666667</longitude>
  </city>
  <city name="Balley">
    <latitude>0.6119444</latitude>
    <longitude>42.7525</longitude>
  </city>
  <city name="Balleysle">
    <latitude>11.8333333</latitude>
    <longitude>50.9166667</longitude>
  </city>
  <city name="Balliabees">
    <latitude>7.5</latitude>
    <longitude>47.8333333</longitude>
  </city>
  <city name="Balli Ad">
    <latitude>4.55</latitude>
    <longitude>43.05</longitude>
  </city>
  <city name="Balli Adde">
    <latitude>4.55</latitude>
    <longitude>43.05</longitude>
  </city>
  <city name="Balli Ahur Barre">
    <latitude>7.7333333</latitude>
    <longitude>48.9</longitude>
  </city>
  <city name="Balli Angie Berdo">
    <latitude>6.1333333</latitude>
    <longitude>46.8166667</longitude>
  </city>
  <city name="Balli Ano">
    <latitude>6.4333333</latitude>
    <longitude>46.8333333</longitude>
  </city>
  <city name="Balli Aur Barre">
    <latitude>7.7333333</latitude>
    <longitude>48.9</longitude>
  </city>
  <city name="Balli">
    <latitude>5.7833333</latitude>
    <longitude>47.7166667</longitude>
  </city>
  <city name="Balli Busle">
    <latitude>7.1</latitude>
    <longitude>48.1666667</longitude>
  </city>
  <city name="Balli Cad">
    <latitude>5.4833333</latitude>
    <longitude>46.1</longitude>
  </city>
  <city name="Balli Calanle">
    <latitude>8.55</latitude>
    <longitude>45.9666667</longitude>
  </city>
  <city name="Ballicalanle">
    <latitude>8.5833333</latitude>
    <longitude>46.0666667</longitude>
  </city>
  <city name="Balli Dagarire">
    <latitude>6.55</latitude>
    <longitude>47.2833333</longitude>
  </city>
  <city name="Balli Dagar Uen">
    <latitude>6.55</latitude>
    <longitude>47.2833333</longitude>
  </city>
  <city name="Balli Damer">
    <latitude>4.8666667</latitude>
    <longitude>44.0166667</longitude>
  </city>
  <city name="Balli Dhiddin">
    <latitude>10.8833333</latitude>
    <longitude>50.4</longitude>
  </city>
  <city name="Balli Doogle">
    <latitude>2.65</latitude>
    <longitude>44.7833333</longitude>
  </city>
  <city name="Balli Galad">
    <latitude>5.5166667</latitude>
    <longitude>48.3833333</longitude>
  </city>
  <city name="Balli Gobob Diran">
    <latitude>7.9</latitude>
    <longitude>48.8333333</longitude>
  </city>
  <city name="Balli Gubat">
    <latitude>5.4333333</latitude>
    <longitude>48.1166667</longitude>
  </city>
  <city name="Balli Hagagari">
    <latitude>6.95</latitude>
    <longitude>48.8833333</longitude>
  </city>
  <city name="Balli Hagago">
    <latitude>6.95</latitude>
    <longitude>48.8833333</longitude>
  </city>
  <city name="Balli Hat">
    <latitude>6.1166667</latitude>
    <longitude>47.95</longitude>
  </city>
  <city name="Balli Kaliil">
    <latitude>9.0833333</latitude>
    <longitude>44.5</longitude>
  </city>
  <city name="Balli Lama Adi">
    <latitude>6.95</latitude>
    <longitude>48.2333333</longitude>
  </city>
  <city name="Balli Lamma Adi">
    <latitude>6.95</latitude>
    <longitude>48.2333333</longitude>
  </city>
  <city name="Balli Scillin">
    <latitude>8.65</latitude>
    <longitude>50.05</longitude>
  </city>
  <city name="Ballo">
    <latitude>2.3333333</latitude>
    <longitude>45.3</longitude>
  </city>
  <city name="Ballow">
    <latitude>2.6833333</latitude>
    <longitude>43.95</longitude>
  </city>
  <city name="Baloole">
    <latitude>2.6</latitude>
    <longitude>43.9666667</longitude>
  </city>
  <city name="Balow">
    <latitude>1.7166667</latitude>
    <longitude>44.4333333</longitude>
  </city>
  <city name="Bambaaso Kulub">
    <latitude>1.6833333</latitude>
    <longitude>44.4</longitude>
  </city>
  <city name="Bambaaso Mahdi">
    <latitude>1.7</latitude>
    <longitude>44.4333333</longitude>
  </city>
  <city name="Bambila">
    <latitude>0.05</latitude>
    <longitude>42.7166667</longitude>
  </city>
  <city name="Bamburaale">
    <latitude>2.8166667</latitude>
    <longitude>44.1333333</longitude>
  </city>
  <city name="Banaada">
    <latitude>1.9</latitude>
    <longitude>42.5666667</longitude>
  </city>
  <city name="Banaadir">
    <latitude>2.2333333</latitude>
    <longitude>44.7166667</longitude>
  </city>
  <city name="Banaanag">
    <latitude>2.6666667</latitude>
    <longitude>45.0166667</longitude>
  </city>
  <city name="Banaaney">
    <latitude>0.1055556</latitude>
    <longitude>42.8819444</longitude>
  </city>
  <city name="Ban Bussul">
    <latitude>3.5166667</latitude>
    <longitude>43.5666667</longitude>
  </city>
  <city name="Banbusul">
    <latitude>3.5166667</latitude>
    <longitude>43.5666667</longitude>
  </city>
  <city name="Ban-chi Surta">
    <latitude>3.2666667</latitude>
    <longitude>44.1833333</longitude>
  </city>
  <city name="Bandar Alula">
    <latitude>11.9666667</latitude>
    <longitude>50.75</longitude>
  </city>
  <city name="Bandar">
    <latitude>0.6666667</latitude>
    <longitude>42.7166667</longitude>
  </city>
  <city name="Bandarbeyla">
    <latitude>9.4833333</latitude>
    <longitude>50.8166667</longitude>
  </city>
  <city name="Bandar Fílúk">
    <latitude>11.9</latitude>
    <longitude>50.5833333</longitude>
  </city>
  <city name="Bandar Jadiid">
    <latitude>-0.0166667</latitude>
    <longitude>42.6</longitude>
  </city>
  <city name="Bandar Jedid">
    <latitude>11.1666667</latitude>
    <longitude>47.4666667</longitude>
  </city>
  <city name="Bandar Jidiid">
    <latitude>1.1158333</latitude>
    <longitude>42.5838889</longitude>
  </city>
  <city name="Bandar Kassim">
    <latitude>11.2847222</latitude>
    <longitude>49.1825</longitude>
  </city>
  <city name="Bandar Murcaayo">
    <latitude>11.6833333</latitude>
    <longitude>50.45</longitude>
  </city>
  <city name="Bandar Salaam">
    <latitude>2.35</latitude>
    <longitude>42.15</longitude>
  </city>
  <city name="Bandar Wanaag">
    <latitude>9.5833333</latitude>
    <longitude>44.4</longitude>
  </city>
  <city name="Bandar Ziàda">
    <latitude>11.2427778</latitude>
    <longitude>48.9758333</longitude>
  </city>
  <city name="Bandege">
    <latitude>2.2333333</latitude>
    <longitude>44.6833333</longitude>
  </city>
  <city name="Banden Laskhonai">
    <latitude>11.1666667</latitude>
    <longitude>48.2166667</longitude>
  </city>
  <city name="Ban Dhuub">
    <latitude>2.4166667</latitude>
    <longitude>42.8666667</longitude>
  </city>
  <city name="Bandiiradley">
    <latitude>6.4833333</latitude>
    <longitude>46.95</longitude>
  </city>
  <city name="Bangeeni">
    <latitude>0.045</latitude>
    <longitude>42.7330556</longitude>
  </city>
  <city name="Bannaan">
    <latitude>2.4166667</latitude>
    <longitude>42.35</longitude>
  </city>
  <city name="Bannaaney">
    <latitude>2.8</latitude>
    <longitude>45.5166667</longitude>
  </city>
  <city name="Ban Reer">
    <latitude>2.6</latitude>
    <longitude>43.1</longitude>
  </city>
  <city name="Bansoole">
    <latitude>2.7333333</latitude>
    <longitude>44.05</longitude>
  </city>
  <city name="Banta">
    <latitude>1.1841667</latitude>
    <longitude>42.5425</longitude>
  </city>
  <city name="Banyaal">
    <latitude>2.95</latitude>
    <longitude>44.1833333</longitude>
  </city>
  <city name="Banyaale">
    <latitude>2.45</latitude>
    <longitude>45.15</longitude>
  </city>
  <city name="Ban-Yaro">
    <latitude>9.4166667</latitude>
    <longitude>44.5</longitude>
  </city>
  <city name="Baqalleey">
    <latitude>3.1833333</latitude>
    <longitude>43.6166667</longitude>
  </city>
  <city name="Baqalley">
    <latitude>3.25</latitude>
    <longitude>43.4333333</longitude>
  </city>
  <city name="Baqdaad">
    <latitude>3.4166667</latitude>
    <longitude>45.6166667</longitude>
  </city>
  <city name="Baqtile">
    <latitude>3.6333333</latitude>
    <longitude>41.8833333</longitude>
  </city>
  <city name="Baraaktaqol">
    <latitude>9.55</latitude>
    <longitude>48.4833333</longitude>
  </city>
  <city name="Baraale">
    <latitude>1.75</latitude>
    <longitude>44.6833333</longitude>
  </city>
  <city name="Baraan">
    <latitude>10.7166667</latitude>
    <longitude>48.35</longitude>
  </city>
  <city name="Baraawe">
    <latitude>1.1</latitude>
    <longitude>44.05</longitude>
  </city>
  <city name="Baraawe Yare">
    <latitude>1.4833333</latitude>
    <longitude>44.1</longitude>
  </city>
  <city name="Barabuule">
    <latitude>2.8333333</latitude>
    <longitude>43.9666667</longitude>
  </city>
  <city name="Bar Ad">
    <latitude>8.8833333</latitude>
    <longitude>45.1166667</longitude>
  </city>
  <city name="Baraka">
    <latitude>0.64</latitude>
    <longitude>42.7391667</longitude>
  </city>
  <city name="Baraki">
    <latitude>2.8333333</latitude>
    <longitude>45.3833333</longitude>
  </city>
  <city name="Barako">
    <latitude>2.9166667</latitude>
    <longitude>43.3666667</longitude>
  </city>
  <city name="Baran">
    <latitude>10.2333333</latitude>
    <longitude>48.7333333</longitude>
  </city>
  <city name="Bar Aror">
    <latitude>4.7</latitude>
    <longitude>45.4666667</longitude>
  </city>
  <city name="Barawe">
    <latitude>1.1</latitude>
    <longitude>44.05</longitude>
  </city>
  <city name="Barba`adle">
    <latitude>7.8166667</latitude>
    <longitude>49.8</longitude>
  </city>
  <city name="Barbadan">
    <latitude>2.8333333</latitude>
    <longitude>42.4</longitude>
  </city>
  <city name="Barbadle">
    <latitude>7.8166667</latitude>
    <longitude>49.8</longitude>
  </city>
  <city name="Bar Ballei">
    <latitude>4.1666667</latitude>
    <longitude>42.45</longitude>
  </city>
  <city name="Barcad">
    <latitude>8.8833333</latitude>
    <longitude>45.1166667</longitude>
  </city>
  <city name="Bardaale">
    <latitude>7.0666667</latitude>
    <longitude>47.85</longitude>
  </city>
  <city name="Bardera">
    <latitude>2.3333333</latitude>
    <longitude>42.2833333</longitude>
  </city>
  <city name="Bardere">
    <latitude>2.3333333</latitude>
    <longitude>42.2833333</longitude>
  </city>
  <city name="Barde Saalax">
    <latitude>1.7166667</latitude>
    <longitude>44.5833333</longitude>
  </city>
  <city name="Bardid">
    <latitude>1.8666667</latitude>
    <longitude>44.7166667</longitude>
  </city>
  <city name="Bardira">
    <latitude>2.3333333</latitude>
    <longitude>42.2833333</longitude>
  </city>
  <city name="Bareda">
    <latitude>11.85</latitude>
    <longitude>51.05</longitude>
  </city>
  <city name="Bareeda">
    <latitude>11.85</latitude>
    <longitude>51.05</longitude>
  </city>
  <city name="Bargaal">
    <latitude>11.2833333</latitude>
    <longitude>51.0833333</longitude>
  </city>
  <city name="Bargaan">
    <latitude>4.3666667</latitude>
    <longitude>47.05</longitude>
  </city>
  <city name="Bargal">
    <latitude>11.2833333</latitude>
    <longitude>51.0833333</longitude>
  </city>
  <city name="Bar Ganlave">
    <latitude>4.5833333</latitude>
    <longitude>44.95</longitude>
  </city>
  <city name="Bar Ganni">
    <latitude>3.9166667</latitude>
    <longitude>42.1833333</longitude>
  </city>
  <city name="Bariira">
    <latitude>0.55</latitude>
    <longitude>42.6833333</longitude>
  </city>
  <city name="Bariir">
    <latitude>4.8666667</latitude>
    <longitude>47.8333333</longitude>
  </city>
  <city name="Bariire">
    <latitude>0.55</latitude>
    <longitude>42.6833333</longitude>
  </city>
  <city name="Bariirre">
    <latitude>2.0666667</latitude>
    <longitude>44.9</longitude>
  </city>
  <city name="Bariis">
    <latitude>1.9166667</latitude>
    <longitude>44.7833333</longitude>
  </city>
  <city name="Barire">
    <latitude>0.55</latitude>
    <longitude>42.6833333</longitude>
  </city>
  <city name="Barkaan Caliyow">
    <latitude>2.6666667</latitude>
    <longitude>44.1166667</longitude>
  </city>
  <city name="Barkadle">
    <latitude>2.75</latitude>
    <longitude>44.1333333</longitude>
  </city>
  <city name="Barkale">
    <latitude>3.9833333</latitude>
    <longitude>44.2333333</longitude>
  </city>
  <city name="Barkhadlow">
    <latitude>2.95</latitude>
    <longitude>43.7666667</longitude>
  </city>
  <city name="Bar Madeghe">
    <latitude>4.6166667</latitude>
    <longitude>45.0833333</longitude>
  </city>
  <city name="Bar Madobeh">
    <latitude>9.0</latitude>
    <longitude>48.9</longitude>
  </city>
  <city name="Bar Medeghe">
    <latitude>4.6166667</latitude>
    <longitude>45.0833333</longitude>
  </city>
  <city name="Bar Muumin Dhoorow">
    <latitude>1.85</latitude>
    <longitude>42.3805556</longitude>
  </city>
  <city name="Barow">
    <latitude>3.2333333</latitude>
    <longitude>44.0333333</longitude>
  </city>
  <city name="Barow Diinle">
    <latitude>1.9761111</latitude>
    <longitude>42.3244444</longitude>
  </city>
  <city name="Barquuqe">
    <latitude>0.0166667</latitude>
    <longitude>42.4333333</longitude>
  </city>
  <city name="Barra Goodir">
    <latitude>-0.0166667</latitude>
    <longitude>42.6666667</longitude>
  </city>
  <city name="Barran">
    <latitude>10.7166667</latitude>
    <longitude>48.35</longitude>
  </city>
  <city name="Barre Auadle">
    <latitude>2.8166667</latitude>
    <longitude>45.5333333</longitude>
  </city>
  <city name="Barre Cali Xasan">
    <latitude>2.95</latitude>
    <longitude>45.55</longitude>
  </city>
  <city name="Barrey">
    <latitude>2.8166667</latitude>
    <longitude>45.5333333</longitude>
  </city>
  <city name="Barrou Dinle">
    <latitude>1.9761111</latitude>
    <longitude>42.3244444</longitude>
  </city>
  <city name="Barrò Uein">
    <latitude>2.8666667</latitude>
    <longitude>45.5333333</longitude>
  </city>
  <city name="Barrow">
    <latitude>1.8666667</latitude>
    <longitude>44.7666667</longitude>
  </city>
  <city name="Barsame">
    <latitude>1.7666667</latitude>
    <longitude>44.7333333</longitude>
  </city>
  <city name="Barta Faniyo">
    <latitude>2.0666667</latitude>
    <longitude>42.2333333</longitude>
  </city>
  <city name="Bartanno">
    <latitude>9.5166667</latitude>
    <longitude>44.2</longitude>
  </city>
  <city name="Barwaaqo">
    <latitude>3.4833333</latitude>
    <longitude>42.1833333</longitude>
  </city>
  <city name="Barwaaqo Weyn">
    <latitude>0.0644444</latitude>
    <longitude>42.7430556</longitude>
  </city>
  <city name="Baryaalo">
    <latitude>2.8166667</latitude>
    <longitude>43.9833333</longitude>
  </city>
  <city name="Basaqley">
    <latitude>2.1833333</latitude>
    <longitude>44.6833333</longitude>
  </city>
  <city name="Bashiir">
    <latitude>1.8833333</latitude>
    <longitude>44.6833333</longitude>
  </city>
  <city name="Bashiir Malaambow">
    <latitude>0.3166667</latitude>
    <longitude>42.75</longitude>
  </city>
  <city name="Bashir Beere">
    <latitude>3.05</latitude>
    <longitude>43.4333333</longitude>
  </city>
  <city name="Bashmaale">
    <latitude>2.8833333</latitude>
    <longitude>43.9666667</longitude>
  </city>
  <city name="Basra">
    <latitude>1.6861111</latitude>
    <longitude>42.3402778</longitude>
  </city>
  <city name="Batalaale">
    <latitude>10.4833333</latitude>
    <longitude>45.1166667</longitude>
  </city>
  <city name="Batalaleh">
    <latitude>10.4833333</latitude>
    <longitude>45.1166667</longitude>
  </city>
  <city name="Batalali">
    <latitude>10.4833333</latitude>
    <longitude>45.1166667</longitude>
  </city>
  <city name="Batuulo">
    <latitude>1.7341667</latitude>
    <longitude>42.4061111</longitude>
  </city>
  <city name="Baxarka">
    <latitude>2.2333333</latitude>
    <longitude>44.8333333</longitude>
  </city>
  <city name="Baxdo">
    <latitude>5.7833333</latitude>
    <longitude>47.2166667</longitude>
  </city>
  <city name="Bayaxaaw">
    <latitude>2.75</latitude>
    <longitude>45.5</longitude>
  </city>
  <city name="Baydhabo">
    <latitude>3.1166667</latitude>
    <longitude>43.65</longitude>
  </city>
  <city name="Baygar">
    <latitude>4.0333333</latitude>
    <longitude>43.15</longitude>
  </city>
  <city name="Bayra">
    <latitude>6.95</latitude>
    <longitude>47.3166667</longitude>
  </city>
  <city name="Bedanbedey">
    <latitude>3.0333333</latitude>
    <longitude>43.45</longitude>
  </city>
  <city name="Bedei">
    <latitude>7.9666667</latitude>
    <longitude>49.8166667</longitude>
  </city>
  <city name="Bederwanak">
    <latitude>9.5833333</latitude>
    <longitude>44.4</longitude>
  </city>
  <city name="Beedle">
    <latitude>2.1833333</latitude>
    <longitude>44.8</longitude>
  </city>
  <city name="Beeli Wacatay">
    <latitude>11.0166667</latitude>
    <longitude>50.45</longitude>
  </city>
  <city name="Beerato">
    <latitude>9.35</latitude>
    <longitude>45.0666667</longitude>
  </city>
  <city name="Beer Axmadow">
    <latitude>1.3333333</latitude>
    <longitude>43.9</longitude>
  </city>
  <city name="Beer">
    <latitude>9.3666667</latitude>
    <longitude>45.75</longitude>
  </city>
  <city name="Beernaasi">
    <latitude>-0.6833333</latitude>
    <longitude>42.1333333</longitude>
  </city>
  <city name="Beer Shabeel">
    <latitude>3.2666667</latitude>
    <longitude>44.1666667</longitude>
  </city>
  <city name="Beerta Afaraad">
    <latitude>2.75</latitude>
    <longitude>45.55</longitude>
  </city>
  <city name="Beerta Bisikrini">
    <latitude>2.1333333</latitude>
    <longitude>45.0833333</longitude>
  </city>
  <city name="Beerta Lixaad">
    <latitude>2.75</latitude>
    <longitude>45.5833333</longitude>
  </city>
  <city name="Beerta Shanaad">
    <latitude>2.7333333</latitude>
    <longitude>45.5333333</longitude>
  </city>
  <city name="Beerta Siyago">
    <latitude>3.0166667</latitude>
    <longitude>45.5166667</longitude>
  </city>
  <city name="Beerta Xasan Qaaid">
    <latitude>2.1166667</latitude>
    <longitude>45.0333333</longitude>
  </city>
  <city name="Beer Xaano">
    <latitude>4.5333333</latitude>
    <longitude>45.35</longitude>
  </city>
  <city name="Beey">
    <latitude>-0.0666667</latitude>
    <longitude>42.7166667</longitude>
  </city>
  <city name="Beeyo Doofar">
    <latitude>9.6833333</latitude>
    <longitude>44.0333333</longitude>
  </city>
  <city name="Behelidle">
    <latitude>2.3166667</latitude>
    <longitude>42.3166667</longitude>
  </city>
  <city name="Beifacabo">
    <latitude>2.3333333</latitude>
    <longitude>45.3833333</longitude>
  </city>
  <city name="Beira">
    <latitude>6.95</latitude>
    <longitude>47.3166667</longitude>
  </city>
  <city name="Beira Ier">
    <latitude>6.95</latitude>
    <longitude>47.3166667</longitude>
  </city>
  <city name="Belai-Wen">
    <latitude>4.75</latitude>
    <longitude>45.2</longitude>
  </city>
  <city name="Beled Aamin">
    <latitude>2.1166667</latitude>
    <longitude>44.9833333</longitude>
  </city>
  <city name="Beledai Amin">
    <latitude>2.6</latitude>
    <longitude>44.8166667</longitude>
  </city>
  <city name="Beled Amiin">
    <latitude>2.6</latitude>
    <longitude>44.0333333</longitude>
  </city>
  <city name="Beled Amin">
    <latitude>2.8333333</latitude>
    <longitude>43.05</longitude>
  </city>
  <city name="Beledei Amin">
    <latitude>2.6</latitude>
    <longitude>44.8166667</longitude>
  </city>
  <city name="Beledel Amin">
    <latitude>2.1166667</latitude>
    <longitude>44.9833333</longitude>
  </city>
  <city name="Beled Muddey">
    <latitude>1.2166667</latitude>
    <longitude>44.05</longitude>
  </city>
  <city name="Beled-Sa Cacuni">
    <latitude>0.2905556</latitude>
    <longitude>41.7127778</longitude>
  </city>
  <city name="Beled Weyn">
    <latitude>4.75</latitude>
    <longitude>45.2</longitude>
  </city>
  <city name="Beledweyne">
    <latitude>4.75</latitude>
    <longitude>45.2</longitude>
  </city>
  <city name="Belesc Cogani">
    <latitude>0.2905556</latitude>
    <longitude>41.7127778</longitude>
  </city>
  <city name="Beles Gogani">
    <latitude>0.2905556</latitude>
    <longitude>41.7127778</longitude>
  </city>
  <city name="Beles Gugami">
    <latitude>0.2905556</latitude>
    <longitude>41.7127778</longitude>
  </city>
  <city name="Belet Amin">
    <latitude>0.2011111</latitude>
    <longitude>42.7766667</longitude>
  </city>
  <city name="Belet Gola">
    <latitude>1.4</latitude>
    <longitude>42.465</longitude>
  </city>
  <city name="Belet Mamo">
    <latitude>0.1638889</latitude>
    <longitude>42.7630556</longitude>
  </city>
  <city name="Belet Mseres">
    <latitude>2.4333333</latitude>
    <longitude>42.3166667</longitude>
  </city>
  <city name="Belet Robo">
    <latitude>1.1</latitude>
    <longitude>43.6666667</longitude>
  </city>
  <city name="Belet Uen">
    <latitude>4.75</latitude>
    <longitude>45.2</longitude>
  </city>
  <city name="Belet Wayne">
    <latitude>4.75</latitude>
    <longitude>45.2</longitude>
  </city>
  <city name="Belet Wen">
    <latitude>4.75</latitude>
    <longitude>45.2</longitude>
  </city>
  <city name="Belet Weyne">
    <latitude>4.75</latitude>
    <longitude>45.2</longitude>
  </city>
  <city name="Belgmudi">
    <latitude>1.2166667</latitude>
    <longitude>44.05</longitude>
  </city>
  <city name="Belhan Humei">
    <latitude>3.1666667</latitude>
    <longitude>44.8666667</longitude>
  </city>
  <city name="Beli Adaax">
    <latitude>8.8666667</latitude>
    <longitude>45.7333333</longitude>
  </city>
  <city name="Bellelju">
    <latitude>8.9333333</latitude>
    <longitude>44.55</longitude>
  </city>
  <city name="Bellesle">
    <latitude>11.8333333</latitude>
    <longitude>50.9166667</longitude>
  </city>
  <city name="Benbahodi">
    <latitude>2.3833333</latitude>
    <longitude>42.3333333</longitude>
  </city>
  <city name="Benbesle">
    <latitude>2.6666667</latitude>
    <longitude>44.1666667</longitude>
  </city>
  <city name="Bendar Cadde">
    <latitude>1.7</latitude>
    <longitude>44.6166667</longitude>
  </city>
  <city name="Bender Baad">
    <latitude>11.3516667</latitude>
    <longitude>49.4494444</longitude>
  </city>
  <city name="Bender Bacaad">
    <latitude>11.3516667</latitude>
    <longitude>49.4494444</longitude>
  </city>
  <city name="Bénder Bäylá">
    <latitude>9.4833333</latitude>
    <longitude>50.8166667</longitude>
  </city>
  <city name="Bender Bead">
    <latitude>11.3516667</latitude>
    <longitude>49.4494444</longitude>
  </city>
  <city name="Bender Beila">
    <latitude>9.4833333</latitude>
    <longitude>50.8166667</longitude>
  </city>
  <city name="Bender">
    <latitude>2.3</latitude>
    <longitude>42.2666667</longitude>
  </city>
  <city name="Bender Beyla">
    <latitude>9.4833333</latitude>
    <longitude>50.8166667</longitude>
  </city>
  <city name="Bender Cassim">
    <latitude>11.2847222</latitude>
    <longitude>49.1825</longitude>
  </city>
  <city name="Bender Filuch">
    <latitude>11.9</latitude>
    <longitude>50.5833333</longitude>
  </city>
  <city name="Bender Gedid">
    <latitude>11.5016667</latitude>
    <longitude>49.9208333</longitude>
  </city>
  <city name="Bender Gelid">
    <latitude>11.9</latitude>
    <longitude>50.5833333</longitude>
  </city>
  <city name="Bender Meraio">
    <latitude>11.6833333</latitude>
    <longitude>50.45</longitude>
  </city>
  <city name="Bender Merhagno">
    <latitude>11.6833333</latitude>
    <longitude>50.45</longitude>
  </city>
  <city name="Bender Qaasin">
    <latitude>11.2847222</latitude>
    <longitude>49.1825</longitude>
  </city>
  <city name="Bender Qasin">
    <latitude>11.2847222</latitude>
    <longitude>49.1825</longitude>
  </city>
  <city name="Bender Salam">
    <latitude>2.35</latitude>
    <longitude>42.1666667</longitude>
  </city>
  <city name="Bender Siyaada">
    <latitude>11.2427778</latitude>
    <longitude>48.9758333</longitude>
  </city>
  <city name="Bendersiyada">
    <latitude>11.2427778</latitude>
    <longitude>48.9758333</longitude>
  </city>
  <city name="Bender Ziada">
    <latitude>11.2427778</latitude>
    <longitude>48.9758333</longitude>
  </city>
  <city name="Ber As">
    <latitude>8.55</latitude>
    <longitude>46.3</longitude>
  </city>
  <city name="Berato">
    <latitude>9.35</latitude>
    <longitude>45.0666667</longitude>
  </city>
  <city name="Ber Au Duben">
    <latitude>3.0166667</latitude>
    <longitude>43.3833333</longitude>
  </city>
  <city name="Ber">
    <latitude>9.3666667</latitude>
    <longitude>45.75</longitude>
  </city>
  <city name="Berbera">
    <latitude>10.4355556</latitude>
    <longitude>45.0163889</longitude>
  </city>
  <city name="Berberah">
    <latitude>10.4355556</latitude>
    <longitude>45.0163889</longitude>
  </city>
  <city name="Berbere">
    <latitude>10.4355556</latitude>
    <longitude>45.0163889</longitude>
  </city>
  <city name="Ber Berisso">
    <latitude>1.6697222</latitude>
    <longitude>42.4230556</longitude>
  </city>
  <city name="Ber Birisso">
    <latitude>1.6697222</latitude>
    <longitude>42.4230556</longitude>
  </city>
  <city name="Bercadle">
    <latitude>3.0333333</latitude>
    <longitude>44.1333333</longitude>
  </city>
  <city name="Berdaale">
    <latitude>2.9833333</latitude>
    <longitude>44.2833333</longitude>
  </city>
  <city name="Berdale">
    <latitude>2.9833333</latitude>
    <longitude>44.2833333</longitude>
  </city>
  <city name="Berda Uein">
    <latitude>11.0833333</latitude>
    <longitude>50.15</longitude>
  </city>
  <city name="Berda Uen">
    <latitude>11.0833333</latitude>
    <longitude>50.15</longitude>
  </city>
  <city name="Berde">
    <latitude>5.75</latitude>
    <longitude>48.4666667</longitude>
  </city>
  <city name="Berdile">
    <latitude>4.6833333</latitude>
    <longitude>45.2166667</longitude>
  </city>
  <city name="Berdit">
    <latitude>1.8666667</latitude>
    <longitude>44.7166667</longitude>
  </city>
  <city name="Bereda">
    <latitude>11.85</latitude>
    <longitude>51.05</longitude>
  </city>
  <city name="Bereeda">
    <latitude>11.85</latitude>
    <longitude>51.05</longitude>
  </city>
  <city name="Ber-i Cobogori">
    <latitude>3.35</latitude>
    <longitude>44.8</longitude>
  </city>
  <city name="Bernabodi">
    <latitude>2.3833333</latitude>
    <longitude>42.3333333</longitude>
  </city>
  <city name="Ber Ras">
    <latitude>8.55</latitude>
    <longitude>46.3</longitude>
  </city>
  <city name="Berta Fagno">
    <latitude>2.0666667</latitude>
    <longitude>42.2333333</longitude>
  </city>
  <city name="Beruged">
    <latitude>4.95</latitude>
    <longitude>46.25</longitude>
  </city>
  <city name="Besare">
    <latitude>9.95</latitude>
    <longitude>43.45</longitude>
  </city>
  <city name="Besareh">
    <latitude>9.95</latitude>
    <longitude>43.45</longitude>
  </city>
  <city name="Beynax Barre">
    <latitude>1.5833333</latitude>
    <longitude>44.5166667</longitude>
  </city>
  <city name="Beyra">
    <latitude>6.95</latitude>
    <longitude>47.3166667</longitude>
  </city>
  <city name="Beytalkariim">
    <latitude>2.2666667</latitude>
    <longitude>45.2333333</longitude>
  </city>
  <city name="Bia `áddo">
    <latitude>2.9333333</latitude>
    <longitude>45.75</longitude>
  </city>
  <city name="Bia Caddo">
    <latitude>2.9333333</latitude>
    <longitude>45.75</longitude>
  </city>
  <city name="Biadera">
    <latitude>6.15</latitude>
    <longitude>48.6333333</longitude>
  </city>
  <city name="Bibi">
    <latitude>0.1666667</latitude>
    <longitude>42.2333333</longitude>
  </city>
  <city name="Bi Bidhooy">
    <latitude>2.5</latitude>
    <longitude>44.8166667</longitude>
  </city>
  <city name="Biciidley">
    <latitude>2.3333333</latitude>
    <longitude>42.2</longitude>
  </city>
  <city name="Bidde">
    <latitude>0.9827778</latitude>
    <longitude>42.6291667</longitude>
  </city>
  <city name="Bidi">
    <latitude>0.9827778</latitude>
    <longitude>42.6291667</longitude>
  </city>
  <city name="Bieia">
    <latitude>-0.2</latitude>
    <longitude>42.6166667</longitude>
  </city>
  <city name="Biheio">
    <latitude>8.7333333</latitude>
    <longitude>49.1166667</longitude>
  </city>
  <city name="Bihejo">
    <latitude>8.7333333</latitude>
    <longitude>49.1166667</longitude>
  </city>
  <city name="Bihiyo">
    <latitude>8.7333333</latitude>
    <longitude>49.1166667</longitude>
  </city>
  <city name="Bijiliino">
    <latitude>1.85</latitude>
    <longitude>44.7166667</longitude>
  </city>
  <city name="Bilciljabe">
    <latitude>8.5833333</latitude>
    <longitude>45.25</longitude>
  </city>
  <city name="Bil Cilley">
    <latitude>2.6333333</latitude>
    <longitude>44.8166667</longitude>
  </city>
  <city name="Bilcilwayso">
    <latitude>8.9333333</latitude>
    <longitude>45.5833333</longitude>
  </city>
  <city name="Bilcisha">
    <latitude>2.0333333</latitude>
    <longitude>42.3666667</longitude>
  </city>
  <city name="Bilel Tobaneh">
    <latitude>8.9333333</latitude>
    <longitude>44.55</longitude>
  </city>
  <city name="Bilhelle">
    <latitude>4.4333333</latitude>
    <longitude>46.05</longitude>
  </city>
  <city name="Bilhelli">
    <latitude>5.5333333</latitude>
    <longitude>47.7</longitude>
  </city>
  <city name="Biliil">
    <latitude>3.35</latitude>
    <longitude>43.25</longitude>
  </city>
  <city name="Bililjabe">
    <latitude>8.5833333</latitude>
    <longitude>45.25</longitude>
  </city>
  <city name="Bililscia">
    <latitude>2.5333333</latitude>
    <longitude>41.3166667</longitude>
  </city>
  <city name="Bilil Weiso">
    <latitude>8.9333333</latitude>
    <longitude>45.5833333</longitude>
  </city>
  <city name="Biliq Diinle">
    <latitude>0.5666667</latitude>
    <longitude>42.9833333</longitude>
  </city>
  <city name="Biliq Maro">
    <latitude>0.5386111</latitude>
    <longitude>42.9597222</longitude>
  </city>
  <city name="Biliq Roboow">
    <latitude>1.1</latitude>
    <longitude>43.6666667</longitude>
  </city>
  <city name="Biliq Tale">
    <latitude>0.6333333</latitude>
    <longitude>43.0666667</longitude>
  </city>
  <city name="Bilisa">
    <latitude>0.5269444</latitude>
    <longitude>42.6808333</longitude>
  </city>
  <city name="Biliscai">
    <latitude>2.9</latitude>
    <longitude>43.2666667</longitude>
  </city>
  <city name="Bilis Qooqaani">
    <latitude>0.2905556</latitude>
    <longitude>41.7127778</longitude>
  </city>
  <city name="Bilis Yare">
    <latitude>2.2666667</latitude>
    <longitude>42.2166667</longitude>
  </city>
  <city name="Bili Uen">
    <latitude>0.9258333</latitude>
    <longitude>42.5844444</longitude>
  </city>
  <city name="Billac">
    <latitude>0.0258333</latitude>
    <longitude>42.8122222</longitude>
  </city>
  <city name="Billada">
    <latitude>-1.5166667</latitude>
    <longitude>41.5333333</longitude>
  </city>
  <city name="Billaq">
    <latitude>0.0258333</latitude>
    <longitude>42.8122222</longitude>
  </city>
  <city name="Billeilji Tobaneh">
    <latitude>8.9333333</latitude>
    <longitude>44.55</longitude>
  </city>
  <city name="Billeilji Toboni">
    <latitude>8.9333333</latitude>
    <longitude>44.55</longitude>
  </city>
  <city name="Billeilji Tobono">
    <latitude>8.9333333</latitude>
    <longitude>44.55</longitude>
  </city>
  <city name="Billei Ueno">
    <latitude>0.9258333</latitude>
    <longitude>42.5844444</longitude>
  </city>
  <city name="Billich Maro">
    <latitude>0.5386111</latitude>
    <longitude>42.9597222</longitude>
  </city>
  <city name="Billi Weyn">
    <latitude>0.9258333</latitude>
    <longitude>42.5844444</longitude>
  </city>
  <city name="Bilo">
    <latitude>0.7166667</latitude>
    <longitude>42.7166667</longitude>
  </city>
  <city name="Biloi">
    <latitude>4.3</latitude>
    <longitude>44.5</longitude>
  </city>
  <city name="Biloo">
    <latitude>0.7166667</latitude>
    <longitude>42.7166667</longitude>
  </city>
  <city name="Bimal">
    <latitude>1.1</latitude>
    <longitude>43.6166667</longitude>
  </city>
  <city name="Binnleg Gialalli">
    <latitude>11.2333333</latitude>
    <longitude>43.25</longitude>
  </city>
  <city name="Binnleg Jagalli">
    <latitude>11.2333333</latitude>
    <longitude>43.25</longitude>
  </city>
  <city name="Bio Addo">
    <latitude>11.95</latitude>
    <longitude>50.8333333</longitude>
  </city>
  <city name="Bio Culul">
    <latitude>11.5833333</latitude>
    <longitude>50.25</longitude>
  </city>
  <city name="Bio Gudud">
    <latitude>9.8333333</latitude>
    <longitude>50.5833333</longitude>
  </city>
  <city name="Biolei">
    <latitude>3.9333333</latitude>
    <longitude>44.4166667</longitude>
  </city>
  <city name="Biolel">
    <latitude>3.3333333</latitude>
    <longitude>43.6666667</longitude>
  </city>
  <city name="Bioma">
    <latitude>3.2666667</latitude>
    <longitude>45.3</longitude>
  </city>
  <city name="Bio Mado">
    <latitude>-1.25</latitude>
    <longitude>41.7666667</longitude>
  </city>
  <city name="Biomal">
    <latitude>5.35</latitude>
    <longitude>48.0333333</longitude>
  </city>
  <city name="Birbiris">
    <latitude>1.6697222</latitude>
    <longitude>42.4230556</longitude>
  </city>
  <city name="Bircao">
    <latitude>-1.2166667</latitude>
    <longitude>41.85</longitude>
  </city>
  <city name="Bisiqa">
    <latitude>8.7</latitude>
    <longitude>45.4833333</longitude>
  </city>
  <city name="Bisiqley">
    <latitude>2.7833333</latitude>
    <longitude>45.1666667</longitude>
  </city>
  <city name="Bissig Addo">
    <latitude>2.4666667</latitude>
    <longitude>43.7666667</longitude>
  </city>
  <city name="Bissig Gundere">
    <latitude>7.1333333</latitude>
    <longitude>48.4166667</longitude>
  </city>
  <city name="Bissik Addo">
    <latitude>2.4666667</latitude>
    <longitude>43.7666667</longitude>
  </city>
  <city name="Bixinduule">
    <latitude>10.1575</latitude>
    <longitude>45.1088889</longitude>
  </city>
  <city name="Biyadhanane">
    <latitude>9.6666667</latitude>
    <longitude>44.2833333</longitude>
  </city>
  <city name="Biyafoge">
    <latitude>10.5</latitude>
    <longitude>44.2</longitude>
  </city>
  <city name="Biya Fogo">
    <latitude>10.5</latitude>
    <longitude>44.2</longitude>
  </city>
  <city name="Biyamadoow">
    <latitude>8.65</latitude>
    <longitude>48.3166667</longitude>
  </city>
  <city name="Biyamadow">
    <latitude>8.65</latitude>
    <longitude>48.3166667</longitude>
  </city>
  <city name="Biyeeye">
    <latitude>-0.2</latitude>
    <longitude>42.6166667</longitude>
  </city>
  <city name="Biyo As">
    <latitude>9.7666667</latitude>
    <longitude>43.85</longitude>
  </city>
  <city name="Biyo">
    <latitude>2.9333333</latitude>
    <longitude>45.75</longitude>
  </city>
  <city name="Biyo Fogo">
    <latitude>10.5</latitude>
    <longitude>44.2</longitude>
  </city>
  <city name="Biyo Fuquh">
    <latitude>10.5</latitude>
    <longitude>44.2</longitude>
  </city>
  <city name="Biyo Kululo">
    <latitude>3.3333333</latitude>
    <longitude>45.4833333</longitude>
  </city>
  <city name="Biyoley">
    <latitude>3.9333333</latitude>
    <longitude>43.8333333</longitude>
  </city>
  <city name="Biyomaal">
    <latitude>5.35</latitude>
    <longitude>48.0333333</longitude>
  </city>
  <city name="Biyooley">
    <latitude>2.95</latitude>
    <longitude>44.2333333</longitude>
  </city>
  <city name="Biyosuur">
    <latitude>2.6833333</latitude>
    <longitude>45.55</longitude>
  </city>
  <city name="Biyoweyne">
    <latitude>1.6333333</latitude>
    <longitude>44.6333333</longitude>
  </city>
  <city name="Biyo Yare">
    <latitude>-0.2</latitude>
    <longitude>42.6166667</longitude>
  </city>
  <city name="Blidandan">
    <latitude>8.2</latitude>
    <longitude>46.5333333</longitude>
  </city>
  <city name="Blowka">
    <latitude>3.05</latitude>
    <longitude>43.45</longitude>
  </city>
  <city name="Boaneh">
    <latitude>8.3833333</latitude>
    <longitude>47.9333333</longitude>
  </city>
  <city name="Bocole">
    <latitude>2.7333333</latitude>
    <longitude>44.1333333</longitude>
  </city>
  <city name="Bodale">
    <latitude>2.65</latitude>
    <longitude>45.5</longitude>
  </city>
  <city name="Bodboode">
    <latitude>0.6591667</latitude>
    <longitude>42.7083333</longitude>
  </city>
  <city name="Boddi Cadde">
    <latitude>3.15</latitude>
    <longitude>43.55</longitude>
  </city>
  <city name="Bode">
    <latitude>0.6591667</latitude>
    <longitude>42.7083333</longitude>
  </city>
  <city name="Bodhley">
    <latitude>8.9166667</latitude>
    <longitude>45.3</longitude>
  </city>
  <city name="Bog Daadi">
    <latitude>2.9666667</latitude>
    <longitude>43.9333333</longitude>
  </city>
  <city name="Bogon Gad">
    <latitude>3.1</latitude>
    <longitude>45.1666667</longitude>
  </city>
  <city name="Bohagno">
    <latitude>11.0666667</latitude>
    <longitude>50.1666667</longitude>
  </city>
  <city name="Bohanjo">
    <latitude>11.0666667</latitude>
    <longitude>50.1666667</longitude>
  </city>
  <city name="Bohin">
    <latitude>11.75</latitude>
    <longitude>51.25</longitude>
  </city>
  <city name="Boho">
    <latitude>11.9333333</latitude>
    <longitude>50.8833333</longitude>
  </city>
  <city name="Bohodle">
    <latitude>8.25</latitude>
    <longitude>46.3333333</longitude>
  </city>
  <city name="Bohodleh">
    <latitude>8.25</latitude>
    <longitude>46.3333333</longitude>
  </city>
  <city name="Bohol">
    <latitude>5.75</latitude>
    <longitude>46.2166667</longitude>
  </city>
  <city name="Bohotle">
    <latitude>8.25</latitude>
    <longitude>46.3333333</longitude>
  </city>
  <city name="Bohotleh">
    <latitude>8.25</latitude>
    <longitude>46.3333333</longitude>
  </city>
  <city name="Bohotleh Wein">
    <latitude>8.25</latitude>
    <longitude>46.3333333</longitude>
  </city>
  <city name="Boia">
    <latitude>-0.5166667</latitude>
    <longitude>42.3</longitude>
  </city>
  <city name="Bokh">
    <latitude>10.6166667</latitude>
    <longitude>47.1833333</longitude>
  </city>
  <city name="Bola Cohuan">
    <latitude>9.9833333</latitude>
    <longitude>50.8666667</longitude>
  </city>
  <city name="Boocane">
    <latitude>8.3833333</latitude>
    <longitude>47.9333333</longitude>
  </city>
  <city name="Booc">
    <latitude>8.6333333</latitude>
    <longitude>46.6166667</longitude>
  </city>
  <city name="Boocda Kabaab">
    <latitude>9.8333333</latitude>
    <longitude>43.6</longitude>
  </city>
  <city name="Boodaale">
    <latitude>2.65</latitude>
    <longitude>45.5</longitude>
  </city>
  <city name="Booda">
    <latitude>-0.1</latitude>
    <longitude>42.65</longitude>
  </city>
  <city name="Boodhka">
    <latitude>9.9166667</latitude>
    <longitude>43.4833333</longitude>
  </city>
  <city name="Boodhlay">
    <latitude>9.8</latitude>
    <longitude>45.5666667</longitude>
  </city>
  <city name="Boodhley">
    <latitude>9.6</latitude>
    <longitude>43.55</longitude>
  </city>
  <city name="Booka">
    <latitude>0.0833333</latitude>
    <longitude>42.4166667</longitude>
  </city>
  <city name="Booli Diido">
    <latitude>9.5333333</latitude>
    <longitude>43.8666667</longitude>
  </city>
  <city name="Boolmadu">
    <latitude>3.2666667</latitude>
    <longitude>43.5333333</longitude>
  </city>
  <city name="Boonka">
    <latitude>2.9166667</latitude>
    <longitude>44.0833333</longitude>
  </city>
  <city name="Booraame">
    <latitude>3.45</latitude>
    <longitude>42.55</longitude>
  </city>
  <city name="Booraan">
    <latitude>2.6666667</latitude>
    <longitude>44.9</longitude>
  </city>
  <city name="Boorama">
    <latitude>9.9333333</latitude>
    <longitude>43.1833333</longitude>
  </city>
  <city name="Booriini">
    <latitude>0.1333333</latitude>
    <longitude>42.7166667</longitude>
  </city>
  <city name="Boorka">
    <latitude>3.2166667</latitude>
    <longitude>43.4666667</longitude>
  </city>
  <city name="Boosaaso">
    <latitude>11.2847222</latitude>
    <longitude>49.1825</longitude>
  </city>
  <city name="Boosaso">
    <latitude>11.2847222</latitude>
    <longitude>49.1825</longitude>
  </city>
  <city name="Booshol">
    <latitude>1.9813889</latitude>
    <longitude>42.8019444</longitude>
  </city>
  <city name="Boox">
    <latitude>0.9863889</latitude>
    <longitude>42.61</longitude>
  </city>
  <city name="Boqo">
    <latitude>2.8833333</latitude>
    <longitude>42.0666667</longitude>
  </city>
  <city name="Boqol Jire">
    <latitude>9.5333333</latitude>
    <longitude>44.0333333</longitude>
  </city>
  <city name="Boqor">
    <latitude>9.6333333</latitude>
    <longitude>43.5666667</longitude>
  </city>
  <city name="Bora">
    <latitude>-0.9833333</latitude>
    <longitude>41.2</longitude>
  </city>
  <city name="Borama">
    <latitude>2.9333333</latitude>
    <longitude>43.7</longitude>
  </city>
  <city name="Borame">
    <latitude>3.3166667</latitude>
    <longitude>43.1833333</longitude>
  </city>
  <city name="Boramo">
    <latitude>3.45</latitude>
    <longitude>42.55</longitude>
  </city>
  <city name="Boran">
    <latitude>10.2333333</latitude>
    <longitude>48.7333333</longitude>
  </city>
  <city name="Borgof">
    <latitude>2.8166667</latitude>
    <longitude>43.2833333</longitude>
  </city>
  <city name="Borime">
    <latitude>9.9333333</latitude>
    <longitude>43.1833333</longitude>
  </city>
  <city name="Boron">
    <latitude>1.85</latitude>
    <longitude>43.8666667</longitude>
  </city>
  <city name="Borosole">
    <latitude>3.15</latitude>
    <longitude>43.5333333</longitude>
  </city>
  <city name="Borou">
    <latitude>3.6166667</latitude>
    <longitude>43.8166667</longitude>
  </city>
  <city name="Borow">
    <latitude>3.7333333</latitude>
    <longitude>43.7166667</longitude>
  </city>
  <city name="Borraan">
    <latitude>10.2333333</latitude>
    <longitude>48.7333333</longitude>
  </city>
  <city name="Borran">
    <latitude>10.2333333</latitude>
