<?xml version="1.0" encoding="UTF-8"?>
<country code="tj" name="Tadjikistan">
  <city name="22 (Dvadtsat' Vtorogo) Parts''yezd">
    <latitude>38.5286111</latitude>
    <longitude>68.7797222</longitude>
  </city>
  <city name="Abdan">
    <latitude>38.4666667</latitude>
    <longitude>68.9333333</longitude>
  </city>
  <city name="Abdu">
    <latitude>38.7166667</latitude>
    <longitude>68.3666667</longitude>
  </city>
  <city name="Abdulay">
    <latitude>38.3166667</latitude>
    <longitude>68.5666667</longitude>
  </city>
  <city name="Abdusamar">
    <latitude>39.4294444</latitude>
    <longitude>67.5013889</longitude>
  </city>
  <city name="Abdusamat">
    <latitude>39.4294444</latitude>
    <longitude>67.5013889</longitude>
  </city>
  <city name="Adinobay">
    <latitude>37.725</latitude>
    <longitude>69.8491667</longitude>
  </city>
  <city name="Adrasman">
    <latitude>40.6486111</latitude>
    <longitude>69.9855556</longitude>
  </city>
  <city name="Adrasmon">
    <latitude>40.6486111</latitude>
    <longitude>69.9855556</longitude>
  </city>
  <city name="Afandi">
    <latitude>38.5366667</latitude>
    <longitude>69.8447222</longitude>
  </city>
  <city name="(( Afgan-Kishlak ))">
    <latitude>37.4666667</latitude>
    <longitude>69.3666667</longitude>
  </city>
  <city name="Aflotuk">
    <latitude>37.9786111</latitude>
    <longitude>69.8277778</longitude>
  </city>
  <city name="Aftoluk">
    <latitude>37.9786111</latitude>
    <longitude>69.8277778</longitude>
  </city>
  <city name="Agaravak">
    <latitude>37.9833333</latitude>
    <longitude>68.5666667</longitude>
  </city>
  <city name="Agurty">
    <latitude>38.6602778</latitude>
    <longitude>68.8711111</longitude>
  </city>
  <city name="Aini">
    <latitude>39.3975</latitude>
    <longitude>68.5405556</longitude>
  </city>
  <city name="Aiwanj">
    <latitude>36.9788889</latitude>
    <longitude>68.0325</longitude>
  </city>
  <city name="Akalchin">
    <latitude>38.5166667</latitude>
    <longitude>68.4833333</longitude>
  </city>
  <city name="Akarbulok">
    <latitude>37.8619444</latitude>
    <longitude>69.3766667</longitude>
  </city>
  <city name="Akbaytal">
    <latitude>38.4894444</latitude>
    <longitude>73.8783333</longitude>
  </city>
  <city name="Ak-Bulak">
    <latitude>37.9666667</latitude>
    <longitude>68.4</longitude>
  </city>
  <city name="Akbulok">
    <latitude>38.3483333</latitude>
    <longitude>68.6586111</longitude>
  </city>
  <city name="Ak-Buryu">
    <latitude>38.4</latitude>
    <longitude>68.6333333</longitude>
  </city>
  <city name="Akcha">
    <latitude>37.4005556</latitude>
    <longitude>68.1672222</longitude>
  </city>
  <city name="Akderob">
    <latitude>37.25</latitude>
    <longitude>71.4833333</longitude>
  </city>
  <city name="Ak-Dzhar">
    <latitude>37.6833333</latitude>
    <longitude>68.5833333</longitude>
  </city>
  <city name="Akdzhar">
    <latitude>37.7180556</latitude>
    <longitude>73.1494444</longitude>
  </city>
  <city name="Ak-Dzhor">
    <latitude>38.6</latitude>
    <longitude>68.2666667</longitude>
  </city>
  <city name="Ak-Guaz-Kaaz">
    <latitude>39.8666667</latitude>
    <longitude>68.95</longitude>
  </city>
  <city name="Akhdzev">
    <latitude>37.95</latitude>
    <longitude>71.6166667</longitude>
  </city>
  <city name="Akhteraki Bolo">
    <latitude>38.3833333</latitude>
    <longitude>70.0166667</longitude>
  </city>
  <city name="Akkamar">
    <latitude>38.0722222</latitude>
    <longitude>68.6788889</longitude>
  </city>
  <city name="Ak-Kurgan">
    <latitude>38.4666667</latitude>
    <longitude>68.75</longitude>
  </city>
  <city name="Ak-Kutal">
    <latitude>39.3866667</latitude>
    <longitude>67.6708333</longitude>
  </city>
  <city name="Ak-Mamad">
    <latitude>37.7</latitude>
    <longitude>72.2333333</longitude>
  </city>
  <city name="Ak-Mazar">
    <latitude>37.6691667</latitude>
    <longitude>69.6525</longitude>
  </city>
  <city name="Akmazar">
    <latitude>37.9833333</latitude>
    <longitude>68.8666667</longitude>
  </city>
  <city name="Akmazor">
    <latitude>37.6691667</latitude>
    <longitude>69.6525</longitude>
  </city>
  <city name="Ak-Mechet'">
    <latitude>38.0561111</latitude>
    <longitude>68.3541667</longitude>
  </city>
  <city name="Aknakhodzha">
    <latitude>38.5705556</latitude>
    <longitude>68.1058333</longitude>
  </city>
  <city name="Aksa-Rovat">
    <latitude>38.2666667</latitude>
    <longitude>68.8</longitude>
  </city>
  <city name="Aksay">
    <latitude>39.3833333</latitude>
    <longitude>71.6</longitude>
  </city>
  <city name="(( Akshivan ))">
    <latitude>37.85</latitude>
    <longitude>69.55</longitude>
  </city>
  <city name="Ak-Su">
    <latitude>38.1166667</latitude>
    <longitude>68.5666667</longitude>
  </city>
  <city name="Aksu">
    <latitude>38.15</latitude>
    <longitude>69.3</longitude>
  </city>
  <city name="Ak-Tailak">
    <latitude>37.6666667</latitude>
    <longitude>72.5166667</longitude>
  </city>
  <city name="Ak-Tak">
    <latitude>38.6166667</latitude>
    <longitude>68.8666667</longitude>
  </city>
  <city name="Ak-Tash">
    <latitude>37.6333333</latitude>
    <longitude>74.8</longitude>
  </city>
  <city name="Ak-Taylyak">
    <latitude>37.6666667</latitude>
    <longitude>72.5166667</longitude>
  </city>
  <city name="(( Akteri ))">
    <latitude>37.4666667</latitude>
    <longitude>68.55</longitude>
  </city>
  <city name="Aktero">
    <latitude>37.4666667</latitude>
    <longitude>68.55</longitude>
  </city>
  <city name="Ak-Tyube">
    <latitude>40.0166667</latitude>
    <longitude>69.4666667</longitude>
  </city>
  <city name="Akuyli">
    <latitude>38.4666667</latitude>
    <longitude>68.6</longitude>
  </city>
  <city name="Akzhar">
    <latitude>37.7180556</latitude>
    <longitude>73.1494444</longitude>
  </city>
  <city name="Alakchin">
    <latitude>38.675</latitude>
    <longitude>68.7694444</longitude>
  </city>
  <city name="Alakdzhar">
    <latitude>39.45</latitude>
    <longitude>67.5166667</longitude>
  </city>
  <city name="Al'cha-bulak">
    <latitude>38.2</latitude>
    <longitude>69.5166667</longitude>
  </city>
  <city name="Al'chagi">
    <latitude>38.4186111</latitude>
    <longitude>69.0833333</longitude>
  </city>
  <city name="Alchagy">
    <latitude>38.4186111</latitude>
    <longitude>69.0833333</longitude>
  </city>
  <city name="Alchin">
    <latitude>37.7666667</latitude>
    <longitude>68.8</longitude>
  </city>
  <city name="Alibegí">
    <latitude>38.6347222</latitude>
    <longitude>68.5713889</longitude>
  </city>
  <city name="Aliberdy">
    <latitude>37.26</latitude>
    <longitude>69.1475</longitude>
  </city>
  <city name="Alichur">
    <latitude>37.7447222</latitude>
    <longitude>73.2569444</longitude>
  </city>
  <city name="Alidzhan">
    <latitude>38.1686111</latitude>
    <longitude>69.4</longitude>
  </city>
  <city name="Alígalabon">
    <latitude>38.7627778</latitude>
    <longitude>69.8344444</longitude>
  </city>
  <city name="Alijon">
    <latitude>38.1686111</latitude>
    <longitude>69.4</longitude>
  </city>
  <city name="Alipberdy">
    <latitude>37.26</latitude>
    <longitude>69.1475</longitude>
  </city>
  <city name="Alisurkhon">
    <latitude>38.9083333</latitude>
    <longitude>71.0113889</longitude>
  </city>
  <city name="Al'kadzhar">
    <latitude>38.5380556</latitude>
    <longitude>68.8366667</longitude>
  </city>
  <city name="Alkamazhar">
    <latitude>37.4036111</latitude>
    <longitude>69.1461111</longitude>
  </city>
  <city name="Alkhitay">
    <latitude>38.6719444</latitude>
    <longitude>68.8030556</longitude>
  </city>
  <city name="Alkhitoy">
    <latitude>38.6719444</latitude>
    <longitude>68.8030556</longitude>
  </city>
  <city name="Alkhuch">
    <latitude>38.7322222</latitude>
    <longitude>68.7077778</longitude>
  </city>
  <city name="Alla-Baytal">
    <latitude>38.3794444</latitude>
    <longitude>68.7311111</longitude>
  </city>
  <city name="Al'ma-Bulak">
    <latitude>38.0666667</latitude>
    <longitude>69.4833333</longitude>
  </city>
  <city name="Al'mabulak">
    <latitude>38.2</latitude>
    <longitude>69.5166667</longitude>
  </city>
  <city name="Al'mabulok">
    <latitude>38.2</latitude>
    <longitude>69.5166667</longitude>
  </city>
  <city name="Almaly">
    <latitude>39.9166667</latitude>
    <longitude>68.9166667</longitude>
  </city>
  <city name="Almasi">
    <latitude>38.6833333</latitude>
    <longitude>68.6166667</longitude>
  </city>
  <city name="Al'masy">
    <latitude>38.6833333</latitude>
    <longitude>68.6166667</longitude>
  </city>
  <city name="Almyshabad">
    <latitude>38.3308333</latitude>
    <longitude>68.8719444</longitude>
  </city>
  <city name="Almysh">
    <latitude>38.3308333</latitude>
    <longitude>68.8719444</longitude>
  </city>
  <city name="Alobaytal">
    <latitude>38.3794444</latitude>
    <longitude>68.7311111</longitude>
  </city>
  <city name="Aloudin">
    <latitude>37.4644444</latitude>
    <longitude>69.3677778</longitude>
  </city>
  <city name="Alovuddin">
    <latitude>37.4644444</latitude>
    <longitude>69.3677778</longitude>
  </city>
  <city name="Altin Mazar">
    <latitude>39.1833333</latitude>
    <longitude>72.2333333</longitude>
  </city>
  <city name="Altön Mazar">
    <latitude>39.1833333</latitude>
    <longitude>72.2333333</longitude>
  </city>
  <city name="Altyn-Magar">
    <latitude>39.1833333</latitude>
    <longitude>72.2333333</longitude>
  </city>
  <city name="Altynmazar">
    <latitude>39.1833333</latitude>
    <longitude>72.2333333</longitude>
  </city>
  <city name="Altyn-Topkan">
    <latitude>40.645</latitude>
    <longitude>69.5966667</longitude>
  </city>
  <city name="Amaler">
    <latitude>36.7936111</latitude>
    <longitude>71.5805556</longitude>
  </city>
  <city name="Amandara">
    <latitude>39.5177778</latitude>
    <longitude>67.8130556</longitude>
  </city>
  <city name="Amdarbog">
    <latitude>38.2316667</latitude>
    <longitude>71.5575</longitude>
  </city>
  <city name="Amondara">
    <latitude>39.5177778</latitude>
    <longitude>67.8130556</longitude>
  </city>
  <city name="Amonshaykhi">
    <latitude>38.6086111</latitude>
    <longitude>69.1102778</longitude>
  </city>
  <city name="Amonsheykhi">
    <latitude>38.6086111</latitude>
    <longitude>69.1102778</longitude>
  </city>
  <city name="Amring">
    <latitude>37.7333333</latitude>
    <longitude>70.25</longitude>
  </city>
  <city name="Anatrosh">
    <latitude>38.05</latitude>
    <longitude>70.0166667</longitude>
  </city>
  <city name="Andarab">
    <latitude>37.25</latitude>
    <longitude>71.4833333</longitude>
  </city>
  <city name="Andarbag">
    <latitude>38.2316667</latitude>
    <longitude>71.5575</longitude>
  </city>
  <city name="Andarbak">
    <latitude>38.2316667</latitude>
    <longitude>71.5575</longitude>
  </city>
  <city name="Andarbog">
    <latitude>38.2316667</latitude>
    <longitude>71.5575</longitude>
  </city>
  <city name="Andarob">
    <latitude>37.25</latitude>
    <longitude>71.4833333</longitude>
  </city>
  <city name="Andarsay">
    <latitude>40.0738889</latitude>
    <longitude>69.4433333</longitude>
  </city>
  <city name="Andarsoy">
    <latitude>40.0738889</latitude>
    <longitude>69.4433333</longitude>
  </city>
  <city name="Anderavdzh">
    <latitude>37.7666667</latitude>
    <longitude>72.5833333</longitude>
  </city>
  <city name="Anderbag">
    <latitude>38.2316667</latitude>
    <longitude>71.5575</longitude>
  </city>
  <city name="Anderbak">
    <latitude>38.2316667</latitude>
    <longitude>71.5575</longitude>
  </city>
  <city name="Anderob">
    <latitude>37.25</latitude>
    <longitude>71.4833333</longitude>
  </city>
  <city name="Andigon">
    <latitude>38.5708333</latitude>
    <longitude>69.0575</longitude>
  </city>
  <city name="Andizhan">
    <latitude>37.2897222</latitude>
    <longitude>69.0613889</longitude>
  </city>
  <city name="Andreyev">
    <latitude>38.5163889</latitude>
    <longitude>68.6425</longitude>
  </city>
  <city name="Andygon">
    <latitude>38.5708333</latitude>
    <longitude>69.0575</longitude>
  </city>
  <city name="Andzhirak">
    <latitude>38.4775</latitude>
    <longitude>70.7786111</longitude>
  </city>
  <city name="Andzhir">
    <latitude>38.4461111</latitude>
    <longitude>69.0041667</longitude>
  </city>
  <city name="Andzhirkon">
    <latitude>37.6619444</latitude>
    <longitude>69.5225</longitude>
  </city>
  <city name="Andzhirobi-Bolo">
    <latitude>37.8102778</latitude>
    <longitude>70.1822222</longitude>
  </city>
  <city name="Angurli">
    <latitude>38.2</latitude>
    <longitude>68.45</longitude>
  </city>
  <city name="Anjirak">
    <latitude>38.4775</latitude>
    <longitude>70.7786111</longitude>
  </city>
  <city name="Anjír">
    <latitude>38.4461111</latitude>
    <longitude>69.0041667</longitude>
  </city>
  <city name="Anjirkhon">
    <latitude>37.6619444</latitude>
    <longitude>69.5225</longitude>
  </city>
  <city name="Anjirobi Bolo">
    <latitude>37.8102778</latitude>
    <longitude>70.1822222</longitude>
  </city>
  <city name="Anna-Khudzha">
    <latitude>38.55</latitude>
    <longitude>68.1</longitude>
  </city>
  <city name="Annakul-Ravat">
    <latitude>38.4</latitude>
    <longitude>68.75</longitude>
  </city>
  <city name="Annakul-Rovat">
    <latitude>38.4</latitude>
    <longitude>68.75</longitude>
  </city>
  <city name="Ansh-Abad">
    <latitude>37.9666667</latitude>
    <longitude>68.6666667</longitude>
  </city>
  <city name="Anzhirou-Bolo">
    <latitude>37.8102778</latitude>
    <longitude>70.1822222</longitude>
  </city>
  <city name="(( Anzhirou-Poyën ))">
    <latitude>37.8333333</latitude>
    <longitude>70.1833333</longitude>
  </city>
  <city name="Anzob">
    <latitude>39.1658333</latitude>
    <longitude>68.8238889</longitude>
  </city>
  <city name="Aptyuray">
    <latitude>40.1666667</latitude>
    <longitude>70.6666667</longitude>
  </city>
  <city name="Aq Tash">
    <latitude>37.6333333</latitude>
    <longitude>74.8</longitude>
  </city>
  <city name="Arab">
    <latitude>37.2088889</latitude>
    <longitude>68.0313889</longitude>
  </city>
  <city name="Arabkhana">
    <latitude>37.2088889</latitude>
    <longitude>68.0313889</longitude>
  </city>
  <city name="Arab-Khana">
    <latitude>37.3891667</latitude>
    <longitude>68.1866667</longitude>
  </city>
  <city name="Arabkhonai Kalon">
    <latitude>37.3891667</latitude>
    <longitude>68.1866667</longitude>
  </city>
  <city name="Arabo">
    <latitude>37.4969444</latitude>
    <longitude>69.3491667</longitude>
  </city>
  <city name="Aral">
    <latitude>37.8025</latitude>
    <longitude>69.6441667</longitude>
  </city>
  <city name="Arbob">
    <latitude>38.5544444</latitude>
    <longitude>68.7216667</longitude>
  </city>
  <city name="Arbobi">
    <latitude>38.6166667</latitude>
    <longitude>68.5666667</longitude>
  </city>
  <city name="Arbobkhotun">
    <latitude>38.5544444</latitude>
    <longitude>68.7216667</longitude>
  </city>
  <city name="Archa">
    <latitude>37.6308333</latitude>
    <longitude>69.4522222</longitude>
  </city>
  <city name="Ardabag">
    <latitude>38.4438889</latitude>
    <longitude>71.5930556</longitude>
  </city>
  <city name="Ardabog">
    <latitude>38.4438889</latitude>
    <longitude>71.5930556</longitude>
  </city>
  <city name="Ardobag">
    <latitude>38.4438889</latitude>
    <longitude>71.5930556</longitude>
  </city>
  <city name="Ardzhanak">
    <latitude>38.75</latitude>
    <longitude>68.5833333</longitude>
  </city>
  <city name="Argankul">
    <latitude>38.8680556</latitude>
    <longitude>70.8955556</longitude>
  </city>
  <city name="Argankun">
    <latitude>38.8680556</latitude>
    <longitude>70.8955556</longitude>
  </city>
  <city name="Arkhu">
    <latitude>39.0166667</latitude>
    <longitude>69.2666667</longitude>
  </city>
  <city name="Arla-Tugul'dy">
    <latitude>37.7736111</latitude>
    <longitude>69.5877778</longitude>
  </city>
  <city name="Arpa-Bulak">
    <latitude>38.4666667</latitude>
    <longitude>68.8833333</longitude>
  </city>
  <city name="Arpatuguldi">
    <latitude>37.7736111</latitude>
    <longitude>69.5877778</longitude>
  </city>
  <city name="Arpatuguldy">
    <latitude>37.7377778</latitude>
    <longitude>69.5569444</longitude>
  </city>
  <city name="Arpatugul'dy">
    <latitude>37.7736111</latitude>
    <longitude>69.5877778</longitude>
  </city>
  <city name="Arshi">
    <latitude>38.65</latitude>
    <longitude>68.3666667</longitude>
  </city>
  <city name="Artuch">
    <latitude>39.3397222</latitude>
    <longitude>68.1141667</longitude>
  </city>
  <city name="Arzanion">
    <latitude>38.3666667</latitude>
    <longitude>69.8666667</longitude>
  </city>
  <city name="Arzing">
    <latitude>38.8666667</latitude>
    <longitude>71.35</longitude>
  </city>
  <city name="Arzying">
    <latitude>38.8666667</latitude>
    <longitude>71.35</longitude>
  </city>
  <city name="Arzyng">
    <latitude>38.8666667</latitude>
    <longitude>71.35</longitude>
  </city>
  <city name="Ashaba">
    <latitude>40.7333333</latitude>
    <longitude>70.4333333</longitude>
  </city>
  <city name="Ashat">
    <latitude>40.8</latitude>
    <longitude>70.6166667</longitude>
  </city>
  <city name="Asht">
    <latitude>40.6666667</latitude>
    <longitude>70.3333333</longitude>
  </city>
  <city name="Askari">
    <latitude>38.5408333</latitude>
    <longitude>68.5119444</longitude>
  </city>
  <city name="Askari Surkh">
    <latitude>37.4194444</latitude>
    <longitude>68.6405556</longitude>
  </city>
  <city name="Askari -Surkh">
    <latitude>38.5658333</latitude>
    <longitude>68.2708333</longitude>
  </city>
  <city name="Askerabad">
    <latitude>38.5666667</latitude>
    <longitude>68.9833333</longitude>
  </city>
  <city name="Asvob">
    <latitude>38.5833333</latitude>
    <longitude>68.2166667</longitude>
  </city>
  <city name="Ataugor">
    <latitude>38.55</latitude>
    <longitude>70.8333333</longitude>
  </city>
  <city name="(( Atchanar ))">
    <latitude>37.7666667</latitude>
    <longitude>69.5</longitude>
  </city>
  <city name="Atchapar">
    <latitude>37.7938889</latitude>
    <longitude>69.5802778</longitude>
  </city>
  <city name="Atochibulok">
    <latitude>37.8872222</latitude>
    <longitude>69.3511111</longitude>
  </city>
  <city name="Auchi">
    <latitude>39.5902778</latitude>
    <longitude>69.0830556</longitude>
  </city>
  <city name="Auchi-Kalyacha">
    <latitude>40.1263889</latitude>
    <longitude>69.6711111</longitude>
  </city>
  <city name="Avchi">
    <latitude>39.5902778</latitude>
    <longitude>69.0830556</longitude>
  </city>
  <city name="Avchikalacha">
    <latitude>40.1263889</latitude>
    <longitude>69.6711111</longitude>
  </city>
  <city name="Avdzh">
    <latitude>36.9333333</latitude>
    <longitude>71.4833333</longitude>
  </city>
  <city name="Avtoulyuk">
    <latitude>37.9786111</latitude>
    <longitude>69.8277778</longitude>
  </city>
  <city name="Avzali">
    <latitude>38.0430556</latitude>
    <longitude>68.5716667</longitude>
  </city>
  <city name="Avzikent">
    <latitude>37.8033333</latitude>
    <longitude>69.2772222</longitude>
  </city>
  <city name="Ay-Botkan">
    <latitude>38.0833333</latitude>
    <longitude>68.55</longitude>
  </city>
  <city name="Aykamar">
    <latitude>38.0722222</latitude>
    <longitude>68.6788889</longitude>
  </city>
  <city name="Ayni">
    <latitude>38.5080556</latitude>
    <longitude>68.6844444</longitude>
  </city>
  <city name="Ayni-Khodzhaayni">
    <latitude>38.8183333</latitude>
    <longitude>69.9441667</longitude>
  </city>
  <city name="Ayní-Khojayní">
    <latitude>38.8183333</latitude>
    <longitude>69.9441667</longitude>
  </city>
  <city name="Ayny">
    <latitude>39.3975</latitude>
    <longitude>68.5405556</longitude>
  </city>
  <city name="Ayvach">
    <latitude>36.9788889</latitude>
    <longitude>68.0325</longitude>
  </city>
  <city name="Ayvadzh">
    <latitude>36.9788889</latitude>
    <longitude>68.0325</longitude>
  </city>
  <city name="Ayvaj">
    <latitude>36.9788889</latitude>
    <longitude>68.0325</longitude>
  </city>
  <city name="Azhdzov">
    <latitude>37.95</latitude>
    <longitude>71.6166667</longitude>
  </city>
  <city name="Azikeng">
    <latitude>38.4333333</latitude>
    <longitude>68.4833333</longitude>
  </city>
  <city name="Babagabib">
    <latitude>38.9166667</latitude>
    <longitude>69.8166667</longitude>
  </city>
  <city name="Baba-i-Darkhan">
    <latitude>40.7</latitude>
    <longitude>70.25</longitude>
  </city>
  <city name="Babosafol-Poyën">
    <latitude>37.6152778</latitude>
    <longitude>69.4038889</longitude>
  </city>
  <city name="Bacha-Mazar">
    <latitude>37.9808333</latitude>
    <longitude>69.6333333</longitude>
  </city>
  <city name="Bachamazor">
    <latitude>37.9808333</latitude>
    <longitude>69.6333333</longitude>
  </city>
  <city name="Bachor">
    <latitude>37.75</latitude>
    <longitude>72.5333333</longitude>
  </city>
  <city name="Badamtu">
    <latitude>37.8261111</latitude>
    <longitude>69.9436111</longitude>
  </city>
  <city name="Badom-Dara">
    <latitude>37.0833333</latitude>
    <longitude>71.8166667</longitude>
  </city>
  <city name="Badurt">
    <latitude>38.1666667</latitude>
    <longitude>72.1666667</longitude>
  </city>
  <city name="Badzhu">
    <latitude>37.7666667</latitude>
    <longitude>71.6333333</longitude>
  </city>
  <city name="Badzhu-Pavdiv">
    <latitude>37.8666667</latitude>
    <longitude>71.6</longitude>
  </city>
  <city name="Badzhuv">
    <latitude>37.7666667</latitude>
    <longitude>71.6333333</longitude>
  </city>
  <city name="Bagalak">
    <latitude>38.5066667</latitude>
    <longitude>68.5552778</longitude>
  </city>
  <city name="Bagalok">
    <latitude>38.5066667</latitude>
    <longitude>68.5552778</longitude>
  </city>
  <city name="Bagarak">
    <latitude>37.6205556</latitude>
    <longitude>69.8705556</longitude>
  </city>
  <city name="Bagizagon">
    <latitude>38.4952778</latitude>
    <longitude>69.8086111</longitude>
  </city>
  <city name="Bahorak">
    <latitude>37.6205556</latitude>
    <longitude>69.8705556</longitude>
  </city>
  <city name="Bakaul">
    <latitude>38.6666667</latitude>
    <longitude>68.8</longitude>
  </city>
  <city name="Bakay">
    <latitude>38.5016667</latitude>
    <longitude>68.1616667</longitude>
  </city>
  <city name="Bakh">
    <latitude>37.5833333</latitude>
    <longitude>69.95</longitude>
  </city>
  <city name="Bakhorak">
    <latitude>37.6205556</latitude>
    <longitude>69.8705556</longitude>
  </city>
  <city name="Bakhor">
    <latitude>38.5488889</latitude>
    <longitude>68.9861111</longitude>
  </city>
  <city name="Bakizagon">
    <latitude>38.4952778</latitude>
    <longitude>69.8086111</longitude>
  </city>
  <city name="Bakoron">
    <latitude>38.6144444</latitude>
    <longitude>69.0269444</longitude>
  </city>
  <city name="Balagdash">
    <latitude>37.9680556</latitude>
    <longitude>69.0369444</longitude>
  </city>
  <city name="Baldirgon">
    <latitude>38.5102778</latitude>
    <longitude>68.9011111</longitude>
  </city>
  <city name="Baldshuan">
    <latitude>38.3108333</latitude>
    <longitude>69.6669444</longitude>
  </city>
  <city name="Bal'dzhuan">
    <latitude>38.3108333</latitude>
    <longitude>69.6669444</longitude>
  </city>
  <city name="Bal'dzhuvon">
    <latitude>38.3108333</latitude>
    <longitude>69.6669444</longitude>
  </city>
  <city name="Balga-Boskan Vtoroy">
    <latitude>37.7666667</latitude>
    <longitude>68.75</longitude>
  </city>
  <city name="Bal'juan">
    <latitude>38.3108333</latitude>
    <longitude>69.6669444</longitude>
  </city>
  <city name="Baljuvon">
    <latitude>38.3108333</latitude>
    <longitude>69.6669444</longitude>
  </city>
  <city name="Balkhobi">
    <latitude>37.8636111</latitude>
    <longitude>69.9066667</longitude>
  </city>
  <city name="Balkhoby">
    <latitude>37.8636111</latitude>
    <longitude>69.9066667</longitude>
  </city>
  <city name="Baqoy">
    <latitude>38.5016667</latitude>
    <longitude>68.1616667</longitude>
  </city>
  <city name="Baradzh">
    <latitude>37.2833333</latitude>
    <longitude>71.7833333</longitude>
  </city>
  <city name="Barau">
    <latitude>38.3111111</latitude>
    <longitude>71.3222222</longitude>
  </city>
  <city name="Baraun">
    <latitude>38.3111111</latitude>
    <longitude>71.3222222</longitude>
  </city>
  <city name="Baravn">
    <latitude>38.4861111</latitude>
    <longitude>71.6463889</longitude>
  </city>
  <city name="Baravni Tor">
    <latitude>38.3111111</latitude>
    <longitude>71.3222222</longitude>
  </city>
  <city name="Barchadev">
    <latitude>38.3041667</latitude>
    <longitude>72.4772222</longitude>
  </city>
  <city name="Barchadiv">
    <latitude>38.3041667</latitude>
    <longitude>72.4772222</longitude>
  </city>
  <city name="Barchidiv">
    <latitude>38.3041667</latitude>
    <longitude>72.4772222</longitude>
  </city>
  <city name="Bardara">
    <latitude>38.1086111</latitude>
    <longitude>72.2858333</longitude>
  </city>
  <city name="Barfunt">
    <latitude>38.0166667</latitude>
    <longitude>71.8166667</longitude>
  </city>
  <city name="Barnavad">
    <latitude>38.4127778</latitude>
    <longitude>71.9411111</longitude>
  </city>
  <city name="Barnavadzh">
    <latitude>38.4127778</latitude>
    <longitude>71.9411111</longitude>
  </city>
  <city name="Barnovadz">
    <latitude>38.4127778</latitude>
    <longitude>71.9411111</longitude>
  </city>
  <city name="Barou">
    <latitude>38.4972222</latitude>
    <longitude>71.0363889</longitude>
  </city>
  <city name="Barsem">
    <latitude>37.55</latitude>
    <longitude>71.7333333</longitude>
  </city>
  <city name="Barsen'">
    <latitude>37.55</latitude>
    <longitude>71.7333333</longitude>
  </city>
  <city name="Bartang">
    <latitude>38.0652778</latitude>
    <longitude>71.8727778</longitude>
  </city>
  <city name="Barushan">
    <latitude>37.9333333</latitude>
    <longitude>71.4333333</longitude>
  </city>
  <city name="Barushon">
    <latitude>37.9333333</latitude>
    <longitude>71.4333333</longitude>
  </city>
  <city name="Bash-Charbak">
    <latitude>37.5666667</latitude>
    <longitude>68.1333333</longitude>
  </city>
  <city name="Bash-Cherbak">
    <latitude>37.5666667</latitude>
    <longitude>68.1333333</longitude>
  </city>
  <city name="Bash-Gumbez">
    <latitude>37.7711111</latitude>
    <longitude>73.5491667</longitude>
  </city>
  <city name="Bash-Gunash">
    <latitude>37.5666667</latitude>
    <longitude>68.55</longitude>
  </city>
  <city name="Bashkala">
    <latitude>37.4636111</latitude>
    <longitude>68.1630556</longitude>
  </city>
  <city name="Bashkaynar">
    <latitude>38.2077778</latitude>
    <longitude>68.8488889</longitude>
  </city>
  <city name="Bashkom Baz">
    <latitude>37.7711111</latitude>
    <longitude>73.5491667</longitude>
  </city>
  <city name="Bashkyngash">
    <latitude>38.4647222</latitude>
    <longitude>68.8036111</longitude>
  </city>
  <city name="Bash-Rukash">
    <latitude>37.5666667</latitude>
    <longitude>68.55</longitude>
  </city>
  <city name="Bash-Tal">
    <latitude>40.5833333</latitude>
    <longitude>70.45</longitude>
  </city>
  <city name="Bash Tegerman">
    <latitude>37.8475</latitude>
    <longitude>69.7380556</longitude>
  </city>
  <city name="Basid">
    <latitude>38.105</latitude>
    <longitude>72.1541667</longitude>
  </city>
  <city name="Basit">
    <latitude>38.105</latitude>
    <longitude>72.1541667</longitude>
  </city>
  <city name="Basmanda">
    <latitude>39.6888889</latitude>
    <longitude>69.1544444</longitude>
  </city>
  <city name="Basmandy">
    <latitude>39.6888889</latitude>
    <longitude>69.1544444</longitude>
  </city>
  <city name="Basyd">
    <latitude>38.105</latitude>
    <longitude>72.1541667</longitude>
  </city>
  <city name="Batan">
    <latitude>37.9616667</latitude>
    <longitude>69.4825</longitude>
  </city>
  <city name="Batash">
    <latitude>38.5666667</latitude>
    <longitude>68.3</longitude>
  </city>
  <city name="Batosh">
    <latitude>38.5666667</latitude>
    <longitude>68.3</longitude>
  </city>
  <city name="Batrak">
    <latitude>37.9666667</latitude>
    <longitude>68.5333333</longitude>
  </city>
  <city name="Batyrkhan">
    <latitude>37.9213889</latitude>
    <longitude>69.7697222</longitude>
  </city>
  <city name="Baumanabad">
    <latitude>37.2383333</latitude>
    <longitude>69.0969444</longitude>
  </city>
  <city name="Bay-Kuchkar">
    <latitude>38.3666667</latitude>
    <longitude>68.9</longitude>
  </city>
  <city name="Bdavn">
    <latitude>38.4166667</latitude>
    <longitude>71.7666667</longitude>
  </city>
  <city name="Bdun">
    <latitude>38.2202778</latitude>
    <longitude>71.4888889</longitude>
  </city>
  <city name="Bedak">
    <latitude>39.4072222</latitude>
    <longitude>67.7122222</longitude>
  </city>
  <city name="Bedanibedak">
    <latitude>37.2808333</latitude>
    <longitude>69.0463889</longitude>
  </city>
  <city name="Bedgun">
    <latitude>38.7333333</latitude>
    <longitude>68.3833333</longitude>
  </city>
  <city name="Bedik">
    <latitude>39.4072222</latitude>
    <longitude>67.7122222</longitude>
  </city>
  <city name="Begar">
    <latitude>38.8</latitude>
    <longitude>68.8166667</longitude>
  </city>
  <city name="Bene">
    <latitude>37.6666667</latitude>
    <longitude>71.55</longitude>
  </city>
  <city name="Berencha">
    <latitude>38.3833333</latitude>
    <longitude>68.9666667</longitude>
  </city>
  <city name="Bersen">
    <latitude>37.55</latitude>
    <longitude>71.7333333</longitude>
  </city>
  <city name="Besharik">
    <latitude>37.8286111</latitude>
    <longitude>69.6338889</longitude>
  </city>
  <city name="Besharyk">
    <latitude>37.4566667</latitude>
    <longitude>68.5769444</longitude>
  </city>
  <city name="Beshbulok">
    <latitude>37.6905556</latitude>
    <longitude>69.0705556</longitude>
  </city>
  <city name="Beshbulok-Bolo">
    <latitude>38.5936111</latitude>
    <longitude>68.5897222</longitude>
  </city>
  <city name="Beshcheulok">
    <latitude>37.9902778</latitude>
    <longitude>69.2191667</longitude>
  </city>
  <city name="Beshcheulyak">
    <latitude>37.9902778</latitude>
    <longitude>69.2191667</longitude>
  </city>
  <city name="Beshkapa">
    <latitude>37.2302778</latitude>
    <longitude>68.0205556</longitude>
  </city>
  <city name="Besh-Kapa">
    <latitude>37.8166667</latitude>
    <longitude>68.6833333</longitude>
  </city>
  <city name="Beshkapai Poyon">
    <latitude>38.1169444</latitude>
    <longitude>68.3813889</longitude>
  </city>
  <city name="Besh-Kape">
    <latitude>38.2391667</latitude>
    <longitude>68.9366667</longitude>
  </city>
  <city name="Beshkappa">
    <latitude>37.2302778</latitude>
    <longitude>68.0205556</longitude>
  </city>
  <city name="Beshkappoi-Poyen">
    <latitude>38.1169444</latitude>
    <longitude>68.3813889</longitude>
  </city>
  <city name="Beshkent">
    <latitude>37.2302778</latitude>
    <longitude>68.0205556</longitude>
  </city>
  <city name="(( Besh-Khabib ))">
    <latitude>37.8833333</latitude>
    <longitude>69.8333333</longitude>
  </city>
  <city name="Besh-Kuduk">
    <latitude>37.4291667</latitude>
    <longitude>69.2005556</longitude>
  </city>
  <city name="Beshquduq">
    <latitude>37.4291667</latitude>
    <longitude>69.2005556</longitude>
  </city>
  <city name="Besh-Tegerman">
    <latitude>37.8475</latitude>
    <longitude>69.7380556</longitude>
  </city>
  <city name="Beshtegirmon">
    <latitude>37.8475</latitude>
    <longitude>69.7380556</longitude>
  </city>
  <city name="Beshtemir">
    <latitude>37.3413889</latitude>
    <longitude>68.1541667</longitude>
  </city>
  <city name="Beshtentak">
    <latitude>38.3011111</latitude>
    <longitude>69.7130556</longitude>
  </city>
  <city name="Besh-Tepa">
    <latitude>38.5333333</latitude>
    <longitude>68.7833333</longitude>
  </city>
  <city name="Besh-Timuch">
    <latitude>37.3413889</latitude>
    <longitude>68.1541667</longitude>
  </city>
  <city name="Besh-Timur">
    <latitude>37.3413889</latitude>
    <longitude>68.1541667</longitude>
  </city>
  <city name="Beydakho">
    <latitude>38.7494444</latitude>
    <longitude>69.845</longitude>
  </city>
  <city name="Beydikh">
    <latitude>38.7494444</latitude>
    <longitude>69.845</longitude>
  </city>
  <city name="Beydikho">
    <latitude>38.7494444</latitude>
    <longitude>69.845</longitude>
  </city>
  <city name="Beydy-Kyo">
    <latitude>38.7494444</latitude>
    <longitude>69.845</longitude>
  </city>
  <city name="Bibi-Khurum">
    <latitude>38.2166667</latitude>
    <longitude>68.5666667</longitude>
  </city>
  <city name="Bichkhari">
    <latitude>38.35</latitude>
    <longitude>71.3833333</longitude>
  </city>
  <city name="Bichkharv">
    <latitude>38.35</latitude>
    <longitude>71.3833333</longitude>
  </city>
  <city name="Biddzharovat">
    <latitude>38.1886111</latitude>
    <longitude>71.9922222</longitude>
  </city>
  <city name="Biddzhran">
    <latitude>38.1886111</latitude>
    <longitude>71.9922222</longitude>
  </city>
  <city name="Bidzhran">
    <latitude>38.1886111</latitude>
    <longitude>71.9922222</longitude>
  </city>
  <city name="Bidzhrav">
    <latitude>38.1886111</latitude>
    <longitude>71.9922222</longitude>
  </city>
  <city name="Bigar">
    <latitude>38.8</latitude>
    <longitude>68.8166667</longitude>
  </city>
  <city name="Bijrav">
    <latitude>38.1886111</latitude>
    <longitude>71.9922222</longitude>
  </city>
  <city name="Birbuloq">
    <latitude>37.4233333</latitude>
    <longitude>69.045</longitude>
  </city>
  <city name="Bisav">
    <latitude>38.0375</latitude>
    <longitude>71.8744444</longitude>
  </city>
  <city name="Bish-Bulak">
    <latitude>38.3166667</latitude>
    <longitude>68.3666667</longitude>
  </city>
  <city name="Bishkala">
    <latitude>37.4636111</latitude>
    <longitude>68.1630556</longitude>
  </city>
  <city name="Bishkent">
    <latitude>37.2302778</latitude>
    <longitude>68.0205556</longitude>
  </city>
  <city name="Blagodarnyy">
    <latitude>38.5166667</latitude>
    <longitude>68.55</longitude>
  </city>
  <city name="Boboidorkhon">
    <latitude>40.7</latitude>
    <longitude>70.25</longitude>
  </city>
  <city name="Bobokhonshaid">
    <latitude>38.2216667</latitude>
    <longitude>69.6586111</longitude>
  </city>
  <city name="Bobosafol">
    <latitude>37.6119444</latitude>
    <longitude>69.4219444</longitude>
  </city>
  <city name="Bobosafoli Poyon">
    <latitude>37.6152778</latitude>
    <longitude>69.4038889</longitude>
  </city>
  <city name="Bobo-Surkhan">
    <latitude>38.6613889</latitude>
    <longitude>68.6297222</longitude>
  </city>
  <city name="Bobosurkhon">
    <latitude>38.6613889</latitude>
    <longitude>68.6297222</longitude>
  </city>
  <city name="Bobotago">
    <latitude>39.9072222</latitude>
    <longitude>68.9775</longitude>
  </city>
  <city name="Bobotunkhona">
    <latitude>38.2608333</latitude>
    <longitude>69.3555556</longitude>
  </city>
  <city name="Bobotupkhona">
    <latitude>38.2608333</latitude>
    <longitude>69.3555556</longitude>
  </city>
  <city name="Bodau">
    <latitude>38.3530556</latitude>
    <longitude>71.4222222</longitude>
  </city>
  <city name="Bodaud">
    <latitude>38.3530556</latitude>
    <longitude>71.4222222</longitude>
  </city>
  <city name="Bodom-Dara">
    <latitude>37.0833333</latitude>
    <longitude>71.8166667</longitude>
  </city>
  <city name="Bodomtu">
    <latitude>37.8261111</latitude>
    <longitude>69.9436111</longitude>
  </city>
  <city name="Bodomtut">
    <latitude>37.8261111</latitude>
    <longitude>69.9436111</longitude>
  </city>
  <city name="Bogak">
    <latitude>38.1872222</latitude>
    <longitude>68.5388889</longitude>
  </city>
  <city name="Bogalyak">
    <latitude>38.5066667</latitude>
    <longitude>68.5552778</longitude>
  </city>
  <city name="Bogat">
    <latitude>39.9386111</latitude>
    <longitude>68.9863889</longitude>
  </city>
  <city name="(( Bog ))">
    <latitude>37.5833333</latitude>
    <longitude>69.95</longitude>
  </city>
  <city name="Bogdayën">
    <latitude>38.2</latitude>
    <longitude>69.85</longitude>
  </city>
  <city name="Bogev">
    <latitude>37.5305556</latitude>
    <longitude>71.6602778</longitude>
  </city>
  <city name="Boggai">
    <latitude>38.0644444</latitude>
    <longitude>69.9605556</longitude>
  </city>
  <city name="Boggay">
    <latitude>38.0644444</latitude>
    <longitude>69.9605556</longitude>
  </city>
  <city name="Bogi Habib">
    <latitude>37.9163889</latitude>
    <longitude>69.8402778</longitude>
  </city>
  <city name="Bogikalon">
    <latitude>39.8861111</latitude>
    <longitude>68.9863889</longitude>
  </city>
  <city name="Bogikhabib">
    <latitude>37.9163889</latitude>
    <longitude>69.8402778</longitude>
  </city>
  <city name="Bogizogon">
    <latitude>38.4952778</latitude>
    <longitude>69.8086111</longitude>
  </city>
  <city name="Boguz">
    <latitude>38.3555556</latitude>
    <longitude>71.7805556</longitude>
  </city>
  <city name="Boldargin">
    <latitude>38.5102778</latitude>
    <longitude>68.9011111</longitude>
  </city>
  <city name="Boldirgon">
    <latitude>38.5102778</latitude>
    <longitude>68.9011111</longitude>
  </city>
  <city name="Boldoy">
    <latitude>38.3547222</latitude>
    <longitude>69.7580556</longitude>
  </city>
  <city name="Bol'dzhuan">
    <latitude>38.3108333</latitude>
    <longitude>69.6669444</longitude>
  </city>
  <city name="Bolgali">
    <latitude>39.8333333</latitude>
    <longitude>68.8666667</longitude>
  </city>
  <city name="Bolo-Nazar">
    <latitude>38.5136111</latitude>
    <longitude>68.8577778</longitude>
  </city>
  <city name="Bolshevik">
    <latitude>37.1630556</latitude>
    <longitude>68.2263889</longitude>
  </city>
  <city name="Bol'shevik">
    <latitude>37.3969444</latitude>
    <longitude>68.6455556</longitude>
  </city>
  <city name="Bongura">
    <latitude>38.6133333</latitude>
    <longitude>69.095</longitude>
  </city>
  <city name="Boraun">
    <latitude>38.3111111</latitude>
    <longitude>71.3222222</longitude>
  </city>
  <city name="Boravn">
    <latitude>38.3111111</latitude>
    <longitude>71.3222222</longitude>
  </city>
  <city name="Borshi">
    <latitude>38.6833333</latitude>
    <longitude>71.3666667</longitude>
  </city>
  <city name="Borshit">
    <latitude>38.6833333</latitude>
    <longitude>71.3666667</longitude>
  </city>
  <city name="Boshbulok">
    <latitude>38.1172222</latitude>
    <longitude>69.3772222</longitude>
  </city>
  <city name="Boshbuloq">
    <latitude>38.1172222</latitude>
    <longitude>69.3772222</longitude>
  </city>
  <city name="Boshgumbez">
    <latitude>37.7711111</latitude>
    <longitude>73.5491667</longitude>
  </city>
  <city name="Boshkala">
    <latitude>37.4636111</latitude>
    <longitude>68.1630556</longitude>
  </city>
  <city name="Boshkaynar">
    <latitude>38.2077778</latitude>
    <longitude>68.8488889</longitude>
  </city>
  <city name="Boshkengash">
    <latitude>38.4647222</latitude>
    <longitude>68.8036111</longitude>
  </city>
  <city name="Boshkengosh">
    <latitude>38.4647222</latitude>
    <longitude>68.8036111</longitude>
  </city>
  <city name="Boshkushkiya">
    <latitude>37.9977778</latitude>
    <longitude>69.6591667</longitude>
  </city>
  <city name="Boshqal'a">
    <latitude>37.4636111</latitude>
    <longitude>68.1630556</longitude>
  </city>
  <city name="Boshtal'">
    <latitude>40.5833333</latitude>
    <longitude>70.45</longitude>
  </city>
  <city name="Botanicheskiy">
    <latitude>38.58</latitude>
    <longitude>68.6933333</longitude>
  </city>
  <city name="Boud">
    <latitude>38.3833333</latitude>
    <longitude>71.4666667</longitude>
  </city>
  <city name="Braug">
    <latitude>38.4972222</latitude>
    <longitude>71.0363889</longitude>
  </city>
  <city name="Brigada Vtoraya Uchastka Karla Marksa">
    <latitude>37.4411111</latitude>
    <longitude>68.4877778</longitude>
  </city>
  <city name="Brovg">
    <latitude>38.4972222</latitude>
    <longitude>71.0363889</longitude>
  </city>
  <city name="Bubanan-Dasht">
    <latitude>38.1833333</latitude>
    <longitude>69.9666667</longitude>
  </city>
  <city name="Budun">
    <latitude>38.2202778</latitude>
    <longitude>71.4888889</longitude>
  </city>
  <city name="Bugolyak">
    <latitude>38.45</latitude>
    <longitude>68.15</longitude>
  </city>
  <city name="Buguz">
    <latitude>38.3555556</latitude>
    <longitude>71.7805556</longitude>
  </city>
  <city name="Buitakabad">
    <latitude>38.3266667</latitude>
    <longitude>70.0708333</longitude>
  </city>
  <city name="Bujran">
    <latitude>38.1886111</latitude>
    <longitude>71.9922222</longitude>
  </city>
  <city name="Bulak-Saydon">
    <latitude>38.6488889</latitude>
    <longitude>68.6111111</longitude>
  </city>
  <city name="Bulbulchashma">
    <latitude>38.4355556</latitude>
    <longitude>68.5536111</longitude>
  </city>
  <city name="Bulen">
    <latitude>37.9102778</latitude>
    <longitude>69.3536111</longitude>
  </city>
  <city name="Bulok">
    <latitude>40.6</latitude>
    <longitude>70.45</longitude>
  </city>
  <city name="Bulokchinor">
    <latitude>38.5205556</latitude>
    <longitude>68.5952778</longitude>
  </city>
  <city name="Bulokdasht">
    <latitude>37.9919444</latitude>
    <longitude>69.5336111</longitude>
  </city>
  <city name="Bulokisaidon">
    <latitude>38.6488889</latitude>
    <longitude>68.6111111</longitude>
  </city>
  <city name="Bul'on">
    <latitude>37.9672222</latitude>
    <longitude>69.3936111</longitude>
  </city>
  <city name="Bulunkul'">
    <latitude>37.7005556</latitude>
    <longitude>72.9455556</longitude>
  </city>
  <city name="Bulunqul">
    <latitude>37.7005556</latitude>
    <longitude>72.9455556</longitude>
  </city>
  <city name="Bul'yen">
    <latitude>37.9102778</latitude>
    <longitude>69.3536111</longitude>
  </city>
  <city name="Bul'yëni-Bolo">
    <latitude>38.0575</latitude>
    <longitude>69.4333333</longitude>
  </city>
  <city name="Bulyon">
    <latitude>37.9672222</latitude>
    <longitude>69.3936111</longitude>
  </city>
  <city name="Bulyoni-Bolo">
    <latitude>38.0575</latitude>
    <longitude>69.4333333</longitude>
  </city>
  <city name="Bunai">
    <latitude>38.4297222</latitude>
    <longitude>71.5563889</longitude>
  </city>
  <city name="Bunay">
    <latitude>38.4297222</latitude>
    <longitude>71.5563889</longitude>
  </city>
  <city name="Bundzhikat">
    <latitude>39.9108333</latitude>
    <longitude>69.0063889</longitude>
  </city>
  <city name="Bungakiyën">
    <latitude>38.6208333</latitude>
    <longitude>69.4719444</longitude>
  </city>
  <city name="Bungakiyon">
    <latitude>38.6208333</latitude>
    <longitude>69.4719444</longitude>
  </city>
  <city name="Buniga">
    <latitude>38.3</latitude>
    <longitude>71.2666667</longitude>
  </city>
  <city name="Buntakobod">
    <latitude>38.3266667</latitude>
    <longitude>70.0708333</longitude>
  </city>
  <city name="Buragan">
    <latitude>39.7075</latitude>
    <longitude>68.7291667</longitude>
  </city>
  <city name="Buragen">
    <latitude>39.7075</latitude>
    <longitude>68.7291667</longitude>
  </city>
  <city name="Burdongal">
    <latitude>37.9772222</latitude>
    <longitude>69.4936111</longitude>
  </city>
  <city name="Bure-Tishik">
    <latitude>38.3666667</latitude>
    <longitude>68.3833333</longitude>
  </city>
  <city name="Burka">
    <latitude>37.2252778</latitude>
    <longitude>69.1466667</longitude>
  </city>
  <city name="Burma">
    <latitude>38.46</latitude>
    <longitude>68.9216667</longitude>
  </city>
  <city name="Buston">
    <latitude>38.0461111</latitude>
    <longitude>68.7886111</longitude>
  </city>
  <city name="Bustonkala">
    <latitude>37.8666667</latitude>
    <longitude>68.8333333</longitude>
  </city>
  <city name="Bustonqal'a">
    <latitude>37.8666667</latitude>
    <longitude>68.8333333</longitude>
  </city>
  <city name="Butson">
    <latitude>37.5516667</latitude>
    <longitude>69.4713889</longitude>
  </city>
  <city name="Buved">
    <latitude>37.5825</latitude>
    <longitude>71.5108333</longitude>
  </city>
  <city name="Buynak-Manir">
    <latitude>38.5166667</latitude>
    <longitude>68.35</longitude>
  </city>
  <city name="Buyrabov">
    <latitude>38.4833333</latitude>
    <longitude>68.6833333</longitude>
  </city>
  <city name="Buzakhana">
    <latitude>37.7138889</latitude>
    <longitude>69.7225</longitude>
  </city>
  <city name="Buzakhona">
    <latitude>37.7138889</latitude>
    <longitude>69.7225</longitude>
  </city>
  <city name="Buzbeli">
    <latitude>38.1166667</latitude>
    <longitude>69.5833333</longitude>
  </city>
  <city name="Buzbit">
    <latitude>38.5</latitude>
    <longitude>68.9905556</longitude>
  </city>
  <city name="Buzuk">
    <latitude>38.5666667</latitude>
    <longitude>68.2333333</longitude>
  </city>
  <city name="Byrbulok">
    <latitude>37.4233333</latitude>
    <longitude>69.045</longitude>
  </city>
  <city name="Byuragan">
    <latitude>39.7075</latitude>
    <longitude>68.7291667</longitude>
  </city>
  <city name="Chad">
    <latitude>37.9255556</latitude>
    <longitude>69.1566667</longitude>
  </city>
  <city name="Chadegiv">
    <latitude>38.1141667</latitude>
    <longitude>72.0363889</longitude>
  </city>
  <city name="Chadud">
    <latitude>38.1255556</latitude>
    <longitude>72.2</longitude>
  </city>
  <city name="Chaduk">
    <latitude>38.1255556</latitude>
    <longitude>72.2</longitude>
  </city>
  <city name="Chadun">
    <latitude>38.1255556</latitude>
    <longitude>72.2</longitude>
  </city>
  <city name="Chadut">
    <latitude>38.1255556</latitude>
    <longitude>72.2</longitude>
  </city>
  <city name="Chagam-Bolo">
    <latitude>37.8272222</latitude>
    <longitude>69.8811111</longitude>
  </city>
  <city name="Chagam">
    <latitude>37.8272222</latitude>
    <longitude>69.8811111</longitude>
  </city>
  <city name="Chagami Bolo">
    <latitude>37.8272222</latitude>
    <longitude>69.8811111</longitude>
  </city>
  <city name="Chagam-Kukabulok">
    <latitude>38.2833333</latitude>
    <longitude>68.5833333</longitude>
  </city>
  <city name="Chagammiyëna">
    <latitude>37.8272222</latitude>
    <longitude>69.8811111</longitude>
  </city>
  <city name="Chagatoy">
    <latitude>38.6222222</latitude>
    <longitude>68.6122222</longitude>
  </city>
  <city name="Chagen">
    <latitude>38.4</latitude>
    <longitude>68.8333333</longitude>
  </city>
  <city name="Chakadam-Bulak">
    <latitude>40.4833333</latitude>
    <longitude>69.85</longitude>
  </city>
  <city name="Chakali">
    <latitude>38.4941667</latitude>
    <longitude>69.3336111</longitude>
  </city>
  <city name="Chalata">
    <latitude>40.6666667</latitude>
    <longitude>69.5</longitude>
  </city>
  <city name="Chalayev">
    <latitude>38.5319444</latitude>
    <longitude>68.8238889</longitude>
  </city>
  <city name="Chal">
    <latitude>37.9255556</latitude>
    <longitude>69.1566667</longitude>
  </city>
  <city name="Chalchal">
    <latitude>38.3761111</latitude>
    <longitude>69.2027778</longitude>
  </city>
  <city name="Chalchit">
    <latitude>38.56</latitude>
    <longitude>69.1488889</longitude>
  </city>
  <city name="Chali-Char-Chashma">
    <latitude>37.3</latitude>
    <longitude>68.0333333</longitude>
  </city>
  <city name="Chaltau">
    <latitude>37.9255556</latitude>
    <longitude>69.1566667</longitude>
  </city>
  <city name="Chamanistan">
    <latitude>38.5433333</latitude>
    <longitude>68.5933333</longitude>
  </city>
  <city name="Changa">
    <latitude>39.5230556</latitude>
    <longitude>67.5030556</longitude>
  </city>
  <city name="Changal">
    <latitude>39.5230556</latitude>
    <longitude>67.5030556</longitude>
  </city>
  <city name="Changob">
    <latitude>38.6444444</latitude>
    <longitude>68.5758333</longitude>
  </city>
  <city name="Changon">
    <latitude>38.6333333</latitude>
    <longitude>70.1666667</longitude>
  </city>
  <city name="Changou">
    <latitude>38.6444444</latitude>
    <longitude>68.5758333</longitude>
  </city>
  <city name="Chapaevskiy">
    <latitude>38.4083333</latitude>
    <longitude>68.1333333</longitude>
  </city>
  <city name="Chapali">
    <latitude>38.4941667</latitude>
    <longitude>69.3336111</longitude>
  </city>
  <city name="Chapary">
    <latitude>37.4666667</latitude>
    <longitude>68.1666667</longitude>
  </city>
  <city name="Chapayevskiy">
    <latitude>38.4083333</latitude>
    <longitude>68.1333333</longitude>
  </city>
  <city name="Chap">
    <latitude>37.9255556</latitude>
    <longitude>69.1566667</longitude>
  </city>
  <city name="Charbak">
    <latitude>39.4333333</latitude>
    <longitude>67.7666667</longitude>
  </city>
  <city name="Char">
    <latitude>40.0666667</latitude>
    <longitude>70.6166667</longitude>
  </city>
  <city name="Chargi-Poën">
    <latitude>38.1283333</latitude>
    <longitude>70.0741667</longitude>
  </city>
  <city name="Char-Gul'">
    <latitude>38.2475</latitude>
    <longitude>68.9705556</longitude>
  </city>
  <city name="Charmogz">
    <latitude>38.6983333</latitude>
    <longitude>69.6761111</longitude>
  </city>
  <city name="Charsem">
    <latitude>37.7177778</latitude>
    <longitude>72.1608333</longitude>
  </city>
  <city name="Charshambe">
    <latitude>37.3105556</latitude>
    <longitude>68.1302778</longitude>
  </city>
  <city name="Charshma">
    <latitude>37.3333333</latitude>
    <longitude>68.1833333</longitude>
  </city>
  <city name="Charsim">
    <latitude>37.7177778</latitude>
    <longitude>72.1608333</longitude>
  </city>
  <city name="Chartak">
    <latitude>38.5197222</latitude>
    <longitude>68.1444444</longitude>
  </city>
  <city name="Chartog">
    <latitude>38.5275</latitude>
    <longitude>68.7233333</longitude>
  </city>
  <city name="Chartöm">
    <latitude>37.7177778</latitude>
    <longitude>72.1608333</longitude>
  </city>
  <city name="Chartym">
    <latitude>37.7177778</latitude>
    <longitude>72.1608333</longitude>
  </city>
  <city name="Chashma">
    <latitude>39.45</latitude>
    <longitude>68.4333333</longitude>
  </city>
  <city name="Chashmaiborozi">
    <latitude>38.6441667</latitude>
    <longitude>68.5408333</longitude>
  </city>
  <city name="(( Chashma-i-Dara ))">
    <latitude>37.6833333</latitude>
    <longitude>70.0</longitude>
  </city>
  <city name="Chashmaikulo">
    <latitude>38.7119444</latitude>
    <longitude>69.6286111</longitude>
  </city>
  <city name="Chashmi-Sang">
    <latitude>38.7333333</latitude>
    <longitude>68.55</longitude>
  </city>
  <city name="Chatyr-Tash">
    <latitude>37.85</latitude>
    <longitude>73.65</longitude>
  </city>
  <city name="Chavalay">
    <latitude>38.6283333</latitude>
    <longitude>68.8077778</longitude>
  </city>
  <city name="Chavlibay">
    <latitude>38.5669444</latitude>
    <longitude>68.7086111</longitude>
  </city>
  <city name="Chavlyay">
    <latitude>38.6283333</latitude>
    <longitude>68.8077778</longitude>
  </city>
  <city name="Chavrok">
    <latitude>38.3066667</latitude>
    <longitude>69.5419444</longitude>
  </city>
  <city name="Chavshangoz">
    <latitude>37.3591667</latitude>
    <longitude>72.4480556</longitude>
  </city>
  <city name="Chaynak">
    <latitude>38.5311111</latitude>
    <longitude>68.6927778</longitude>
  </city>
  <city name="Chaynakichinor">
    <latitude>38.5311111</latitude>
    <longitude>68.6927778</longitude>
  </city>
  <city name="Chayra-Koran">
    <latitude>38.5747222</latitude>
    <longitude>68.6925</longitude>
  </city>
  <city name="Chechekti">
    <latitude>38.3358333</latitude>
    <longitude>74.0136111</longitude>
  </city>
  <city name="Chechekty">
    <latitude>38.3358333</latitude>
    <longitude>74.0136111</longitude>
  </city>
  <city name="Chechka">
    <latitude>37.15</latitude>
    <longitude>69.2</longitude>
  </city>
  <city name="Chegam">
    <latitude>37.9958333</latitude>
    <longitude>69.4341667</longitude>
  </city>
  <city name="Chek-Mazar">
    <latitude>38.5119444</latitude>
    <longitude>68.9563889</longitude>
  </city>
  <city name="Chekurak">
    <latitude>38.3894444</latitude>
    <longitude>69.9991667</longitude>
  </city>
  <city name="Chepsoli">
    <latitude>38.4502778</latitude>
    <longitude>69.1263889</longitude>
  </city>
  <city name="Cheptura">
    <latitude>38.5736111</latitude>
    <longitude>68.3330556</longitude>
  </city>
  <city name="Chepturai-Bolo">
    <latitude>38.6033333</latitude>
    <longitude>68.5608333</longitude>
  </city>
  <city name="Cherdara">
    <latitude>37.7519444</latitude>
    <longitude>69.7716667</longitude>
  </city>
  <city name="Cheresh-Tepa">
    <latitude>38.4869444</latitude>
    <longitude>68.2333333</longitude>
  </city>
  <city name="Chermokhzakon">
    <latitude>38.6913889</latitude>
    <longitude>68.7436111</longitude>
  </city>
  <city name="Chertak">
    <latitude>38.5197222</latitude>
    <longitude>68.1444444</longitude>
  </city>
  <city name="Chertepa">
    <latitude>38.5166667</latitude>
    <longitude>68.75</longitude>
  </city>
  <city name="Cheshteppa">
    <latitude>37.7213889</latitude>
    <longitude>74.3583333</longitude>
  </city>
  <city name="Chesh-Tyube">
    <latitude>37.6833333</latitude>
    <longitude>74.3</longitude>
  </city>
  <city name="Chichka">
    <latitude>37.765</latitude>
    <longitude>68.8027778</longitude>
  </city>
  <city name="Chichkhar">
    <latitude>37.765</latitude>
    <longitude>68.8027778</longitude>
  </city>
  <city name="Chigim">
    <latitude>37.9958333</latitude>
    <longitude>69.4341667</longitude>
  </city>
  <city name="Chikali">
    <latitude>38.4941667</latitude>
    <longitude>69.3336111</longitude>
  </city>
  <city name="Chikhok">
    <latitude>38.5194444</latitude>
    <longitude>71.6980556</longitude>
  </city>
  <city name="Chikhokh">
    <latitude>38.5194444</latitude>
    <longitude>71.6980556</longitude>
  </city>
  <city name="Chilcha">
    <latitude>38.1794444</latitude>
    <longitude>69.5491667</longitude>
  </city>
  <city name="Childara">
    <latitude>38.7847222</latitude>
    <longitude>70.3047222</longitude>
  </city>
  <city name="Chil'dora">
    <latitude>38.7847222</latitude>
    <longitude>70.3047222</longitude>
  </city>
  <city name="Childukhtaron">
    <latitude>38.2916667</latitude>
    <longitude>70.1336111</longitude>
  </city>
  <city name="(( Chilishtak ))">
    <latitude>37.8166667</latitude>
    <longitude>70.1166667</longitude>
  </city>
  <city name="Chillamazor">
    <latitude>38.5602778</latitude>
    <longitude>69.0769444</longitude>
  </city>
  <city name="Chimarak">
    <latitude>38.5666667</latitude>
    <longitude>68.15</longitude>
  </city>
  <city name="Chimbulak">
    <latitude>38.2333333</latitude>
    <longitude>68.6833333</longitude>
  </city>
  <city name="Chimbulok">
    <latitude>38.2333333</latitude>
    <longitude>68.6833333</longitude>
  </city>
  <city name="Chimkurgan">
    <latitude>39.4925</latitude>
    <longitude>67.5080556</longitude>
  </city>
  <city name="Chim-Tepe">
    <latitude>38.4675</latitude>
    <longitude>68.725</longitude>
  </city>
  <city name="Chimteppa">
    <latitude>38.4675</latitude>
    <longitude>68.725</longitude>
  </city>
  <city name="Chimul'dy">
    <latitude>38.2</latitude>
    <longitude>69.6666667</longitude>
  </city>
  <city name="Chimul'dyk">
    <latitude>38.2</latitude>
    <longitude>69.6666667</longitude>
  </city>
  <city name="Chinarak">
    <latitude>38.5666667</latitude>
    <longitude>68.15</longitude>
  </city>
  <city name="Chinara-Sukhta">
    <latitude>38.3666667</latitude>
    <longitude>68.4833333</longitude>
  </city>
  <city name="Chinar">
    <latitude>37.2894444</latitude>
    <longitude>68.1344444</longitude>
  </city>
  <city name="Chinartu">
    <latitude>38.2333333</latitude>
    <longitude>68.6</longitude>
  </city>
  <city name="Chindara">
    <latitude>38.6380556</latitude>
    <longitude>68.5722222</longitude>
  </city>
  <city name="Chingirov">
    <latitude>38.36</latitude>
    <longitude>68.34</longitude>
  </city>
  <city name="Chinor">
    <latitude>37.9683333</latitude>
    <longitude>69.7541667</longitude>
  </city>
  <city name="Chirakon">
    <latitude>38.3666667</latitude>
    <longitude>69.0833333</longitude>
  </city>
  <city name="Chiray">
    <latitude>39.7166667</latitude>
    <longitude>68.9</longitude>
  </city>
  <city name="Chirik">
    <latitude>37.2183333</latitude>
    <longitude>68.1941667</longitude>
  </city>
  <city name="Chirish-Tepe">
    <latitude>38.4869444</latitude>
    <longitude>68.2333333</longitude>
  </city>
  <city name="Chirishteppa">
    <latitude>38.4869444</latitude>
    <longitude>68.2333333</longitude>
  </city>
  <city name="Chirkent">
    <latitude>38.6305556</latitude>
    <longitude>68.2255556</longitude>
  </city>
  <city name="Chirtak">
    <latitude>38.5197222</latitude>
    <longitude>68.1444444</longitude>
  </city>
  <city name="Chishun">
    <latitude>38.65</latitude>
    <longitude>70.8666667</longitude>
  </city>
  <city name="Chkalov">
    <latitude>40.1986111</latitude>
    <longitude>69.81</longitude>
  </city>
  <city name="Chkalovsk">
    <latitude>40.1986111</latitude>
    <longitude>69.81</longitude>
  </city>
  <city name="Chkalovskiy">
    <latitude>40.1986111</latitude>
    <longitude>69.81</longitude>
  </city>
  <city name="Chokhtemir">
    <latitude>37.9641667</latitude>
    <longitude>69.7913889</longitude>
  </city>
  <city name="Chol">
    <latitude>37.9538889</latitude>
    <longitude>69.6666667</longitude>
  </city>
  <city name="Cholon">
    <latitude>38.2366667</latitude>
    <longitude>69.7775</longitude>
  </city>
  <city name="Cholsartez">
    <latitude>37.9538889</latitude>
    <longitude>69.6666667</longitude>
  </city>
  <city name="Choltau">
    <latitude>37.9255556</latitude>
    <longitude>69.1566667</longitude>
  </city>
  <city name="Choltosh">
    <latitude>38.1638889</latitude>
    <longitude>69.7866667</longitude>
  </city>
  <city name="Chonar">
    <latitude>37.2894444</latitude>
    <longitude>68.1344444</longitude>
  </city>
  <city name="Chorbag">
    <latitude>38.66</latitude>
    <longitude>68.7555556</longitude>
  </city>
  <city name="Chorbog">
    <latitude>37.4166667</latitude>
    <longitude>68.2</longitude>
  </city>
  <city name="Chorbok">
    <latitude>39.4333333</latitude>
    <longitude>67.7666667</longitude>
  </city>
  <city name="Chor">
    <latitude>40.0666667</latitude>
    <longitude>70.6166667</longitude>
  </city>
  <city name="Chore">
    <latitude>39.3069444</latitude>
    <longitude>68.5094444</longitude>
  </city>
  <city name="Chorgul'">
    <latitude>37.6386111</latitude>
    <longitude>69.4052778</longitude>
  </city>
  <city name="Chorgul">
    <latitude>38.2475</latitude>
    <longitude>68.9705556</longitude>
  </city>
  <city name="Chormagzak">
    <latitude>38.4213889</latitude>
    <longitude>69.1805556</longitude>
  </city>
  <city name="Chormagz">
    <latitude>38.6983333</latitude>
    <longitude>69.6761111</longitude>
  </city>
  <city name="Chor-Makh-Zakon">
    <latitude>38.6913889</latitude>
    <longitude>68.7436111</longitude>
  </city>
  <city name="Chormakhziaka">
    <latitude>38.4213889</latitude>
    <longitude>69.1805556</longitude>
  </city>
  <city name="Chormargzakon">
    <latitude>38.6913889</latitude>
    <longitude>68.7436111</longitude>
  </city>
  <city name="Chor-Raga">
    <latitude>39.1333333</latitude>
    <longitude>67.8166667</longitude>
  </city>
  <city name="Chorroha-Deyron">
    <latitude>40.3969444</latitude>
    <longitude>69.6686111</longitude>
  </city>
  <city name="(( Chorsay ))">
    <latitude>37.9666667</latitude>
    <longitude>69.85</longitude>
  </city>
  <city name="Chorshanbe">
    <latitude>37.3105556</latitude>
    <longitude>68.1302778</longitude>
  </city>
  <city name="Chorteppa">
    <latitude>38.4675</latitude>
    <longitude>68.725</longitude>
  </city>
  <city name="Chortut">
    <latitude>38.5275</latitude>
    <longitude>68.7233333</longitude>
  </city>
  <city name="Chortut-Poyen">
    <latitude>38.5255556</latitude>
    <longitude>68.7088889</longitude>
  </city>
  <city name="Chortut-Surkh">
    <latitude>38.5</latitude>
    <longitude>68.7333333</longitude>
  </city>
  <city name="Chorukh-Dayron">
    <latitude>40.3969444</latitude>
    <longitude>69.6686111</longitude>
  </city>
  <city name="Chorvodoron">
    <latitude>37.7497222</latitude>
    <longitude>69.4844444</longitude>
  </city>
  <city name="Chor'yakkordara">
    <latitude>38.5747222</latitude>
    <longitude>68.6925</longitude>
  </city>
  <city name="Choryakkoron">
    <latitude>38.5747222</latitude>
    <longitude>68.6925</longitude>
  </city>
  <city name="Chosk">
    <latitude>37.8333333</latitude>
    <longitude>70.2333333</longitude>
  </city>
  <city name="Chubek">
    <latitude>37.6127778</latitude>
    <longitude>69.7061111</longitude>
  </city>
  <city name="Chuchu">
    <latitude>38.3636111</latitude>
    <longitude>68.9305556</longitude>
  </city>
  <city name="Chugarak">
    <latitude>38.75</latitude>
    <longitude>70.6166667</longitude>
  </city>
  <city name="Chugorak">
    <latitude>38.75</latitude>
    <longitude>70.6166667</longitude>
  </city>
  <city name="Chukhok">
    <latitude>38.5194444</latitude>
    <longitude>71.6980556</longitude>
  </city>
  <city name="Chukmazor">
    <latitude>38.5119444</latitude>
    <longitude>68.9563889</longitude>
  </city>
  <city name="Chukurak">
    <latitude>37.8680556</latitude>
    <longitude>69.5691667</longitude>
  </city>
  <city name="Chukuraki-Bolo">
    <latitude>38.5391667</latitude>
    <longitude>68.5</longitude>
  </city>
  <city name="Chukur">
    <latitude>38.45</latitude>
    <longitude>68.1333333</longitude>
  </city>
  <city name="Chukurdolon">
    <latitude>38.4388889</latitude>
    <longitude>68.3338889</longitude>
  </city>
  <city name="Chumdon">
    <latitude>38.8975</latitude>
    <longitude>70.1361111</longitude>
  </city>
  <city name="Chuponabad">
    <latitude>38.0777778</latitude>
    <longitude>68.9288889</longitude>
  </city>
  <city name="Chuqurak">
    <latitude>38.5347222</latitude>
    <longitude>69.3777778</longitude>
  </city>
  <city name="Chur-Kishlak">
    <latitude>38.4</latitude>
    <longitude>68.4166667</longitude>
  </city>
  <city name="Churk-Kishlak">
    <latitude>38.4</latitude>
    <longitude>68.4166667</longitude>
  </city>
  <city name="Chuyanchi">
    <latitude>37.1730556</latitude>
    <longitude>68.1377778</longitude>
  </city>
  <city name="Chuyanchy">
    <latitude>37.1730556</latitude>
    <longitude>68.1377778</longitude>
  </city>
  <city name="Chuzii-Bolo">
    <latitude>38.5663889</latitude>
    <longitude>68.4161111</longitude>
  </city>
  <city name="Chuzy">
    <latitude>38.5663889</latitude>
    <longitude>68.4161111</longitude>
  </city>
  <city name="Daane">
    <latitude>40.6333333</latitude>
    <longitude>70.2666667</longitude>
  </city>
  <city name="Dadozí">
    <latitude>38.6283333</latitude>
    <longitude>68.6161111</longitude>
  </city>
  <city name="Dagana-Chinar">
    <latitude>38.0586111</latitude>
    <longitude>69.8638889</longitude>
  </city>
  <city name="Dagana">
    <latitude>37.5969444</latitude>
    <longitude>69.7875</longitude>
  </city>
  <city name="Dagana-Kiik">
    <latitude>38.1911111</latitude>
    <longitude>68.6477778</longitude>
  </city>
  <city name="Dagiston">
    <latitude>37.9202778</latitude>
    <longitude>70.0225</longitude>
  </city>
  <city name="Dahana">
    <latitude>38.0586111</latitude>
    <longitude>69.8638889</longitude>
  </city>
  <city name="Dahanakiik">
    <latitude>38.1911111</latitude>
    <longitude>68.6477778</longitude>
  </city>
  <city name="Dakhana">
    <latitude>37.5969444</latitude>
    <longitude>69.7875</longitude>
  </city>
  <city name="Dakhanakiik">
    <latitude>38.1911111</latitude>
    <longitude>68.6477778</longitude>
  </city>
  <city name="Dakhkan">
    <latitude>39.7063889</latitude>
    <longitude>69.2533333</longitude>
  </city>
  <city name="Dakhkat">
    <latitude>39.7063889</latitude>
    <longitude>69.2533333</longitude>
  </city>
  <city name="Dakhyak">
    <latitude>39.8055556</latitude>
    <longitude>68.9855556</longitude>
  </city>
  <city name="Dakki">
    <latitude>37.3252778</latitude>
    <longitude>68.1888889</longitude>
  </city>
  <city name="Dakky">
    <latitude>37.3252778</latitude>
    <longitude>68.1888889</longitude>
  </city>
  <city name="Dalan">
    <latitude>38.4388889</latitude>
    <longitude>68.3338889</longitude>
  </city>
  <city name="Daldakhuron">
    <latitude>38.3508333</latitude>
    <longitude>69.1991667</longitude>
  </city>
  <city name="Dal'neye">
    <latitude>38.6166667</latitude>
    <longitude>72.1333333</longitude>
  </city>
  <city name="Dal'yan Bolo">
    <latitude>39.7422222</latitude>
    <longitude>68.9944444</longitude>
  </city>
  <city name="Dal'yan">
    <latitude>39.8</latitude>
    <longitude>69.0166667</longitude>
  </city>
  <city name="Dalyoni Bolo">
    <latitude>39.7422222</latitude>
    <longitude>68.9944444</longitude>
  </city>
  <city name="Dambu">
    <latitude>38.9833333</latitude>
    <longitude>70.35</longitude>
  </city>
  <city name="Damburacha">
    <latitude>39.2833333</latitude>
    <longitude>71.3833333</longitude>
  </city>
  <city name="Dana">
    <latitude>37.9833333</latitude>
    <longitude>71.9333333</longitude>
  </city>
  <city name="Dangara">
    <latitude>38.0963889</latitude>
    <longitude>69.3355556</longitude>
  </city>
  <city name="(( Dangara ))">
    <latitude>37.8166667</latitude>
    <longitude>69.3666667</longitude>
  </city>
  <city name="Dangar">
    <latitude>38.0963889</latitude>
    <longitude>69.3355556</longitude>
  </city>
  <city name="Danghara">
    <latitude>38.0963889</latitude>
    <longitude>69.3355556</longitude>
  </city>
  <city name="Danky">
    <latitude>37.3252778</latitude>
    <longitude>68.1888889</longitude>
  </city>
  <city name="Dara">
    <latitude>38.6886111</latitude>
    <longitude>69.0141667</longitude>
  </city>
  <city name="Daragion">
    <latitude>38.5447222</latitude>
    <longitude>69.3172222</longitude>
  </city>
  <city name="Daragizy">
    <latitude>38.5447222</latitude>
    <longitude>69.3172222</longitude>
  </city>
  <city name="Daraigusfandak">
    <latitude>38.6483333</latitude>
    <longitude>69.5022222</longitude>
  </city>
  <city name="Darai Gusfondok">
    <latitude>38.6483333</latitude>
    <longitude>69.5022222</longitude>
  </city>
  <city name="Darai-Guspandak">
    <latitude>38.6483333</latitude>
    <longitude>69.5022222</longitude>
  </city>
  <city name="Daraikhavash">
    <latitude>37.9883333</latitude>
    <longitude>69.9744444</longitude>
  </city>
  <city name="Darai Khayron">
    <latitude>38.8222222</latitude>
    <longitude>70.8733333</longitude>
  </city>
  <city name="Daraikolot">
    <latitude>37.6838889</latitude>
    <longitude>69.59</longitude>
  </city>
  <city name="Daraiob">
    <latitude>37.8613889</latitude>
    <longitude>70.0183333</longitude>
  </city>
  <city name="Daraishoyëni">
    <latitude>38.3380556</latitude>
    <longitude>69.5866667</longitude>
  </city>
  <city name="Daraishoyoni">
    <latitude>38.3380556</latitude>
    <longitude>69.5866667</longitude>
  </city>
  <city name="Dara-Khurdak">
    <latitude>38.4333333</latitude>
    <longitude>70.0166667</longitude>
  </city>
  <city name="Daran-Kolot">
    <latitude>37.6838889</latitude>
    <longitude>69.59</longitude>
  </city>
  <city name="Daray-Chokor">
    <latitude>38.4166667</latitude>
    <longitude>69.8666667</longitude>
  </city>
  <city name="Darayimom">
    <latitude>37.9202778</latitude>
    <longitude>70.0225</longitude>
  </city>
  <city name="Dardar">
    <latitude>39.4430556</latitude>
    <longitude>68.445</longitude>
  </city>
  <city name="Dardzhomts">
    <latitude>38.1238889</latitude>
    <longitude>71.9458333</longitude>
  </city>
  <city name="Darg">
    <latitude>39.3527778</latitude>
    <longitude>68.9847222</longitude>
  </city>
  <city name="Darjomch">
    <latitude>38.1238889</latitude>
    <longitude>71.9458333</longitude>
  </city>
  <city name="Darkad">
    <latitude>37.4997222</latitude>
    <longitude>69.42</longitude>
  </city>
  <city name="Darkat">
    <latitude>37.4986111</latitude>
    <longitude>69.425</longitude>
  </city>
  <city name="Darnaychi">
    <latitude>37.9613889</latitude>
    <longitude>69.7319444</longitude>
  </city>
  <city name="Darozi">
    <latitude>38.6283333</latitude>
    <longitude>68.6161111</longitude>
  </city>
  <city name="Darshai">
    <latitude>36.7833333</latitude>
    <longitude>71.9833333</longitude>
  </city>
  <city name="Darshay">
    <latitude>36.7833333</latitude>
    <longitude>71.9833333</longitude>
  </city>
  <city name="Dar'yeabad">
    <latitude>38.5105556</latitude>
    <longitude>68.8291667</longitude>
  </city>
  <city name="Darzhomch">
    <latitude>38.1238889</latitude>
    <longitude>71.9458333</longitude>
  </city>
  <city name="Dash">
    <latitude>38.3166667</latitude>
    <longitude>71.6666667</longitude>
  </city>
  <city name="Dashgabad">
    <latitude>38.2213889</latitude>
    <longitude>69.0197222</longitude>
  </city>
  <city name="Dashmandy">
    <latitude>38.4480556</latitude>
    <longitude>69.7375</longitude>
  </city>
  <city name="Dashta">
    <latitude>37.3333333</latitude>
    <longitude>71.7333333</longitude>
  </city>
  <city name="Dashtag">
    <latitude>37.5247222</latitude>
    <longitude>69.335</longitude>
  </city>
  <city name="Dashtak">
    <latitude>37.3333333</latitude>
    <longitude>71.7333333</longitude>
  </city>
  <city name="Dashtamin">
    <latitude>40.1833333</latitude>
    <longitude>69.7</longitude>
  </city>
  <city name="Dasht">
    <latitude>37.7666667</latitude>
    <longitude>71.5333333</longitude>
  </city>
  <city name="Dashti-Angara">
    <latitude>38.6833333</latitude>
    <longitude>70.0666667</longitude>
  </city>
  <city name="Dashtibedi Kalon">
    <latitude>38.6041667</latitude>
    <longitude>69.1472222</longitude>
  </city>
  <city name="Dashti-Dzhum">
    <latitude>37.9380556</latitude>
    <longitude>70.1413889</longitude>
  </city>
  <city name="Dashtidzhum">
    <latitude>38.0194444</latitude>
    <longitude>70.2122222</longitude>
  </city>
  <city name="Dashtigul'kho">
    <latitude>38.4833333</latitude>
    <longitude>69.7666667</longitude>
  </city>
  <city name="Dashtigulo">
    <latitude>37.7016667</latitude>
    <longitude>69.4963889</longitude>
  </city>
  <city name="Dashtigurk">
    <latitude>38.8033333</latitude>
    <longitude>70.2211111</longitude>
  </city>
  <city name="Dashti-Jum">
    <latitude>37.9380556</latitude>
    <longitude>70.1413889</longitude>
  </city>
  <city name="Dashtijum">
    <latitude>38.0194444</latitude>
    <longitude>70.2122222</longitude>
  </city>
  <city name="Dashti-Kazy">
    <latitude>39.465</latitude>
    <longitude>68.0472222</longitude>
  </city>
  <city name="Dashti-Khirsan">
    <latitude>39.2</latitude>
    <longitude>70.4666667</longitude>
  </city>
  <city name="Dashtikozy">
    <latitude>39.465</latitude>
    <longitude>68.0472222</longitude>
  </city>
  <city name="Dashtimarzo">
    <latitude>38.6458333</latitude>
    <longitude>69.5527778</longitude>
  </city>
  <city name="Dashti-Mazar">
    <latitude>38.9619444</latitude>
    <longitude>69.3372222</longitude>
  </city>
  <city name="Dashtimazor">
    <latitude>38.9619444</latitude>
    <longitude>69.3372222</longitude>
  </city>
  <city name="Dashtimiron">
    <latitude>38.6619444</latitude>
    <longitude>68.8283333</longitude>
  </city>
  <city name="Dashti-Mirzo">
    <latitude>38.6458333</latitude>
    <longitude>69.5527778</longitude>
  </city>
  <city name="Dashtiqozy">
    <latitude>39.465</latitude>
    <longitude>68.0472222</longitude>
  </city>
  <city name="Dashti-Raz">
    <latitude>38.3333333</latitude>
    <longitude>69.4</longitude>
  </city>
  <city name="Dashtishur">
    <latitude>38.5091667</latitude>
    <longitude>68.9813889</longitude>
  </city>
  <city name="Dashtiyeri">
    <latitude>38.55</latitude>
    <longitude>69.9833333</longitude>
  </city>
  <city name="Dashtobod">
    <latitude>38.2213889</latitude>
    <longitude>69.0197222</longitude>
  </city>
  <city name="Dashty-Bet">
    <latitude>39.45</latitude>
    <longitude>68.25</longitude>
  </city>
  <city name="Dastgirak">
    <latitude>38.3647222</latitude>
    <longitude>69.0480556</longitude>
  </city>
  <city name="Dastkhuf">
    <latitude>37.85</latitude>
    <longitude>71.6</longitude>
  </city>
  <city name="Davat">
    <latitude>37.9461111</latitude>
    <longitude>69.4791667</longitude>
  </city>
  <city name="Davatkhalkayer">
    <latitude>38.1752778</latitude>
    <longitude>69.5738889</longitude>
  </city>
  <city name="Davatkhalqaer">
    <latitude>38.1752778</latitude>
    <longitude>69.5738889</longitude>
  </city>
  <city name="Davlatabad">
    <latitude>37.6402778</latitude>
    <longitude>69.5936111</longitude>
  </city>
  <city name="Davlatmanka">
    <latitude>38.5602778</latitude>
    <longitude>68.5375</longitude>
  </city>
  <city name="Davlatobod">
    <latitude>37.6113889</latitude>
    <longitude>69.4913889</longitude>
  </city>
  <city name="Davlatshoyën">
    <latitude>38.2813889</latitude>
    <longitude>69.5175</longitude>
  </city>
  <city name="Davlatshoyon">
    <latitude>38.2813889</latitude>
    <longitude>69.5175</longitude>
  </city>
  <city name="Davlyatabad">
    <latitude>37.6113889</latitude>
    <longitude>69.4913889</longitude>
  </city>
  <city name="Dayak">
    <latitude>39.8055556</latitude>
    <longitude>68.9855556</longitude>
  </city>
  <city name="Dayrabot">
    <latitude>38.5369444</latitude>
    <longitude>68.9044444</longitude>
  </city>
  <city name="Deamalik">
    <latitude>38.8525</latitude>
    <longitude>68.9130556</longitude>
  </city>
  <city name="De-Balyand">
    <latitude>38.65</latitude>
    <longitude>68.9666667</longitude>
  </city>
  <city name="Debalyan">
    <latitude>39.2</latitude>
    <longitude>69.1666667</longitude>
  </city>
  <city name="Debasta">
    <latitude>37.6833333</latitude>
    <longitude>71.85</longitude>
  </city>
  <city name="Debasty">
    <latitude>37.6833333</latitude>
    <longitude>71.85</longitude>
  </city>
  <city name="Debosta">
    <latitude>37.6833333</latitude>
    <longitude>71.85</longitude>
  </city>
  <city name="Debuvok">
    <latitude>38.5963889</latitude>
    <longitude>68.2188889</longitude>
  </city>
  <city name="Dedorazak">
    <latitude>37.8183333</latitude>
    <longitude>69.9019444</longitude>
  </city>
  <city name="Degai">
    <latitude>38.8947222</latitude>
    <longitude>69.9233333</longitude>
  </city>
  <city name="Deg-Danak">
    <latitude>38.9333333</latitude>
    <longitude>69.8333333</longitude>
  </city>
  <city name="Degez">
    <latitude>38.2355556</latitude>
    <longitude>69.9852778</longitude>
  </city>
  <city name="Degi-Kham">
    <latitude>38.3833333</latitude>
    <longitude>69.65</longitude>
  </city>
  <city name="Degi-Mulla">
    <latitude>38.8833333</latitude>
    <longitude>70.45</longitude>
  </city>
  <city name="Degmyur">
    <latitude>38.2208333</latitude>
    <longitude>69.7905556</longitude>
  </city>
  <city name="Degrez">
    <latitude>38.2355556</latitude>
    <longitude>69.9852778</longitude>
  </city>
  <city name="Degtyur">
    <latitude>38.2208333</latitude>
    <longitude>69.7905556</longitude>
  </city>
  <city name="Dehai Baland">
    <latitude>38.8847222</latitude>
    <longitude>69.8511111</longitude>
  </city>
  <city name="Dehikung">
    <latitude>38.9116667</latitude>
    <longitude>69.5980556</longitude>
  </city>
  <city name="Dehishur">
    <latitude>38.3719444</latitude>
    <longitude>69.9688889</longitude>
  </city>
  <city name="Dehmalik">
    <latitude>38.8525</latitude>
    <longitude>68.9130556</longitude>
  </city>
  <city name="Dehqonobod">
    <latitude>37.5922222</latitude>
    <longitude>69.3686111</longitude>
  </city>
  <city name="Deishur">
    <latitude>38.3719444</latitude>
    <longitude>69.9688889</longitude>
  </city>
  <city name="Dek-Donak">
    <latitude>38.9333333</latitude>
    <longitude>69.8333333</longitude>
  </city>
  <city name="Dekhaibaland">
    <latitude>38.8847222</latitude>
    <longitude>69.8511111</longitude>
  </city>
  <city name="Dekhamalik">
    <latitude>38.8525</latitude>
    <longitude>68.9130556</longitude>
  </city>
  <city name="Dekh">
    <latitude>38.0572222</latitude>
    <longitude>71.3258333</longitude>
  </city>
  <city name="Dekhikung">
    <latitude>38.9116667</latitude>
    <longitude>69.5980556</longitude>
  </city>
  <city name="Dekhi-Poyen">
    <latitude>39.2333333</latitude>
    <longitude>70.2</longitude>
  </city>
  <city name="Dekhkanabad">
    <latitude>37.5922222</latitude>
    <longitude>69.3686111</longitude>
  </city>
  <city name="Dekhkonabad">
    <latitude>37.5922222</latitude>
    <longitude>69.3686111</longitude>
  </city>
  <city name="Dektur">
    <latitude>38.2208333</latitude>
    <longitude>69.7905556</longitude>
  </city>
  <city name="Delolo">
    <latitude>38.1213889</latitude>
    <longitude>70.0297222</longitude>
  </city>
  <city name="Demiya">
    <latitude>38.4880556</latitude>
    <longitude>69.4977778</longitude>
  </city>
  <city name="Demnora">
    <latitude>39.4333333</latitude>
    <longitude>69.8666667</longitude>
  </city>
  <city name="Denau">
    <latitude>39.6833333</latitude>
    <longitude>69.35</longitude>
  </city>
  <city name="Depir">
    <latitude>38.7847222</latitude>
    <longitude>69.4327778</longitude>
  </city>
  <city name="Derde">
    <latitude>37.85</latitude>
    <longitude>71.65</longitude>
  </city>
  <city name="Deu">
    <latitude>38.5058333</latitude>
    <longitude>70.7958333</longitude>
  </city>
  <city name="Devak">
    <latitude>38.5963889</latitude>
    <longitude>68.2188889</longitude>
  </city>
  <city name="Devdor">
    <latitude>37.8041667</latitude>
    <longitude>69.9794444</longitude>
  </city>
  <city name="Devlekh">
    <latitude>37.9</latitude>
    <longitude>71.75</longitude>
  </city>
  <city name="Devona">
    <latitude>38.2</latitude>
    <longitude>69.5666667</longitude>
  </city>
  <city name="Devona-Khoja">
    <latitude>38.1077778</latitude>
    <longitude>69.8452778</longitude>
  </city>
  <city name="Devsiar">
    <latitude>39.1166667</latitude>
    <longitude>71.5833333</longitude>
  </city>
  <city name="(( Deyli ))">
    <latitude>37.9</latitude>
    <longitude>69.6666667</longitude>
  </city>
  <city name="Diamalik">
    <latitude>38.8525</latitude>
    <longitude>68.9130556</longitude>
  </city>
  <city name="Dibarazak">
    <latitude>37.8183333</latitude>
    <longitude>69.9019444</longitude>
  </city>
  <city name="Diburea">
    <latitude>39.2930556</latitude>
    <longitude>70.2830556</longitude>
  </city>
  <city name="Dich">
    <latitude>38.55</latitude>
    <longitude>71.7</longitude>
  </city>
  <city name="Didegi-Poen">
    <latitude>39.2333333</latitude>
    <longitude>70.2</longitude>
  </city>
  <city name="Didegi-Poyen">
    <latitude>39.2333333</latitude>
    <longitude>70.2</longitude>
  </city>
  <city name="Didengi-Poyën">
    <latitude>39.2333333</latitude>
    <longitude>70.2</longitude>
  </city>
  <city name="Difat">
    <latitude>38.3666667</latitude>
    <longitude>69.7333333</longitude>
  </city>
  <city name="Dikhasar">
    <latitude>39.45</latitude>
    <longitude>70.2333333</longitude>
  </city>
  <city name="Dikhesar">
    <latitude>39.45</latitude>
    <longitude>70.2333333</longitude>
  </city>
  <city name="Dikhisor">
    <latitude>39.45</latitude>
    <longitude>70.2333333</longitude>
  </city>
  <city name="Dilya">
    <latitude>37.9</latitude>
    <longitude>69.6666667</longitude>
  </city>
  <city name="Dinau">
    <latitude>39.6833333</latitude>
    <longitude>69.35</longitude>
  </city>
  <city name="Diuchy">
    <latitude>39.3166667</latitude>
    <longitude>70.7666667</longitude>
  </city>
  <city name="Divana-Khodzha">
    <latitude>38.1077778</latitude>
    <longitude>69.8452778</longitude>
  </city>
  <city name="Divdar-Bole">
    <latitude>37.8041667</latitude>
    <longitude>69.9794444</longitude>
  </city>
  <city name="Divdor-Bolo">
    <latitude>37.8041667</latitude>
    <longitude>69.9794444</longitude>
  </city>
  <city name="Divlyakh">
    <latitude>38.7833333</latitude>
    <longitude>70.85</longitude>
  </city>
  <city name="Dizhik">
    <latitude>39.1322222</latitude>
    <longitude>68.4269444</longitude>
  </city>
  <city name="Djilianda">
    <latitude>37.5761111</latitude>
    <longitude>72.5927778</longitude>
  </city>
  <city name="Djuschambe">
    <latitude>38.56</latitude>
    <longitude>68.7738889</longitude>
  </city>
  <city name="Dobrovolcheskiy">
    <latitude>37.2969444</latitude>
    <longitude>68.6552778</longitude>
  </city>
  <city name="Dodrazak">
    <latitude>37.8183333</latitude>
    <longitude>69.9019444</longitude>
  </city>
  <city name="Dogana">
    <latitude>38.1911111</latitude>
    <longitude>68.6477778</longitude>
  </city>
  <city name="Dokdonak">
    <latitude>38.9333333</latitude>
    <longitude>69.8333333</longitude>
  </city>
  <city name="Dokhashi">
    <latitude>38.0333333</latitude>
    <longitude>71.8333333</longitude>
  </city>
  <city name="Dokki">
    <latitude>37.3252778</latitude>
    <longitude>68.1888889</longitude>
  </city>
  <city name="Dolonsoy">
    <latitude>38.4672222</latitude>
    <longitude>68.2683333</longitude>
  </city>
  <city name="Dolony">
    <latitude>40.6166667</latitude>
    <longitude>70.0333333</longitude>
  </city>
  <city name="Dombrachi">
    <latitude>39.2833333</latitude>
    <longitude>71.3833333</longitude>
  </city>
  <city name="Domburachi">
    <latitude>39.2833333</latitude>
    <longitude>71.3833333</longitude>
  </city>
  <city name="Dong">
    <latitude>37.5563889</latitude>
    <longitude>69.3508333</longitude>
  </city>
  <city name="Donguz-Ul'dy">
    <latitude>38.4333333</latitude>
    <longitude>68.8166667</longitude>
  </city>
  <city name="Doobva">
    <latitude>38.6186111</latitude>
    <longitude>68.9255556</longitude>
  </city>
  <city name="Dorobi">
    <latitude>38.3280556</latitude>
    <longitude>69.9308333</longitude>
  </city>
  <city name="Doroby">
    <latitude>38.3280556</latitude>
    <longitude>69.9308333</longitude>
  </city>
  <city name="Dosheton">
    <latitude>37.9116667</latitude>
    <longitude>70.0186111</longitude>
  </city>
  <city name="Doshmandv">
    <latitude>38.4480556</latitude>
    <longitude>69.7375</longitude>
  </city>
  <city name="Doshmandy">
    <latitude>38.4480556</latitude>
    <longitude>69.7375</longitude>
  </city>
  <city name="Doshtak">
    <latitude>38.4605556</latitude>
    <longitude>70.775</longitude>
  </city>
  <city name="Dovdorbolo">
    <latitude>37.8041667</latitude>
    <longitude>69.9794444</longitude>
  </city>
  <city name="Dragomirovo">
    <latitude>40.1686111</latitude>
    <longitude>69.5083333</longitude>
  </city>
  <city name="Drobak">
    <latitude>38.4163889</latitude>
    <longitude>70.6822222</longitude>
  </city>
  <city name="Drovak">
    <latitude>38.4163889</latitude>
    <longitude>70.6822222</longitude>
  </city>
  <city name="Druzhba">
    <latitude>37.74</latitude>
    <longitude>69.5827778</longitude>
  </city>
  <city name="Dshafak">
    <latitude>38.3333333</latitude>
    <longitude>71.6833333</longitude>
  </city>
  <city name="Dubeda">
    <latitude>38.57</latitude>
    <longitude>69.3786111</longitude>
  </city>
  <city name="Dubova">
    <latitude>38.6186111</latitude>
    <longitude>68.9255556</longitude>
  </city>
  <city name="Dubursa">
    <latitude>39.2930556</latitude>
    <longitude>70.2830556</longitude>
  </city>
  <city name="Duchinora">
    <latitude>38.5761111</latitude>
    <longitude>68.5622222</longitude>
  </city>
  <city name="Duchinor">
    <latitude>38.5761111</latitude>
    <longitude>68.5622222</longitude>
  </city>
  <city name="Dulona">
    <latitude>40.6166667</latitude>
    <longitude>70.0333333</longitude>
  </city>
  <city name="Du-Oba">
    <latitude>39.1833333</latitude>
    <longitude>70.6333333</longitude>
  </city>
  <city name="Dupuli">
    <latitude>39.4647222</latitude>
    <longitude>67.8455556</longitude>
  </city>
  <city name="Durbat">
    <latitude>38.5286111</latitude>
    <longitude>68.6361111</longitude>
  </city>
  <city name="Durbent">
    <latitude>38.5333333</latitude>
    <longitude>68.25</longitude>
  </city>
  <city name="Durmanbulok">
    <latitude>38.4305556</latitude>
    <longitude>68.3911111</longitude>
  </city>
  <city name="Durman">
    <latitude>38.45</latitude>
    <longitude>68.2166667</longitude>
  </city>
  <city name="Durmonbuloq">
    <latitude>38.4305556</latitude>
    <longitude>68.3911111</longitude>
  </city>
  <city name="Dursher">
    <latitude>38.5791667</latitude>
    <longitude>71.7872222</longitude>
  </city>
  <city name="Durvak">
    <latitude>38.4163889</latitude>
    <longitude>70.6822222</longitude>
  </city>
  <city name="Dushakhokogak">
    <latitude>38.8833333</latitude>
    <longitude>70.4333333</longitude>
  </city>
  <city name="Dushambe">
    <latitude>38.56</latitude>
    <longitude>68.7738889</longitude>
  </city>
  <city name="Dushanbe">
    <latitude>38.56</latitude>
    <longitude>68.7738889</longitude>
  </city>
  <city name="Dusman-Tyube">
    <latitude>37.7333333</latitude>
    <longitude>68.6</longitude>
  </city>
  <city name="Dusti">
    <latitude>37.3486111</latitude>
    <longitude>68.6733333</longitude>
  </city>
  <city name="Dusty">
    <latitude>37.3486111</latitude>
    <longitude>68.6733333</longitude>
  </city>
  <city name="Duvana">
    <latitude>39.35</latitude>
    <longitude>71.5666667</longitude>
  </city>
  <city name="Duvona">
    <latitude>39.35</latitude>
    <longitude>71.5666667</longitude>
  </city>
  <city name="Duzakh-Dara">
    <latitude>37.7</latitude>
    <longitude>72.4166667</longitude>
  </city>
  <city name="Dvadtsat' Vtorogo Parts''yezd">
    <latitude>38.5286111</latitude>
    <longitude>68.7797222</longitude>
  </city>
  <city name="Dvamalik">
    <latitude>38.8525</latitude>
    <longitude>68.9130556</longitude>
  </city>
  <city name="Dyurak">
    <latitude>38.0833333</latitude>
    <longitude>68.5</longitude>
  </city>
  <city name="Dyurbat">
    <latitude>38.5286111</latitude>
    <longitude>68.6361111</longitude>
  </city>
  <city name="Dyushambe">
    <latitude>38.56</latitude>
    <longitude>68.7738889</longitude>
  </city>
  <city name="Dyushana">
    <latitude>38.7</latitude>
    <longitude>68.4166667</longitude>
  </city>
  <city name="Dzhafak">
    <latitude>38.3333333</latitude>
    <longitude>71.6833333</longitude>
  </city>
  <city name="Dzhag">
    <latitude>38.2375</latitude>
    <longitude>70.5355556</longitude>
  </city>
  <city name="Dzhagumarag">
    <latitude>38.2375</latitude>
    <longitude>70.5355556</longitude>
  </city>
  <city name="Dzhailgan">
    <latitude>39.3041667</latitude>
    <longitude>71.5255556</longitude>
  </city>
  <city name="Dzhairaly">
    <latitude>37.5686111</latitude>
    <longitude>69.4827778</longitude>
  </city>
  <city name="Dzhake-Dzhan">
    <latitude>37.25</latitude>
    <longitude>72.2166667</longitude>
  </city>
  <city name="Dzhal-Ak-Dzhar">
    <latitude>39.45</latitude>
    <longitude>67.5166667</longitude>
  </city>
  <city name="Dzhalandar">
    <latitude>38.645</latitude>
    <longitude>68.8277778</longitude>
  </city>
  <city name="(( Dzhalavli ))">
    <latitude>37.7</latitude>
    <longitude>69.85</longitude>
  </city>
  <city name="Dzhalbuzy">
    <latitude>37.7297222</latitude>
    <longitude>69.3847222</longitude>
  </city>
  <city name="Dzhaldzhit">
    <latitude>38.56</latitude>
    <longitude>69.1488889</longitude>
  </city>
  <city name="Dzhaltr-Tepe">
    <latitude>38.3666667</latitude>
    <longitude>68.6333333</longitude>
  </city>
  <city name="Dzhaltyrtepa">
    <latitude>38.3666667</latitude>
    <longitude>68.6333333</longitude>
  </city>
  <city name="Dzhaltyrtepe">
    <latitude>38.3666667</latitude>
    <longitude>68.6333333</longitude>
  </city>
  <city name="Dzhalyak-Bulak">
    <latitude>38.4166667</latitude>
    <longitude>68.9333333</longitude>
  </city>
  <city name="Dzhamak">
    <latitude>38.2780556</latitude>
    <longitude>71.5758333</longitude>
  </city>
  <city name="Dzhamanguli">
    <latitude>38.2833333</latitude>
    <longitude>69.5</longitude>
  </city>
  <city name="Dzhamiyat-Dekhan">
    <latitude>37.1158333</latitude>
    <longitude>68.1063889</longitude>
  </city>
  <city name="Dzhamogulion">
    <latitude>38.2833333</latitude>
    <longitude>69.5</longitude>
  </city>
  <city name="Dzhanadzhan">
    <latitude>37.25</latitude>
    <longitude>72.2166667</longitude>
  </city>
  <city name="Dzhana-Kishlak">
    <latitude>38.5</latitude>
    <longitude>68.4833333</longitude>
  </city>
  <city name="Dzhanbulak">
    <latitude>39.3833333</latitude>
    <longitude>67.6666667</longitude>
  </city>
  <city name="Dzhangalabad">
    <latitude>38.5291667</latitude>
    <longitude>68.9197222</longitude>
  </city>
  <city name="Dzhangalda">
    <latitude>38.6833333</latitude>
    <longitude>68.7833333</longitude>
  </city>
  <city name="Dzhangal'">
    <latitude>38.4166667</latitude>
    <longitude>71.5</longitude>
  </city>
  <city name="Dzhangyaul">
    <latitude>40.0833333</latitude>
    <longitude>69.5333333</longitude>
  </city>
  <city name="Dzhantokli">
    <latitude>38.1569444</latitude>
    <longitude>69.5802778</longitude>
  </city>
  <city name="Dzharapkul'">
    <latitude>37.9616667</latitude>
    <longitude>69.4825</longitude>
  </city>
  <city name="Dzharboshi">
    <latitude>38.5388889</latitude>
    <longitude>68.985</longitude>
  </city>
  <city name="Dzhar-Bulak">
    <latitude>38.4813889</latitude>
    <longitude>68.3936111</longitude>
  </city>
  <city name="Dzharbulok">
    <latitude>37.8736111</latitude>
    <longitude>69.3638889</longitude>
  </city>
  <city name="Dzharchëb">
    <latitude>37.9836111</latitude>
    <longitude>69.9075</longitude>
  </city>
  <city name="Dzharf">
    <latitude>38.4844444</latitude>
    <longitude>70.9613889</longitude>
  </city>
  <city name="Dzharipkul'">
    <latitude>37.9616667</latitude>
    <longitude>69.4825</longitude>
  </city>
  <city name="Dzharkurgan">
    <latitude>37.2022222</latitude>
    <longitude>68.2144444</longitude>
  </city>
  <city name="Dzharkutan">
    <latitude>39.7508333</latitude>
    <longitude>68.7758333</longitude>
  </city>
  <city name="Dzhar-Mechet'">
    <latitude>38.4</latitude>
    <longitude>68.4166667</longitude>
  </city>
  <city name="Dzhartepai Bolo">
    <latitude>38.0158333</latitude>
    <longitude>69.3591667</longitude>
  </city>
  <city name="Dzhar-Tepe">
    <latitude>38.0158333</latitude>
    <longitude>69.3591667</longitude>
  </city>
  <city name="Dzharteppa">
    <latitude>38.0158333</latitude>
    <longitude>69.3591667</longitude>
  </city>
  <city name="Dzharty-Gumbez">
    <latitude>37.5533333</latitude>
    <longitude>74.1475</longitude>
  </city>
  <city name="Dzharty-Rabat">
    <latitude>37.8</latitude>
    <longitude>73.5666667</longitude>
  </city>
  <city name="Dzhaushangoz">
    <latitude>37.35</latitude>
    <longitude>72.4333333</longitude>
  </city>
  <city name="Dzhauvid">
    <latitude>38.4658333</latitude>
    <longitude>71.6255556</longitude>
  </city>
  <city name="Dzhavliboi">
    <latitude>38.5644444</latitude>
    <longitude>68.6958333</longitude>
  </city>
  <city name="Dzhavoni">
    <latitude>38.7441667</latitude>
    <longitude>69.6447222</longitude>
  </city>
  <city name="Dzhavrat">
    <latitude>38.4333333</latitude>
    <longitude>68.15</longitude>
  </city>
  <city name="Dzhavr">
    <latitude>38.4844444</latitude>
    <longitude>70.9613889</longitude>
  </city>
  <city name="Dzhavshangoz">
    <latitude>37.3591667</latitude>
    <longitude>72.4480556</longitude>
  </city>
  <city name="Dzhavzodara">
    <latitude>38.2533333</latitude>
    <longitude>70.1266667</longitude>
  </city>
  <city name="Dzhayilgan">
    <latitude>39.2666667</latitude>
    <longitude>71.5</longitude>
  </city>
  <city name="Dzhayrabulok">
    <latitude>38.4166667</latitude>
    <longitude>68.9333333</longitude>
  </city>
  <city name="Dzhayrali">
    <latitude>37.9638889</latitude>
    <longitude>69.5869444</longitude>
  </city>
  <city name="Dzhayraly">
    <latitude>37.5686111</latitude>
    <longitude>69.4827778</longitude>
  </city>
  <city name="Dzhayre-Tepe">
    <latitude>38.55</latitude>
    <longitude>68.25</longitude>
  </city>
  <city name="Dzheraylik">
    <latitude>37.9638889</latitude>
    <longitude>69.5869444</longitude>
  </city>
  <city name="Dzhergatol">
    <latitude>39.2213889</latitude>
    <longitude>71.1886111</longitude>
  </city>
  <city name="Dzherkala">
    <latitude>37.8161111</latitude>
    <longitude>69.3502778</longitude>
  </city>
  <city name="Dzhetikir">
    <latitude>38.3163889</latitude>
    <longitude>68.4383333</longitude>
  </city>
  <city name="Dzhetykyr">
    <latitude>38.3163889</latitude>
    <longitude>68.4383333</longitude>
  </city>
  <city name="Dzhida-Bulak">
    <latitude>37.8263889</latitude>
    <longitude>69.8380556</longitude>
  </city>
  <city name="Dzhida">
    <latitude>37.57</latitude>
    <longitude>69.3538889</longitude>
  </city>
  <city name="Dzhida-Kishlak">
    <latitude>37.57</latitude>
    <longitude>69.3538889</longitude>
  </city>
  <city name="Dzhidobulok">
    <latitude>37.8263889</latitude>
    <longitude>69.8380556</longitude>
  </city>
  <city name="Dzhidzhik">
    <latitude>39.1322222</latitude>
    <longitude>68.4269444</longitude>
  </city>
  <city name="Dzhilanda">
    <latitude>37.5761111</latitude>
    <longitude>72.5927778</longitude>
  </city>
  <city name="Dzhilandy">
    <latitude>37.5761111</latitude>
    <longitude>72.5927778</longitude>
  </city>
  <city name="Dzhilas">
    <latitude>39.3666667</latitude>
    <longitude>67.7166667</longitude>
  </city>
  <city name="Dzhilga">
    <latitude>37.6619444</latitude>
    <longitude>69.8591667</longitude>
  </city>
  <city name="Dzhilikol">
    <latitude>37.4936111</latitude>
    <longitude>68.5311111</longitude>
  </city>
  <city name="Dzhilikul'">
    <latitude>37.4936111</latitude>
    <longitude>68.5311111</longitude>
  </city>
  <city name="Dzhil'kul'">
    <latitude>37.4936111</latitude>
    <longitude>68.5311111</longitude>
  </city>
  <city name="Dzhilyandy">
    <latitude>37.5761111</latitude>
    <longitude>72.5927778</longitude>
  </city>
  <city name="Dzhingazhir">
    <latitude>38.8658333</latitude>
    <longitude>73.2583333</longitude>
  </city>
  <city name="Dzhingun">
    <latitude>39.0833333</latitude>
    <longitude>70.2</longitude>
  </city>
  <city name="Dzhirgatal'">
    <latitude>39.2213889</latitude>
    <longitude>71.1886111</longitude>
  </city>
  <city name="Dzhirginak">
    <latitude>38.6477778</latitude>
    <longitude>68.6272222</longitude>
  </city>
  <city name="Dzhirgital'">
    <latitude>39.2213889</latitude>
    <longitude>71.1886111</longitude>
  </city>
  <city name="Dzhivid">
    <latitude>38.4658333</latitude>
    <longitude>71.6255556</longitude>
  </city>
  <city name="Dzhizhik">
    <latitude>39.1322222</latitude>
    <longitude>68.4269444</longitude>
  </city>
  <city name="Dzhomri">
    <latitude>38.5433333</latitude>
    <longitude>68.9977778</longitude>
  </city>
  <city name="Dzhonbakhti Poyën">
    <latitude>38.4</latitude>
    <longitude>69.9833333</longitude>
  </city>
  <city name="Dzhonvarsuz">
    <latitude>38.5288889</latitude>
