<?xml version="1.0" encoding="UTF-8"?>
<country code="ug" name="Ouganda">
  <city name="Abaji">
    <latitude>2.45</latitude>
    <longitude>30.8666667</longitude>
  </city>
  <city name="Abakula">
    <latitude>2.2166667</latitude>
    <longitude>33.4833333</longitude>
  </city>
  <city name="Abakule">
    <latitude>2.2166667</latitude>
    <longitude>33.4833333</longitude>
  </city>
  <city name="Abala">
    <latitude>2.3827778</latitude>
    <longitude>33.045</longitude>
  </city>
  <city name="Abalang">
    <latitude>1.7</latitude>
    <longitude>32.9666667</longitude>
  </city>
  <city name="Abaler">
    <latitude>1.6333333</latitude>
    <longitude>32.9</longitude>
  </city>
  <city name="Abaleri">
    <latitude>1.6333333</latitude>
    <longitude>32.9</longitude>
  </city>
  <city name="Abalkweri">
    <latitude>1.7333333</latitude>
    <longitude>32.4</longitude>
  </city>
  <city name="Abalkweru">
    <latitude>1.75</latitude>
    <longitude>33.15</longitude>
  </city>
  <city name="Abalodyang">
    <latitude>1.7333333</latitude>
    <longitude>32.8833333</longitude>
  </city>
  <city name="Abankwoni">
    <latitude>1.8333333</latitude>
    <longitude>33.0666667</longitude>
  </city>
  <city name="Abarekori">
    <latitude>1.6666667</latitude>
    <longitude>32.9833333</longitude>
  </city>
  <city name="Abarelelu">
    <latitude>1.9833333</latitude>
    <longitude>33.8333333</longitude>
  </city>
  <city name="Abari">
    <latitude>1.7666667</latitude>
    <longitude>33.4333333</longitude>
  </city>
  <city name="Abarikori">
    <latitude>1.6666667</latitude>
    <longitude>32.8833333</longitude>
  </city>
  <city name="Abarilela">
    <latitude>1.9833333</latitude>
    <longitude>33.8333333</longitude>
  </city>
  <city name="Abario">
    <latitude>2.95</latitude>
    <longitude>31.3833333</longitude>
  </city>
  <city name="Abata">
    <latitude>1.7</latitude>
    <longitude>33.15</longitude>
  </city>
  <city name="Abatait">
    <latitude>1.7</latitude>
    <longitude>33.15</longitude>
  </city>
  <city name="Abeja">
    <latitude>1.7666667</latitude>
    <longitude>32.8166667</longitude>
  </city>
  <city name="Abeko">
    <latitude>2.0</latitude>
    <longitude>33.5666667</longitude>
  </city>
  <city name="Abela">
    <latitude>1.9</latitude>
    <longitude>33.9333333</longitude>
  </city>
  <city name="Aber">
    <latitude>2.1872222</latitude>
    <longitude>32.3494444</longitude>
  </city>
  <city name="Aberapira">
    <latitude>1.9666667</latitude>
    <longitude>33.3</longitude>
  </city>
  <city name="Aberete">
    <latitude>1.7</latitude>
    <longitude>33.7333333</longitude>
  </city>
  <city name="Aberipila">
    <latitude>1.9666667</latitude>
    <longitude>33.3</longitude>
  </city>
  <city name="Abeyi">
    <latitude>1.85</latitude>
    <longitude>32.9833333</longitude>
  </city>
  <city name="Abia">
    <latitude>3.0833333</latitude>
    <longitude>30.8166667</longitude>
  </city>
  <city name="Abi">
    <latitude>3.0833333</latitude>
    <longitude>30.95</longitude>
  </city>
  <city name="Abim">
    <latitude>2.7016667</latitude>
    <longitude>33.6761111</longitude>
  </city>
  <city name="Abiria">
    <latitude>3.25</latitude>
    <longitude>31.0166667</longitude>
  </city>
  <city name="Abiya">
    <latitude>2.45</latitude>
    <longitude>33.1166667</longitude>
  </city>
  <city name="Aboke">
    <latitude>2.3352778</latitude>
    <longitude>32.6886111</longitude>
  </city>
  <city name="Aboket">
    <latitude>1.7333333</latitude>
    <longitude>33.45</longitude>
  </city>
  <city name="Aboki">
    <latitude>2.3352778</latitude>
    <longitude>32.6886111</longitude>
  </city>
  <city name="Abola">
    <latitude>1.75</latitude>
    <longitude>33.3166667</longitude>
  </city>
  <city name="Abolonyero">
    <latitude>1.6166667</latitude>
    <longitude>32.8</longitude>
  </city>
  <city name="Aboru">
    <latitude>1.9333333</latitude>
    <longitude>33.2333333</longitude>
  </city>
  <city name="Abudama">
    <latitude>1.7333333</latitude>
    <longitude>32.15</longitude>
  </city>
  <city name="Abuke">
    <latitude>1.9833333</latitude>
    <longitude>33.1666667</longitude>
  </city>
  <city name="Abuli">
    <latitude>1.9</latitude>
    <longitude>32.8666667</longitude>
  </city>
  <city name="Aburkot">
    <latitude>1.6666667</latitude>
    <longitude>32.8</longitude>
  </city>
  <city name="Aburuburu">
    <latitude>1.9166667</latitude>
    <longitude>33.2333333</longitude>
  </city>
  <city name="Abutokom">
    <latitude>1.7333333</latitude>
    <longitude>32.3333333</longitude>
  </city>
  <city name="Abwangete">
    <latitude>1.85</latitude>
    <longitude>33.9166667</longitude>
  </city>
  <city name="Abwel">
    <latitude>0.6880556</latitude>
    <longitude>34.0388889</longitude>
  </city>
  <city name="Abwong">
    <latitude>1.7</latitude>
    <longitude>32.8333333</longitude>
  </city>
  <city name="Acamanumu">
    <latitude>1.8666667</latitude>
    <longitude>32.7</longitude>
  </city>
  <city name="Acenluoro">
    <latitude>1.8166667</latitude>
    <longitude>32.7</longitude>
  </city>
  <city name="Acer">
    <latitude>2.3666667</latitude>
    <longitude>31.1</longitude>
  </city>
  <city name="Achaba">
    <latitude>1.8666667</latitude>
    <longitude>32.75</longitude>
  </city>
  <city name="Achamdako">
    <latitude>1.65</latitude>
    <longitude>32.9666667</longitude>
  </city>
  <city name="Achamidako">
    <latitude>1.65</latitude>
    <longitude>32.9666667</longitude>
  </city>
  <city name="Achanpi">
    <latitude>1.8</latitude>
    <longitude>33.2</longitude>
  </city>
  <city name="Achar">
    <latitude>2.9333333</latitude>
    <longitude>32.5333333</longitude>
  </city>
  <city name="Achedepel">
    <latitude>2.0333333</latitude>
    <longitude>33.85</longitude>
  </city>
  <city name="Achedeperi">
    <latitude>2.0333333</latitude>
    <longitude>33.85</longitude>
  </city>
  <city name="Achet">
    <latitude>2.4</latitude>
    <longitude>32.5333333</longitude>
  </city>
  <city name="Achilet">
    <latitude>0.7158333</latitude>
    <longitude>34.1347222</longitude>
  </city>
  <city name="Achisa">
    <latitude>1.3833333</latitude>
    <longitude>33.7</longitude>
  </city>
  <city name="Acholibar">
    <latitude>3.1258333</latitude>
    <longitude>32.9197222</longitude>
  </city>
  <city name="Acholibur">
    <latitude>3.1258333</latitude>
    <longitude>32.9197222</longitude>
  </city>
  <city name="Achomai">
    <latitude>2.0166667</latitude>
    <longitude>33.5833333</longitude>
  </city>
  <city name="Achomya">
    <latitude>1.4166667</latitude>
    <longitude>33.45</longitude>
  </city>
  <city name="Achumet">
    <latitude>2.1833333</latitude>
    <longitude>33.7333333</longitude>
  </city>
  <city name="Achuna">
    <latitude>1.9861111</latitude>
    <longitude>33.4894444</longitude>
  </city>
  <city name="Achungi">
    <latitude>2.0</latitude>
    <longitude>32.8166667</longitude>
  </city>
  <city name="Achuru">
    <latitude>2.1</latitude>
    <longitude>34.05</longitude>
  </city>
  <city name="Achwa">
    <latitude>2.0472222</latitude>
    <longitude>33.8083333</longitude>
  </city>
  <city name="Achwichwi">
    <latitude>2.1333333</latitude>
    <longitude>33.6</longitude>
  </city>
  <city name="Aciak">
    <latitude>3.245</latitude>
    <longitude>32.1411111</longitude>
  </city>
  <city name="Adacari">
    <latitude>1.5666667</latitude>
    <longitude>33.6166667</longitude>
  </city>
  <city name="Adachal">
    <latitude>2.0486111</latitude>
    <longitude>34.0522222</longitude>
  </city>
  <city name="Adadoi">
    <latitude>1.3333333</latitude>
    <longitude>33.95</longitude>
  </city>
  <city name="Adagimon">
    <latitude>2.0</latitude>
    <longitude>33.2</longitude>
  </city>
  <city name="Adakata">
    <latitude>1.7666667</latitude>
    <longitude>32.8666667</longitude>
  </city>
  <city name="Adapatakitala">
    <latitude>2.25</latitude>
    <longitude>33.9833333</longitude>
  </city>
  <city name="Adari">
    <latitude>1.25</latitude>
    <longitude>33.7</longitude>
  </city>
  <city name="Adekere">
    <latitude>1.65</latitude>
    <longitude>33.0</longitude>
  </city>
  <city name="Adengi">
    <latitude>1.8666667</latitude>
    <longitude>33.0166667</longitude>
  </city>
  <city name="Adepari">
    <latitude>2.1</latitude>
    <longitude>33.8333333</longitude>
  </city>
  <city name="Adero">
    <latitude>1.6833333</latitude>
    <longitude>32.7333333</longitude>
  </city>
  <city name="Aderutu">
    <latitude>2.3</latitude>
    <longitude>33.6166667</longitude>
  </city>
  <city name="Adiegi">
    <latitude>2.1166667</latitude>
    <longitude>32.45</longitude>
  </city>
  <city name="Adilang">
    <latitude>2.7191667</latitude>
    <longitude>33.4930556</longitude>
  </city>
  <city name="Adingi">
    <latitude>2.4833333</latitude>
    <longitude>30.8</longitude>
  </city>
  <city name="Adinya">
    <latitude>1.8</latitude>
    <longitude>33.3166667</longitude>
  </city>
  <city name="Adita">
    <latitude>1.6833333</latitude>
    <longitude>32.8666667</longitude>
  </city>
  <city name="Adjugopi">
    <latitude>3.4166667</latitude>
    <longitude>31.9166667</longitude>
  </city>
  <city name="Adjumani">
    <latitude>3.3613889</latitude>
    <longitude>31.8097222</longitude>
  </city>
  <city name="Adlegi">
    <latitude>2.1166667</latitude>
    <longitude>32.45</longitude>
  </city>
  <city name="Adodoi">
    <latitude>2.4</latitude>
    <longitude>33.75</longitude>
  </city>
  <city name="Adodoyi">
    <latitude>1.4</latitude>
    <longitude>33.5333333</longitude>
  </city>
  <city name="Adok">
    <latitude>2.15</latitude>
    <longitude>32.55</longitude>
  </city>
  <city name="Adola">
    <latitude>2.2333333</latitude>
    <longitude>33.6166667</longitude>
  </city>
  <city name="Adome">
    <latitude>1.7666667</latitude>
    <longitude>33.75</longitude>
  </city>
  <city name="Adomo">
    <latitude>1.7666667</latitude>
    <longitude>33.75</longitude>
  </city>
  <city name="Adonga">
    <latitude>2.0333333</latitude>
    <longitude>34.15</longitude>
  </city>
  <city name="Adongoyere">
    <latitude>1.6833333</latitude>
    <longitude>32.7833333</longitude>
  </city>
  <city name="Adonyimo">
    <latitude>1.7833333</latitude>
    <longitude>32.95</longitude>
  </city>
  <city name="Adra">
    <latitude>2.6</latitude>
    <longitude>31.0666667</longitude>
  </city>
  <city name="Adu">
    <latitude>3.2</latitude>
    <longitude>31.1</longitude>
  </city>
  <city name="Aduko">
    <latitude>2.8166667</latitude>
    <longitude>33.9833333</longitude>
  </city>
  <city name="Aduku">
    <latitude>1.9975</latitude>
    <longitude>32.7169444</longitude>
  </city>
  <city name="Adumi">
    <latitude>3.05</latitude>
    <longitude>30.8166667</longitude>
  </city>
  <city name="Adwari">
    <latitude>2.4527778</latitude>
    <longitude>33.1994444</longitude>
  </city>
  <city name="Adwoki">
    <latitude>1.9833333</latitude>
    <longitude>33.0666667</longitude>
  </city>
  <city name="Adyongobaro">
    <latitude>1.7</latitude>
    <longitude>32.75</longitude>
  </city>
  <city name="Adzugopi">
    <latitude>3.4166667</latitude>
    <longitude>31.9166667</longitude>
  </city>
  <city name="Agama">
    <latitude>1.7333333</latitude>
    <longitude>33.5666667</longitude>
  </city>
  <city name="Aganga">
    <latitude>1.7675</latitude>
    <longitude>32.2197222</longitude>
  </city>
  <city name="Agaria">
    <latitude>1.35</latitude>
    <longitude>33.75</longitude>
  </city>
  <city name="Agbo">
    <latitude>3.0544444</latitude>
    <longitude>31.4183333</longitude>
  </city>
  <city name="Agenmatch">
    <latitude>2.5666667</latitude>
    <longitude>30.8666667</longitude>
  </city>
  <city name="Agermach">
    <latitude>2.5666667</latitude>
    <longitude>30.8666667</longitude>
  </city>
  <city name="Agikdak">
    <latitude>1.6666667</latitude>
    <longitude>32.9166667</longitude>
  </city>
  <city name="Agikidaki">
    <latitude>1.8333333</latitude>
    <longitude>33.6333333</longitude>
  </city>
  <city name="Agil">
    <latitude>2.05</latitude>
    <longitude>32.75</longitude>
  </city>
  <city name="Agipaboni">
    <latitude>2.3166667</latitude>
    <longitude>33.65</longitude>
  </city>
  <city name="Agirigirioi">
    <latitude>1.9333333</latitude>
    <longitude>33.6166667</longitude>
  </city>
  <city name="Agirigiroi">
    <latitude>1.5333333</latitude>
    <longitude>33.75</longitude>
  </city>
  <city name="Agola">
    <latitude>0.6844444</latitude>
    <longitude>34.0983333</longitude>
  </city>
  <city name="Agonyolako">
    <latitude>1.65</latitude>
    <longitude>32.7666667</longitude>
  </city>
  <city name="Agora">
    <latitude>1.7</latitude>
    <longitude>33.5666667</longitude>
  </city>
  <city name="Agoro">
    <latitude>3.7594444</latitude>
    <longitude>33.0369444</longitude>
  </city>
  <city name="Agu">
    <latitude>1.4666667</latitude>
    <longitude>33.7</longitude>
  </city>
  <city name="Agule">
    <latitude>1.2594444</latitude>
    <longitude>33.7116667</longitude>
  </city>
  <city name="Aguliya">
    <latitude>2.2313889</latitude>
    <longitude>33.5672222</longitude>
  </city>
  <city name="Agulul">
    <latitude>1.65</latitude>
    <longitude>33.5833333</longitude>
  </city>
  <city name="Agur">
    <latitude>2.4333333</latitude>
    <longitude>32.9333333</longitude>
  </city>
  <city name="Agurut">
    <latitude>1.4333333</latitude>
    <longitude>33.9</longitude>
  </city>
  <city name="Agwata">
    <latitude>1.9605556</latitude>
    <longitude>32.9830556</longitude>
  </city>
  <city name="Agwengere">
    <latitude>1.9166667</latitude>
    <longitude>32.8166667</longitude>
  </city>
  <city name="Agwenonyari">
    <latitude>1.9166667</latitude>
    <longitude>33.1166667</longitude>
  </city>
  <city name="Agwiciri">
    <latitude>2.1333333</latitude>
    <longitude>32.75</longitude>
  </city>
  <city name="Agwingiri">
    <latitude>1.6333333</latitude>
    <longitude>32.8333333</longitude>
  </city>
  <city name="Agwok">
    <latitude>2.4788889</latitude>
    <longitude>31.19</longitude>
  </city>
  <city name="Ai-avu">
    <latitude>2.9</latitude>
    <longitude>31.2</longitude>
  </city>
  <city name="Ai-Ivu">
    <latitude>3.1666667</latitude>
    <longitude>31.0166667</longitude>
  </city>
  <city name="Airere">
    <latitude>1.4</latitude>
    <longitude>33.8833333</longitude>
  </city>
  <city name="Airinget">
    <latitude>2.0833333</latitude>
    <longitude>34.0833333</longitude>
  </city>
  <city name="Ajaa">
    <latitude>1.85</latitude>
    <longitude>32.4</longitude>
  </city>
  <city name="Ajama">
    <latitude>1.9166667</latitude>
    <longitude>33.4833333</longitude>
  </city>
  <city name="Ajaniti">
    <latitude>2.2833333</latitude>
    <longitude>33.55</longitude>
  </city>
  <city name="Ajar">
    <latitude>1.8497222</latitude>
    <longitude>32.5616667</longitude>
  </city>
  <city name="Ajebe">
    <latitude>3.3333333</latitude>
    <longitude>30.9</longitude>
  </city>
  <city name="Ajeruk">
    <latitude>1.55</latitude>
    <longitude>33.8166667</longitude>
  </city>
  <city name="Ajeruku">
    <latitude>1.55</latitude>
    <longitude>33.8166667</longitude>
  </city>
  <city name="Ajesa">
    <latitude>1.6166667</latitude>
    <longitude>33.7666667</longitude>
  </city>
  <city name="Ajesai">
    <latitude>1.8666667</latitude>
    <longitude>33.9</longitude>
  </city>
  <city name="Ajia">
    <latitude>2.9177778</latitude>
    <longitude>31.0336111</longitude>
  </city>
  <city name="Ajikidaki">
    <latitude>1.8333333</latitude>
    <longitude>33.6333333</longitude>
  </city>
  <city name="Ajono">
    <latitude>2.9666667</latitude>
    <longitude>30.8666667</longitude>
  </city>
  <city name="Ajonyi">
    <latitude>1.8166667</latitude>
    <longitude>33.55</longitude>
  </city>
  <city name="Ajuket">
    <latitude>1.3833333</latitude>
    <longitude>33.9666667</longitude>
  </city>
  <city name="Ajumani">
    <latitude>3.3613889</latitude>
    <longitude>31.8097222</longitude>
  </city>
  <city name="Akaba">
    <latitude>2.5</latitude>
    <longitude>31.15</longitude>
  </city>
  <city name="Akademothy">
    <latitude>2.9833333</latitude>
    <longitude>34.1833333</longitude>
  </city>
  <city name="Akado">
    <latitude>2.65</latitude>
    <longitude>33.65</longitude>
  </city>
  <city name="Akaikai">
    <latitude>1.8333333</latitude>
    <longitude>33.65</longitude>
  </city>
  <city name="Akalu">
    <latitude>2.135</latitude>
    <longitude>32.8461111</longitude>
  </city>
  <city name="Akanyo">
    <latitude>2.5333333</latitude>
    <longitude>31.2</longitude>
  </city>
  <city name="Akar">
    <latitude>1.9833333</latitude>
    <longitude>32.6</longitude>
  </city>
  <city name="Akarukwe">
    <latitude>1.4</latitude>
    <longitude>33.7</longitude>
  </city>
  <city name="Akatongore">
    <latitude>-0.1333333</latitude>
    <longitude>30.5333333</longitude>
  </city>
  <city name="Akedimothy">
    <latitude>2.9833333</latitude>
    <longitude>34.1833333</longitude>
  </city>
  <city name="Akeen">
    <latitude>-1.2333333</latitude>
    <longitude>29.7833333</longitude>
  </city>
  <city name="Akere">
    <latitude>1.85</latitude>
    <longitude>33.3333333</longitude>
  </city>
  <city name="Aketa">
    <latitude>2.1</latitude>
    <longitude>33.95</longitude>
  </city>
  <city name="Aketo">
    <latitude>1.8666667</latitude>
    <longitude>32.3833333</longitude>
  </city>
  <city name="Akilok">
    <latitude>3.5208333</latitude>
    <longitude>33.5122222</longitude>
  </city>
  <city name="Akisa">
    <latitude>1.3833333</latitude>
    <longitude>33.7</longitude>
  </city>
  <city name="Akisim">
    <latitude>1.25</latitude>
    <longitude>33.7333333</longitude>
  </city>
  <city name="Akokoro">
    <latitude>1.6913889</latitude>
    <longitude>32.3919444</longitude>
  </city>
  <city name="Akole">
    <latitude>2.0166667</latitude>
    <longitude>33.75</longitude>
  </city>
  <city name="Akolodong">
    <latitude>1.95</latitude>
    <longitude>33.1166667</longitude>
  </city>
  <city name="Akolodongo">
    <latitude>1.95</latitude>
    <longitude>33.1166667</longitude>
  </city>
  <city name="Akongomit">
    <latitude>1.7</latitude>
    <longitude>32.7833333</longitude>
  </city>
  <city name="Akore">
    <latitude>1.9666667</latitude>
    <longitude>33.7666667</longitude>
  </city>
  <city name="Akot">
    <latitude>1.75</latitude>
    <longitude>32.8166667</longitude>
  </city>
  <city name="Akoyo">
    <latitude>2.2666667</latitude>
    <longitude>33.5333333</longitude>
  </city>
  <city name="Akpokoa">
    <latitude>3.2327778</latitude>
    <longitude>31.4197222</longitude>
  </city>
  <city name="Akulet">
    <latitude>1.8666667</latitude>
    <longitude>33.9333333</longitude>
  </city>
  <city name="Akum">
    <latitude>1.4666667</latitude>
    <longitude>33.9</longitude>
  </city>
  <city name="Akumu">
    <latitude>2.0</latitude>
    <longitude>33.3</longitude>
  </city>
  <city name="Akure">
    <latitude>1.8833333</latitude>
    <longitude>33.3333333</longitude>
  </city>
  <city name="Akweyi">
    <latitude>1.6166667</latitude>
    <longitude>33.0333333</longitude>
  </city>
  <city name="Akwon">
    <latitude>1.95</latitude>
    <longitude>32.7333333</longitude>
  </city>
  <city name="Akwoni">
    <latitude>1.75</latitude>
    <longitude>32.9</longitude>
  </city>
  <city name="Akworo">
    <latitude>1.3333333</latitude>
    <longitude>34.1</longitude>
  </city>
  <city name="Akyereu">
    <latitude>2.0333333</latitude>
    <longitude>33.3833333</longitude>
  </city>
  <city name="Akyeriau">
    <latitude>2.0333333</latitude>
    <longitude>33.3833333</longitude>
  </city>
  <city name="Ala">
    <latitude>2.9166667</latitude>
    <longitude>31.35</longitude>
  </city>
  <city name="Alado">
    <latitude>1.8833333</latitude>
    <longitude>32.4166667</longitude>
  </city>
  <city name="Alas">
    <latitude>1.9666667</latitude>
    <longitude>33.65</longitude>
  </city>
  <city name="Alebai">
    <latitude>2.0833333</latitude>
    <longitude>33.45</longitude>
  </city>
  <city name="Alebtong">
    <latitude>1.95</latitude>
    <longitude>32.45</longitude>
  </city>
  <city name="Alebtongo">
    <latitude>2.2447222</latitude>
    <longitude>33.2547222</longitude>
  </city>
  <city name="Alego">
    <latitude>2.4833333</latitude>
    <longitude>31.0666667</longitude>
  </city>
  <city name="Alekilek">
    <latitude>2.0833333</latitude>
    <longitude>34.1666667</longitude>
  </city>
  <city name="Aleles">
    <latitude>1.3166667</latitude>
    <longitude>33.7</longitude>
  </city>
  <city name="Alelesi">
    <latitude>1.8833333</latitude>
    <longitude>33.95</longitude>
  </city>
  <city name="Alemere">
    <latitude>1.5975</latitude>
    <longitude>32.8372222</longitude>
  </city>
  <city name="Alengbele">
    <latitude>2.6166667</latitude>
    <longitude>31.1333333</longitude>
  </city>
  <city name="Alengbelo">
    <latitude>2.6166667</latitude>
    <longitude>31.1333333</longitude>
  </city>
  <city name="Alengo">
    <latitude>1.8355556</latitude>
    <longitude>32.3508333</longitude>
  </city>
  <city name="Alenzu">
    <latitude>2.7166667</latitude>
    <longitude>30.9333333</longitude>
  </city>
  <city name="Alera">
    <latitude>2.7069444</latitude>
    <longitude>32.0502778</longitude>
  </city>
  <city name="Alere">
    <latitude>2.15</latitude>
    <longitude>33.65</longitude>
  </city>
  <city name="Alerek">
    <latitude>2.805</latitude>
    <longitude>33.7638889</longitude>
  </city>
  <city name="Alero">
    <latitude>2.7069444</latitude>
    <longitude>32.0502778</longitude>
  </city>
  <city name="Aleuleun">
    <latitude>2.25</latitude>
    <longitude>33.9</longitude>
  </city>
  <city name="Aliba">
    <latitude>3.2847222</latitude>
    <longitude>31.5594444</longitude>
  </city>
  <city name="Alibu">
    <latitude>2.7166667</latitude>
    <longitude>31.0666667</longitude>
  </city>
  <city name="Alijoda">
    <latitude>2.8925</latitude>
    <longitude>31.1533333</longitude>
  </city>
  <city name="Alila">
    <latitude>2.0333333</latitude>
    <longitude>32.7333333</longitude>
  </city>
  <city name="Alilioi">
    <latitude>1.8666667</latitude>
    <longitude>33.65</longitude>
  </city>
  <city name="Alira">
    <latitude>2.0333333</latitude>
    <longitude>32.7333333</longitude>
  </city>
  <city name="Alito">
    <latitude>2.4044444</latitude>
    <longitude>32.8086111</longitude>
  </city>
  <city name="Alivu">
    <latitude>3.1666667</latitude>
    <longitude>30.9166667</longitude>
  </city>
  <city name="Aloet">
    <latitude>1.7022222</latitude>
    <longitude>33.2916667</longitude>
  </city>
  <city name="Aloi">
    <latitude>2.2066667</latitude>
    <longitude>33.1983333</longitude>
  </city>
  <city name="Aloit">
    <latitude>1.7666667</latitude>
    <longitude>33.65</longitude>
  </city>
  <city name="Alokiri">
    <latitude>1.8833333</latitude>
    <longitude>33.15</longitude>
  </city>
  <city name="Aloloi">
    <latitude>2.0166667</latitude>
    <longitude>33.3333333</longitude>
  </city>
  <city name="Alomdyel">
    <latitude>1.7333333</latitude>
    <longitude>32.55</longitude>
  </city>
  <city name="Alomet">
    <latitude>1.7022222</latitude>
    <longitude>33.2916667</longitude>
  </city>
  <city name="Alopua">
    <latitude>2.9333333</latitude>
    <longitude>34.1</longitude>
  </city>
  <city name="Aloro">
    <latitude>2.2333333</latitude>
    <longitude>32.5333333</longitude>
  </city>
  <city name="Alube">
    <latitude>2.6666667</latitude>
    <longitude>30.8333333</longitude>
  </city>
  <city name="Aluga">
    <latitude>1.8</latitude>
    <longitude>32.4166667</longitude>
  </city>
  <city name="Alui">
    <latitude>2.45</latitude>
    <longitude>31.3666667</longitude>
  </city>
  <city name="Alukuchoko">
    <latitude>1.8</latitude>
    <longitude>33.9166667</longitude>
  </city>
  <city name="Alutong">
    <latitude>2.3166667</latitude>
    <longitude>33.5666667</longitude>
  </city>
  <city name="Alwa">
    <latitude>1.85</latitude>
    <longitude>33.1666667</longitude>
  </city>
  <city name="Alwala">
    <latitude>1.75</latitude>
    <longitude>32.15</longitude>
  </city>
  <city name="Alwi">
    <latitude>2.45</latitude>
    <longitude>31.3666667</longitude>
  </city>
  <city name="Alwii">
    <latitude>2.45</latitude>
    <longitude>31.3666667</longitude>
  </city>
  <city name="Alworoceng">
    <latitude>1.9833333</latitude>
    <longitude>32.3666667</longitude>
  </city>
  <city name="Alyamese">
    <latitude>1.6833333</latitude>
    <longitude>33.15</longitude>
  </city>
  <city name="Amabasere">
    <latitude>0.8166667</latitude>
    <longitude>30.1333333</longitude>
  </city>
  <city name="Amach">
    <latitude>2.0983333</latitude>
    <longitude>33.0161111</longitude>
  </city>
  <city name="Amaich">
    <latitude>2.0983333</latitude>
    <longitude>33.0161111</longitude>
  </city>
  <city name="Amalwasi">
    <latitude>2.1833333</latitude>
    <longitude>33.7666667</longitude>
  </city>
  <city name="Amanumingon">
    <latitude>2.2166667</latitude>
    <longitude>33.8</longitude>
  </city>
  <city name="Amar">
    <latitude>2.5833333</latitude>
    <longitude>32.2</longitude>
  </city>
  <city name="Amarwasi">
    <latitude>2.1833333</latitude>
    <longitude>33.7666667</longitude>
  </city>
  <city name="Ambidro">
    <latitude>3.1833333</latitude>
    <longitude>30.95</longitude>
  </city>
  <city name="Amdat">
    <latitude>1.95</latitude>
    <longitude>34.95</longitude>
  </city>
  <city name="Ame">
    <latitude>1.4</latitude>
    <longitude>33.85</longitude>
  </city>
  <city name="Amemya">
    <latitude>2.2333333</latitude>
    <longitude>33.6833333</longitude>
  </city>
  <city name="Ameng">
    <latitude>1.8833333</latitude>
    <longitude>33.8166667</longitude>
  </city>
  <city name="Ameno">
    <latitude>1.6833333</latitude>
    <longitude>34.1</longitude>
  </city>
  <city name="Amenu">
    <latitude>1.6833333</latitude>
    <longitude>34.1</longitude>
  </city>
  <city name="Amenya">
    <latitude>1.4</latitude>
    <longitude>33.8333333</longitude>
  </city>
  <city name="Amero">
    <latitude>2.1166667</latitude>
    <longitude>33.7666667</longitude>
  </city>
  <city name="Amgamwa">
    <latitude>2.805</latitude>
    <longitude>34.2805556</longitude>
  </city>
  <city name="Amidakan">
    <latitude>1.95</latitude>
    <longitude>33.35</longitude>
  </city>
  <city name="Amiel">
    <latitude>2.9666667</latitude>
    <longitude>33.45</longitude>
  </city>
  <city name="Amii">
    <latitude>1.9225</latitude>
    <longitude>32.4027778</longitude>
  </city>
  <city name="Amilmil">
    <latitude>2.0833333</latitude>
    <longitude>33.6</longitude>
  </city>
  <city name="Amilo">
    <latitude>1.9666667</latitude>
    <longitude>32.45</longitude>
  </city>
  <city name="Aminapoke">
    <latitude>1.95</latitude>
    <longitude>32.6</longitude>
  </city>
  <city name="Aminit">
    <latitude>1.75</latitude>
    <longitude>33.55</longitude>
  </city>
  <city name="Aminiti">
    <latitude>1.5333333</latitude>
    <longitude>33.5333333</longitude>
  </city>
  <city name="Aminito">
    <latitude>2.1333333</latitude>
    <longitude>33.7166667</longitude>
  </city>
  <city name="Aminteng">
    <latitude>1.9</latitude>
    <longitude>32.5333333</longitude>
  </city>
  <city name="Amintina">
    <latitude>1.9833333</latitude>
    <longitude>33.8166667</longitude>
  </city>
  <city name="Amitina">
    <latitude>1.9833333</latitude>
    <longitude>33.8166667</longitude>
  </city>
  <city name="Amolatar">
    <latitude>1.6155556</latitude>
    <longitude>32.8397222</longitude>
  </city>
  <city name="Amolitar">
    <latitude>1.6155556</latitude>
    <longitude>32.8397222</longitude>
  </city>
  <city name="Amolota">
    <latitude>1.6155556</latitude>
    <longitude>32.8397222</longitude>
  </city>
  <city name="Amolotar">
    <latitude>1.6155556</latitude>
    <longitude>32.8397222</longitude>
  </city>
  <city name="Amonikakinei">
    <latitude>0.5666667</latitude>
    <longitude>34.0833333</longitude>
  </city>
  <city name="Amorkot">
    <latitude>1.65</latitude>
    <longitude>32.9833333</longitude>
  </city>
  <city name="Amoru">
    <latitude>1.9166667</latitude>
    <longitude>33.3666667</longitude>
  </city>
  <city name="Amorupos">
    <latitude>1.95</latitude>
    <longitude>33.7166667</longitude>
  </city>
  <city name="Amua">
    <latitude>3.6333333</latitude>
    <longitude>31.8166667</longitude>
  </city>
  <city name="Amuchu">
    <latitude>2.1166667</latitude>
    <longitude>33.7</longitude>
  </city>
  <city name="Amucu">
    <latitude>2.1166667</latitude>
    <longitude>33.7</longitude>
  </city>
  <city name="Amuda">
    <latitude>2.2</latitude>
    <longitude>34.6</longitude>
  </city>
  <city name="Amudat">
    <latitude>1.95</latitude>
    <longitude>34.95</longitude>
  </city>
  <city name="Amugei">
    <latitude>2.15</latitude>
    <longitude>33.7833333</longitude>
  </city>
  <city name="Amugo">
    <latitude>2.0816667</latitude>
    <longitude>33.3361111</longitude>
  </city>
  <city name="Amunoi">
    <latitude>2.05</latitude>
    <longitude>33.8</longitude>
  </city>
  <city name="Amuria">
    <latitude>2.0036111</latitude>
    <longitude>33.6511111</longitude>
  </city>
  <city name="Amuryei">
    <latitude>1.9333333</latitude>
    <longitude>33.25</longitude>
  </city>
  <city name="Amusus">
    <latitude>2.0666667</latitude>
    <longitude>33.55</longitude>
  </city>
  <city name="Amwanga">
    <latitude>1.9166667</latitude>
    <longitude>32.7</longitude>
  </city>
  <city name="Amyamya">
    <latitude>2.2333333</latitude>
    <longitude>33.6833333</longitude>
  </city>
  <city name="Amyema">
    <latitude>1.5</latitude>
    <longitude>33.2333333</longitude>
  </city>
  <city name="Anaka">
    <latitude>2.5944444</latitude>
    <longitude>31.9633333</longitude>
  </city>
  <city name="Anamido">
    <latitude>1.6666667</latitude>
    <longitude>32.7333333</longitude>
  </city>
  <city name="Andruvu">
    <latitude>3.0333333</latitude>
    <longitude>30.9166667</longitude>
  </city>
  <city name="Angaba">
    <latitude>2.25</latitude>
    <longitude>31.2333333</longitude>
  </city>
  <city name="Angal">
    <latitude>2.4333333</latitude>
    <longitude>31.1833333</longitude>
  </city>
  <city name="Angodingodi">
    <latitude>1.8</latitude>
    <longitude>33.9666667</longitude>
  </city>
  <city name="Angole">
    <latitude>1.8333333</latitude>
    <longitude>33.7833333</longitude>
  </city>
  <city name="Angorom">
    <latitude>1.8333333</latitude>
    <longitude>33.8833333</longitude>
  </city>
  <city name="Angoropia">
    <latitude>1.95</latitude>
    <longitude>33.9166667</longitude>
  </city>
  <city name="Angotimoti">
    <latitude>1.7</latitude>
    <longitude>32.95</longitude>
  </city>
  <city name="Angunai">
    <latitude>1.7833333</latitude>
    <longitude>33.5166667</longitude>
  </city>
  <city name="Anwangi">
    <latitude>1.9</latitude>
    <longitude>32.75</longitude>
  </city>
  <city name="Anya">
    <latitude>2.7333333</latitude>
    <longitude>31.0666667</longitude>
  </city>
  <city name="Anyalai">
    <latitude>1.9166667</latitude>
    <longitude>33.55</longitude>
  </city>
  <city name="Anyangalong">
    <latitude>2.2166667</latitude>
    <longitude>33.8</longitude>
  </city>
  <city name="Anyara">
    <latitude>2.0</latitude>
    <longitude>33.3166667</longitude>
  </city>
  <city name="Anyavu">
    <latitude>2.6833333</latitude>
    <longitude>30.8666667</longitude>
  </city>
  <city name="Anyek">
    <latitude>2.3686111</latitude>
    <longitude>32.5163889</longitude>
  </city>
  <city name="Anyeke">
    <latitude>2.3686111</latitude>
    <longitude>32.5163889</longitude>
  </city>
  <city name="Anyia">
    <latitude>1.75</latitude>
    <longitude>33.7</longitude>
  </city>
  <city name="Anyid">
    <latitude>1.75</latitude>
    <longitude>33.7</longitude>
  </city>
  <city name="Anyidi">
    <latitude>1.95</latitude>
    <longitude>33.6833333</longitude>
  </city>
  <city name="Anyidinyid">
    <latitude>1.85</latitude>
    <longitude>33.3333333</longitude>
  </city>
  <city name="Anyiribu">
    <latitude>2.5666667</latitude>
    <longitude>31.1</longitude>
  </city>
  <city name="Anyongo">
    <latitude>1.75</latitude>
    <longitude>32.3666667</longitude>
  </city>
  <city name="Anywali">
    <latitude>1.7666667</latitude>
    <longitude>32.9</longitude>
  </city>
  <city name="Anzaiya">
    <latitude>3.0833333</latitude>
    <longitude>31.0166667</longitude>
  </city>
  <city name="Aoba">
    <latitude>3.5333333</latitude>
    <longitude>31.1333333</longitude>
  </city>
  <city name="Apac">
    <latitude>1.9755556</latitude>
    <longitude>32.5386111</longitude>
  </city>
  <city name="Apach">
    <latitude>1.9755556</latitude>
    <longitude>32.5386111</longitude>
  </city>
  <city name="Apala">
    <latitude>2.3</latitude>
    <longitude>32.7833333</longitude>
  </city>
  <city name="Apapa">
    <latitude>1.2</latitude>
    <longitude>33.6166667</longitude>
  </city>
  <city name="Apapai">
    <latitude>1.4333333</latitude>
    <longitude>33.9833333</longitude>
  </city>
  <city name="Aparisa">
    <latitude>1.9666667</latitude>
    <longitude>33.4666667</longitude>
  </city>
  <city name="Apedi">
    <latitude>2.3666667</latitude>
    <longitude>32.8</longitude>
  </city>
  <city name="Apeduru">
    <latitude>2.05</latitude>
    <longitude>33.4333333</longitude>
  </city>
  <city name="Apele">
    <latitude>1.9833333</latitude>
    <longitude>32.4</longitude>
  </city>
  <city name="Apeneki">
    <latitude>1.8</latitude>
    <longitude>32.8166667</longitude>
  </city>
  <city name="Apenyowewu">
    <latitude>1.9333333</latitude>
    <longitude>33.05</longitude>
  </city>
  <city name="Api">
    <latitude>2.3166667</latitude>
    <longitude>32.7833333</longitude>
  </city>
  <city name="Apidochot">
    <latitude>2.1833333</latitude>
    <longitude>34.0333333</longitude>
  </city>
  <city name="Apigikwe">
    <latitude>2.1333333</latitude>
    <longitude>33.25</longitude>
  </city>
  <city name="Apoi">
    <latitude>1.7333333</latitude>
    <longitude>32.4666667</longitude>
  </city>
  <city name="Apoka">
    <latitude>3.6872222</latitude>
    <longitude>33.7755556</longitude>
  </city>
  <city name="Apokin">
    <latitude>1.4166667</latitude>
    <longitude>34.0</longitude>
  </city>
  <city name="Apokor">
    <latitude>0.7091667</latitude>
    <longitude>34.2455556</longitude>
  </city>
  <city name="Apokori">
    <latitude>0.7091667</latitude>
    <longitude>34.2455556</longitude>
  </city>
  <city name="Apokoro">
    <latitude>1.85</latitude>
    <longitude>33.3833333</longitude>
  </city>
  <city name="Apoleka">
    <latitude>1.8297222</latitude>
    <longitude>32.6272222</longitude>
  </city>
  <city name="Apoli">
    <latitude>0.6</latitude>
    <longitude>34.0833333</longitude>
  </city>
  <city name="Apolino">
    <latitude>1.9333333</latitude>
    <longitude>33.9833333</longitude>
  </city>
  <city name="Apopongi">
    <latitude>1.2333333</latitude>
    <longitude>33.65</longitude>
  </city>
  <city name="Apot">
    <latitude>1.3666667</latitude>
    <longitude>33.6666667</longitude>
  </city>
  <city name="Aputi">
    <latitude>1.6961111</latitude>
    <longitude>32.9375</longitude>
  </city>
  <city name="Aputon">
    <latitude>1.95</latitude>
    <longitude>33.9333333</longitude>
  </city>
  <city name="Apwori">
    <latitude>1.85</latitude>
    <longitude>32.7333333</longitude>
  </city>
  <city name="Ara">
    <latitude>2.45</latitude>
    <longitude>30.8166667</longitude>
  </city>
  <city name="Arabaka">
    <latitude>1.8333333</latitude>
    <longitude>33.6833333</longitude>
  </city>
  <city name="Araga">
    <latitude>2.2833333</latitude>
    <longitude>31.2166667</longitude>
  </city>
  <city name="Aranga">
    <latitude>3.45</latitude>
    <longitude>31.2833333</longitude>
  </city>
  <city name="Arapai">
    <latitude>1.7452778</latitude>
    <longitude>33.625</longitude>
  </city>
  <city name="Arapoo">
    <latitude>1.4166667</latitude>
    <longitude>33.25</longitude>
  </city>
  <city name="Aremo">
    <latitude>2.5833333</latitude>
    <longitude>33.7833333</longitude>
  </city>
  <city name="Arenga">
    <latitude>3.4333333</latitude>
    <longitude>31.1833333</longitude>
  </city>
  <city name="Aridi">
    <latitude>1.75</latitude>
    <longitude>33.0</longitude>
  </city>
  <city name="Arido">
    <latitude>1.8333333</latitude>
    <longitude>32.65</longitude>
  </city>
  <city name="Ariet">
    <latitude>1.4</latitude>
    <longitude>33.8833333</longitude>
  </city>
  <city name="Arikpa">
    <latitude>2.4666667</latitude>
    <longitude>30.8833333</longitude>
  </city>
  <city name="Aringa">
    <latitude>3.4333333</latitude>
    <longitude>31.1833333</longitude>
  </city>
  <city name="Aringo">
    <latitude>2.55</latitude>
    <longitude>30.9333333</longitude>
  </city>
  <city name="Aringot">
    <latitude>1.7</latitude>
    <longitude>32.9333333</longitude>
  </city>
  <city name="Arivu">
    <latitude>2.8988889</latitude>
    <longitude>30.9883333</longitude>
  </city>
  <city name="Ariwa">
    <latitude>3.25</latitude>
    <longitude>31.4</longitude>
  </city>
  <city name="Arua">
    <latitude>3.0191667</latitude>
    <longitude>30.9308333</longitude>
  </city>
  <city name="Arubela">
    <latitude>1.8333333</latitude>
    <longitude>34.0</longitude>
  </city>
  <city name="Aryawo">
    <latitude>1.9</latitude>
    <longitude>33.9833333</longitude>
  </city>
  <city name="Aryek">
    <latitude>2.5333333</latitude>
    <longitude>31.0833333</longitude>
  </city>
  <city name="Asalatap">
    <latitude>1.8666667</latitude>
    <longitude>33.7666667</longitude>
  </city>
  <city name="Asamuk">
    <latitude>1.9572222</latitude>
    <longitude>33.7047222</longitude>
  </city>
  <city name="Asasi">
    <latitude>2.7166667</latitude>
    <longitude>30.8333333</longitude>
  </city>
  <city name="Asilanga">
    <latitude>1.9</latitude>
    <longitude>33.8166667</longitude>
  </city>
  <city name="Asilang">
    <latitude>1.9333333</latitude>
    <longitude>33.8</longitude>
  </city>
  <city name="Asilanyi">
    <latitude>1.9333333</latitude>
    <longitude>33.8</longitude>
  </city>
  <city name="Asinge">
    <latitude>1.5833333</latitude>
    <longitude>33.9</longitude>
  </city>
  <city name="Asingero">
    <latitude>1.8333333</latitude>
    <longitude>33.8166667</longitude>
  </city>
  <city name="Asinye">
    <latitude>0.7333333</latitude>
    <longitude>34.25</longitude>
  </city>
  <city name="Asiranyi">
    <latitude>1.5666667</latitude>
    <longitude>33.5666667</longitude>
  </city>
  <city name="Asuret">
    <latitude>1.9833333</latitude>
    <longitude>33.95</longitude>
  </city>
  <city name="Aswa">
    <latitude>2.9666667</latitude>
    <longitude>32.6</longitude>
  </city>
  <city name="Atagi Apari">
    <latitude>1.9666667</latitude>
    <longitude>32.7833333</longitude>
  </city>
  <city name="Atana">
    <latitude>1.9833333</latitude>
    <longitude>32.6333333</longitude>
  </city>
  <city name="Atanga">
    <latitude>3.0111111</latitude>
    <longitude>32.7738889</longitude>
  </city>
  <city name="Atapara">
    <latitude>1.5833333</latitude>
    <longitude>33.75</longitude>
  </city>
  <city name="Atar">
    <latitude>2.45</latitude>
    <longitude>31.4166667</longitude>
  </city>
  <city name="Atari">
    <latitude>1.5</latitude>
    <longitude>34.4333333</longitude>
  </city>
  <city name="Ateka Ober">
    <latitude>1.9333333</latitude>
    <longitude>32.8</longitude>
  </city>
  <city name="Atek">
    <latitude>2.2833333</latitude>
    <longitude>32.6333333</longitude>
  </city>
  <city name="Atera">
    <latitude>1.6763889</latitude>
    <longitude>32.2411111</longitude>
  </city>
  <city name="Aterai">
    <latitude>1.4333333</latitude>
    <longitude>33.9333333</longitude>
  </city>
  <city name="Aterodri">
    <latitude>3.1833333</latitude>
    <longitude>30.8333333</longitude>
  </city>
  <city name="Ateusu">
    <latitude>2.1166667</latitude>
    <longitude>33.75</longitude>
  </city>
  <city name="Atiak">
    <latitude>3.245</latitude>
    <longitude>32.1411111</longitude>
  </city>
  <city name="Atigo">
    <latitude>1.8666667</latitude>
    <longitude>33.2</longitude>
  </city>
  <city name="Atika">
    <latitude>3.0641667</latitude>
    <longitude>32.8369444</longitude>
  </city>
  <city name="Atine">
    <latitude>1.8833333</latitude>
    <longitude>33.45</longitude>
  </city>
  <city name="Atira">
    <latitude>1.5766667</latitude>
    <longitude>33.5155556</longitude>
  </city>
  <city name="Atiri">
    <latitude>0.7666667</latitude>
    <longitude>34.1833333</longitude>
  </city>
  <city name="Atiriri">
    <latitude>1.8802778</latitude>
    <longitude>33.4680556</longitude>
  </city>
  <city name="Atongpara">
    <latitude>1.8666667</latitude>
    <longitude>33.1833333</longitude>
  </city>
  <city name="Atopi">
    <latitude>1.9666667</latitude>
    <longitude>32.4833333</longitude>
  </city>
  <city name="Atoto">
    <latitude>1.4</latitude>
    <longitude>33.7833333</longitude>
  </city>
  <city name="Atratraka">
    <latitude>3.15</latitude>
    <longitude>30.8333333</longitude>
  </city>
  <city name="Attiak">
    <latitude>2.5833333</latitude>
    <longitude>30.9333333</longitude>
  </city>
  <city name="Atuboi">
    <latitude>1.8941667</latitude>
    <longitude>33.2988889</longitude>
  </city>
  <city name="Atuli">
    <latitude>1.7</latitude>
    <longitude>32.5833333</longitude>
  </city>
  <city name="Atumba">
    <latitude>1.8833333</latitude>
    <longitude>32.7833333</longitude>
  </city>
  <city name="Atura">
    <latitude>2.1194444</latitude>
    <longitude>32.3438889</longitude>
  </city>
  <city name="Aturituri">
    <latitude>1.45</latitude>
    <longitude>33.9833333</longitude>
  </city>
  <city name="Atutur">
    <latitude>1.3166667</latitude>
    <longitude>33.95</longitude>
  </city>
  <city name="Atuturi">
    <latitude>1.3166667</latitude>
    <longitude>33.95</longitude>
  </city>
  <city name="Atyak">
    <latitude>2.5833333</latitude>
    <longitude>30.9333333</longitude>
  </city>
  <city name="Atyenda">
    <latitude>2.4833333</latitude>
    <longitude>30.8833333</longitude>
  </city>
  <city name="Aukot">
    <latitude>0.7833333</latitude>
    <longitude>34.1833333</longitude>
  </city>
  <city name="Aukoto">
    <latitude>0.7833333</latitude>
    <longitude>34.1833333</longitude>
  </city>
  <city name="Aupi">
    <latitude>3.35</latitude>
    <longitude>31.1333333</longitude>
  </city>
  <city name="Auwara">
    <latitude>2.7</latitude>
    <longitude>30.8833333</longitude>
  </city>
  <city name="Awach">
    <latitude>3.0</latitude>
    <longitude>32.4</longitude>
  </city>
  <city name="Awaliwali">
    <latitude>1.8</latitude>
    <longitude>33.7333333</longitude>
  </city>
  <city name="Awei">
    <latitude>2.0</latitude>
    <longitude>32.7833333</longitude>
  </city>
  <city name="Awelo">
    <latitude>1.7166667</latitude>
    <longitude>32.7666667</longitude>
  </city>
  <city name="Awer">
    <latitude>2.8102778</latitude>
    <longitude>32.1905556</longitude>
  </city>
  <city name="Awere">
    <latitude>2.7166667</latitude>
    <longitude>32.8333333</longitude>
  </city>
  <city name="Awika">
    <latitude>2.85</latitude>
    <longitude>30.9833333</longitude>
  </city>
  <city name="Awila">
    <latitude>1.765</latitude>
    <longitude>32.3736111</longitude>
  </city>
  <city name="Awilodyang">
    <latitude>1.7833333</latitude>
    <longitude>32.4666667</longitude>
  </city>
  <city name="Awir">
    <latitude>1.9666667</latitude>
    <longitude>32.65</longitude>
  </city>
  <city name="Awiri">
    <latitude>1.9666667</latitude>
    <longitude>33.2</longitude>
  </city>
  <city name="Awoja">
    <latitude>1.6666667</latitude>
    <longitude>33.7333333</longitude>
  </city>
  <city name="Awojabule">
    <latitude>2.05</latitude>
    <longitude>33.9666667</longitude>
  </city>
  <city name="Awojaito">
    <latitude>2.1833333</latitude>
    <longitude>33.55</longitude>
  </city>
  <city name="Awojaitoi">
    <latitude>2.1833333</latitude>
    <longitude>33.55</longitude>
  </city>
  <city name="Ayabi">
    <latitude>1.8827778</latitude>
    <longitude>32.9172222</longitude>
  </city>
  <city name="Ayago">
    <latitude>1.8166667</latitude>
    <longitude>32.4666667</longitude>
  </city>
  <city name="Ayavu">
    <latitude>2.9</latitude>
    <longitude>31.2</longitude>
  </city>
  <city name="Ayera">
    <latitude>1.8166667</latitude>
    <longitude>32.3666667</longitude>
  </city>
  <city name="Ayer">
    <latitude>2.2602778</latitude>
    <longitude>32.6958333</longitude>
  </city>
  <city name="Ayiroyat">
    <latitude>1.9333333</latitude>
    <longitude>32.8666667</longitude>
  </city>
  <city name="Ayivu">
    <latitude>3.0622222</latitude>
    <longitude>30.9441667</longitude>
  </city>
  <city name="Ayola">
    <latitude>2.05</latitude>
    <longitude>33.75</longitude>
  </city>
  <city name="Ayongtoke">
    <latitude>3.1166667</latitude>
    <longitude>33.6666667</longitude>
  </city>
  <city name="Ayoni">
    <latitude>1.8</latitude>
    <longitude>33.05</longitude>
  </city>
  <city name="Ayumi">
    <latitude>1.8666667</latitude>
    <longitude>32.4666667</longitude>
  </city>
  <city name="Baduda">
    <latitude>0.9966667</latitude>
    <longitude>34.3308333</longitude>
  </city>
  <city name="Badyang">
    <latitude>2.0333333</latitude>
    <longitude>32.9</longitude>
  </city>
  <city name="Bagambira">
    <latitude>1.2833333</latitude>
    <longitude>32.6833333</longitude>
  </city>
  <city name="Bagedza">
    <latitude>0.55</latitude>
    <longitude>31.35</longitude>
  </city>
  <city name="Bageza">
    <latitude>0.55</latitude>
    <longitude>31.35</longitude>
  </city>
  <city name="Bahati">
    <latitude>-1.3</latitude>
    <longitude>29.7666667</longitude>
  </city>
  <city name="Baitambogwe">
    <latitude>0.55</latitude>
    <longitude>33.4</longitude>
  </city>
  <city name="Bajo">
    <latitude>1.2</latitude>
    <longitude>32.8666667</longitude>
  </city>
  <city name="Bakijurura">
    <latitude>-0.5666667</latitude>
    <longitude>30.9333333</longitude>
  </city>
  <city name="Bala">
    <latitude>2.1661111</latitude>
    <longitude>32.755</longitude>
  </city>
  <city name="Balabala">
    <latitude>0.0333333</latitude>
    <longitude>32.2833333</longitude>
  </city>
  <city name="Balanga">
    <latitude>2.15</latitude>
    <longitude>33.5666667</longitude>
  </city>
  <city name="Balawoli">
    <latitude>1.0286111</latitude>
    <longitude>33.0927778</longitude>
  </city>
  <city name="Bale">
    <latitude>1.4333333</latitude>
    <longitude>32.0333333</longitude>
  </city>
  <city name="Balimanyanka">
    <latitude>-0.4</latitude>
    <longitude>31.4166667</longitude>
  </city>
  <city name="Balimanyankya">
    <latitude>-0.4</latitude>
    <longitude>31.4166667</longitude>
  </city>
  <city name="Balinga">
    <latitude>2.1727778</latitude>
    <longitude>33.5827778</longitude>
  </city>
  <city name="Balita">
    <latitude>0.85</latitude>
    <longitude>32.5666667</longitude>
  </city>
  <city name="Bamasuta">
    <latitude>0.6333333</latitude>
    <longitude>32.4833333</longitude>
  </city>
  <city name="Bamba">
    <latitude>0.4333333</latitude>
    <longitude>32.5666667</longitude>
  </city>
  <city name="Bamunanika">
    <latitude>0.6883333</latitude>
    <longitude>32.6077778</longitude>
  </city>
  <city name="Bamusuta">
    <latitude>1.1166667</latitude>
    <longitude>32.95</longitude>
  </city>
  <city name="Banagonera">
    <latitude>0.9833333</latitude>
    <longitude>32.8833333</longitude>
  </city>
  <city name="Banda">
    <latitude>0.6833333</latitude>
    <longitude>31.05</longitude>
  </city>
  <city name="Banga">
    <latitude>0.15</latitude>
    <longitude>32.2666667</longitude>
  </city>
  <city name="Barabili">
    <latitude>2.6830556</latitude>
    <longitude>32.3302778</longitude>
  </city>
  <city name="Barakala">
    <latitude>3.4833333</latitude>
    <longitude>31.3166667</longitude>
  </city>
  <city name="Bar">
    <latitude>2.2227778</latitude>
    <longitude>33.0638889</longitude>
  </city>
  <city name="Baribu">
    <latitude>2.7</latitude>
    <longitude>31.15</longitude>
  </city>
  <city name="Baringa">
    <latitude>3.55</latitude>
    <longitude>31.4333333</longitude>
  </city>
  <city name="Barogal">
    <latitude>2.6166667</latitude>
    <longitude>32.3333333</longitude>
  </city>
  <city name="Bata">
    <latitude>2.0261111</latitude>
    <longitude>33.2216667</longitude>
  </city>
  <city name="Batambogwe">
    <latitude>0.55</latitude>
    <longitude>33.4</longitude>
  </city>
  <city name="Bawalakata">
    <latitude>0.8666667</latitude>
    <longitude>32.3333333</longitude>
  </city>
  <city name="Bbanda">
    <latitude>0.45</latitude>
    <longitude>32.4833333</longitude>
  </city>
  <city name="Bbuto">
    <latitude>0.6786111</latitude>
    <longitude>32.6080556</longitude>
  </city>
  <city name="Behungi">
    <latitude>-1.2833333</latitude>
    <longitude>29.8</longitude>
  </city>
  <city name="Bekina">
    <latitude>1.05</latitude>
    <longitude>31.65</longitude>
  </city>
  <city name="Bembe">
    <latitude>0.6166667</latitude>
    <longitude>32.55</longitude>
  </city>
  <city name="Bendegere">
    <latitude>0.7333333</latitude>
    <longitude>32.3166667</longitude>
  </city>
  <city name="Beta">
    <latitude>-0.3</latitude>
    <longitude>32.1333333</longitude>
  </city>
  <city name="Bezinya">
    <latitude>0.05</latitude>
    <longitude>32.0833333</longitude>
  </city>
  <city name="Bezinza">
    <latitude>-0.2666667</latitude>
    <longitude>30.9833333</longitude>
  </city>
  <city name="Bibo">
    <latitude>0.35</latitude>
    <longitude>32.8833333</longitude>
  </city>
  <city name="Biemba">
    <latitude>0.4166667</latitude>
    <longitude>33.45</longitude>
  </city>
  <city name="Bigada">
    <latitude>-0.8666667</latitude>
    <longitude>31.4333333</longitude>
  </city>
  <city name="Bigando">
    <latitude>-0.65</latitude>
    <longitude>31.3833333</longitude>
  </city>
  <city name="Bigasa">
    <latitude>-0.0855556</latitude>
    <longitude>31.6291667</longitude>
  </city>
  <city name="Bigodi">
    <latitude>0.4</latitude>
    <longitude>30.4166667</longitude>
  </city>
  <city name="Biguri">
    <latitude>0.3333333</latitude>
    <longitude>30.7833333</longitude>
  </city>
  <city name="Bigusha">
    <latitude>0.1</latitude>
    <longitude>30.6666667</longitude>
  </city>
  <city name="Bigushu">
    <latitude>0.1</latitude>
    <longitude>30.6666667</longitude>
  </city>
  <city name="Bigyera">
    <latitude>-0.0594444</latitude>
    <longitude>30.4516667</longitude>
  </city>
  <city name="Bihairwe">
    <latitude>-0.5441667</latitude>
    <longitude>30.8</longitude>
  </city>
  <city name="Bihalrwe">
    <latitude>-0.5441667</latitude>
    <longitude>30.8</longitude>
  </city>
  <city name="Bihanga">
    <latitude>-1.2833333</latitude>
    <longitude>29.6666667</longitude>
  </city>
  <city name="Biharwe">
    <latitude>-0.5441667</latitude>
    <longitude>30.8</longitude>
  </city>
  <city name="Bika">
    <latitude>0.5166667</latitude>
    <longitude>32.3833333</longitude>
  </city>
  <city name="Bikira">
    <latitude>-0.6222222</latitude>
    <longitude>31.5688889</longitude>
  </city>
  <city name="Biko">
    <latitude>0.7666667</latitude>
    <longitude>31.9333333</longitude>
  </city>
  <city name="Bikongoro">
    <latitude>2.1666667</latitude>
    <longitude>31.4166667</longitude>
  </city>
  <city name="Bikongozo">
    <latitude>-1.0166667</latitude>
    <longitude>29.9333333</longitude>
  </city>
  <city name="Bikonzi">
    <latitude>1.6036111</latitude>
    <longitude>31.685</longitude>
  </city>
  <city name="Bilefe">
    <latitude>3.0672222</latitude>
    <longitude>31.105</longitude>
  </city>
  <city name="Biliefe">
    <latitude>3.0672222</latitude>
    <longitude>31.105</longitude>
  </city>
  <city name="Binambo">
    <latitude>0.9</latitude>
    <longitude>31.1</longitude>
  </city>
  <city name="Bingo">
    <latitude>0.9333333</latitude>
    <longitude>33.8666667</longitude>
  </city>
  <city name="Binikira">
    <latitude>-0.2833333</latitude>
    <longitude>31.15</longitude>
  </city>
  <city name="Binoni">
    <latitude>-0.7</latitude>
    <longitude>31.6</longitude>
  </city>
  <city name="Binyin">
    <latitude>1.4166667</latitude>
    <longitude>34.5333333</longitude>
  </city>
  <city name="Binyiny">
    <latitude>1.4166667</latitude>
    <longitude>34.5333333</longitude>
  </city>
  <city name="Bira">
    <latitude>0.7</latitude>
    <longitude>34.0833333</longitude>
  </city>
  <city name="Birembo">
    <latitude>-1.0</latitude>
    <longitude>30.6333333</longitude>
  </city>
  <city name="Birere">
    <latitude>-0.4369444</latitude>
    <longitude>30.4383333</longitude>
  </city>
  <city name="Biria">
    <latitude>3.2166667</latitude>
    <longitude>31.4166667</longitude>
  </city>
  <city name="Birinuma">
    <latitude>-0.4333333</latitude>
    <longitude>31.35</longitude>
  </city>
  <city name="Birinzi">
    <latitude>-0.25</latitude>
    <longitude>31.8833333</longitude>
  </city>
  <city name="Birongo">
    <latitude>-0.0166667</latitude>
    <longitude>31.8</longitude>
  </city>
  <city name="Birunduma">
    <latitude>-0.7905556</latitude>
    <longitude>31.0608333</longitude>
  </city>
  <city name="Birundumu">
    <latitude>-0.7905556</latitude>
    <longitude>31.0608333</longitude>
  </city>
  <city name="Birunuma">
    <latitude>-0.7905556</latitude>
    <longitude>31.0608333</longitude>
  </city>
  <city name="Biruruma">
    <latitude>-0.4333333</latitude>
    <longitude>31.35</longitude>
  </city>
  <city name="Bisanje">
    <latitude>-0.65</latitude>
    <longitude>31.65</longitude>
  </city>
  <city name="Biseruka">
    <latitude>1.5827778</latitude>
    <longitude>31.1188889</longitude>
  </city>
  <city name="Bisheshe">
    <latitude>-0.0794444</latitude>
    <longitude>30.5241667</longitude>
  </city>
  <city name="Biso">
    <latitude>1.7563889</latitude>
    <longitude>31.4208333</longitude>
  </city>
  <city name="Bisozi">
    <latitude>0.3125</latitude>
    <longitude>30.5772222</longitude>
  </city>
  <city name="Bisu">
    <latitude>1.7563889</latitude>
    <longitude>31.4208333</longitude>
  </city>
  <city name="Bisya">
    <latitude>-0.3</latitude>
    <longitude>30.4666667</longitude>
  </city>
  <city name="Bisyoro">
    <latitude>0.1333333</latitude>
    <longitude>30.8833333</longitude>
  </city>
  <city name="Bitbyamukasa">
    <latitude>0.2833333</latitude>
    <longitude>31.5666667</longitude>
  </city>
  <city name="Bitereko">
    <latitude>-0.5641667</latitude>
    <longitude>29.9727778</longitude>
  </city>
  <city name="Bitezi">
    <latitude>-0.6666667</latitude>
    <longitude>30.5666667</longitude>
  </city>
  <city name="Biti">
    <latitude>-0.6833333</latitude>
    <longitude>30.4</longitude>
  </city>
  <city name="Bitibyamukasa">
    <latitude>0.2833333</latitude>
    <longitude>31.5666667</longitude>
  </city>
  <city name="Biwa">
    <latitude>-1.0</latitude>
    <longitude>31.35</longitude>
  </city>
  <city name="Biwanga">
    <latitude>1.0666667</latitude>
    <longitude>32.15</longitude>
  </city>
  <city name="Biwolobo">
    <latitude>-0.45</latitude>
    <longitude>31.1833333</longitude>
  </city>
  <city name="Biyiyi">
    <latitude>-0.5333333</latitude>
    <longitude>31.25</longitude>
  </city>
  <city name="Bizera">
    <latitude>-0.9</latitude>
    <longitude>30.8666667</longitude>
  </city>
  <city name="Bizinza">
    <latitude>-0.2666667</latitude>
    <longitude>30.9833333</longitude>
  </city>
  <city name="Bobi">
    <latitude>2.5572222</latitude>
    <longitude>32.3677778</longitude>
  </city>
  <city name="Boliso">
    <latitude>1.1333333</latitude>
    <longitude>33.75</longitude>
  </city>
  <city name="Bombo">
    <latitude>0.65</latitude>
    <longitude>32.1</longitude>
  </city>
  <city name="Bomwega">
    <latitude>0.8666667</latitude>
    <longitude>34.4333333</longitude>
  </city>
  <city name="Bomwege">
    <latitude>0.8666667</latitude>
    <longitude>34.4333333</longitude>
  </city>
  <city name="Bondo">
    <latitude>2.8227778</latitude>
    <longitude>31.0127778</longitude>
  </city>
  <city name="Boro">
    <latitude>2.3333333</latitude>
    <longitude>31.3666667</longitude>
  </city>
  <city name="Boroboro">
    <latitude>2.1816667</latitude>
    <longitude>32.9183333</longitude>
  </city>
  <city name="Bowa">
    <latitude>0.6644444</latitude>
    <longitude>32.4638889</longitude>
  </city>
  <city name="Buambara">
    <latitude>-0.6472222</latitude>
    <longitude>29.8277778</longitude>
  </city>
  <city name="Bubada">
    <latitude>0.7227778</latitude>
    <longitude>33.8838889</longitude>
  </city>
  <city name="Bubale">
    <latitude>-1.2091667</latitude>
    <longitude>29.9347222</longitude>
  </city>
  <city name="Bubanda">
    <latitude>0.2733333</latitude>
    <longitude>31.2497222</longitude>
  </city>
  <city name="Bubandi">
    <latitude>0.65</latitude>
    <longitude>29.9833333</longitude>
  </city>
  <city name="Bubango">
    <latitude>0.75</latitude>
    <longitude>31.0333333</longitude>
  </city>
  <city name="Bubanyi">
    <latitude>0.2166667</latitude>
    <longitude>33.85</longitude>
  </city>
  <city name="Bubanzi">
    <latitude>0.2833333</latitude>
    <longitude>32.1833333</longitude>
  </city>
  <city name="Bubba">
    <latitude>-0.75</latitude>
    <longitude>31.35</longitude>
  </city>
  <city name="Bubbala">
    <latitude>0.6666667</latitude>
    <longitude>33.65</longitude>
  </city>
  <city name="Bube">
    <latitude>-0.4666667</latitude>
    <longitude>32.2666667</longitude>
  </city>
  <city name="Bubenge">
    <latitude>0.5666667</latitude>
    <longitude>33.5833333</longitude>
  </city>
  <city name="Bubengwa">
    <latitude>0.7</latitude>
    <longitude>32.7333333</longitude>
  </city>
  <city name="Bubilabi">
    <latitude>1.0333333</latitude>
    <longitude>34.2166667</longitude>
  </city>
  <city name="Bubinga">
    <latitude>0.5666667</latitude>
    <longitude>33.5833333</longitude>
  </city>
  <city name="Bubiro">
    <latitude>0.2</latitude>
    <longitude>33.05</longitude>
  </city>
  <city name="Bubogo">
    <latitude>0.6666667</latitude>
    <longitude>33.4666667</longitude>
  </city>
  <city name="Bubohi">
    <latitude>0.5833333</latitude>
    <longitude>33.9333333</longitude>
  </city>
  <city name="Bubonge">
    <latitude>0.5666667</latitude>
    <longitude>33.5833333</longitude>
  </city>
  <city name="Bubotyo">
    <latitude>0.1</latitude>
    <longitude>29.8</longitude>
  </city>
  <city name="Bububi">
    <latitude>0.7666667</latitude>
    <longitude>32.6833333</longitude>
  </city>
  <city name="Bubuke">
    <latitude>0.8833333</latitude>
    <longitude>33.8</longitude>
  </city>
  <city name="Bubukwanga">
    <latitude>0.7666667</latitude>
    <longitude>30.05</longitude>
  </city>
  <city name="Bubule">
    <latitude>0.1666667</latitude>
    <longitude>32.2833333</longitude>
  </city>
  <city name="Bubulo">
    <latitude>0.9416667</latitude>
    <longitude>34.2794444</longitude>
  </city>
  <city name="Bubulu">
    <latitude>0.9416667</latitude>
    <longitude>34.2794444</longitude>
  </city>
  <city name="Bubungi">
    <latitude>1.0833333</latitude>
    <longitude>34.3333333</longitude>
  </city>
  <city name="Bubutu">
    <latitude>0.8163889</latitude>
    <longitude>34.3247222</longitude>
  </city>
  <city name="Bubutya">
    <latitude>0.75</latitude>
    <longitude>33.7166667</longitude>
  </city>
  <city name="Bubwa">
    <latitude>0.1166667</latitude>
    <longitude>32.9</longitude>
  </city>
  <city name="Bubwoki">
    <latitude>0.5833333</latitude>
    <longitude>33.9333333</longitude>
  </city>
  <city name="Buchundu">
    <latitude>-1.05</latitude>
    <longitude>29.95</longitude>
  </city>
  <city name="Buchundura">
    <latitude>-1.05</latitude>
    <longitude>29.95</longitude>
  </city>
  <city name="Bucumbi">
    <latitude>0.8166667</latitude>
    <longitude>31.3833333</longitude>
  </city>
  <city name="Budaba">
    <latitude>0.9</latitude>
    <longitude>33.8166667</longitude>
  </city>
  <city name="Budadiri">
    <latitude>1.1480556</latitude>
    <longitude>34.3261111</longitude>
  </city>
  <city name="Budaka">
    <latitude>1.0038889</latitude>
    <longitude>33.9255556</longitude>
  </city>
  <city name="Budale">
    <latitude>1.0833333</latitude>
    <longitude>32.95</longitude>
  </city>
  <city name="Budali">
    <latitude>0.5166667</latitude>
    <longitude>32.25</longitude>
  </city>
  <city name="Budatenwa">
    <latitude>0.8333333</latitude>
    <longitude>33.1666667</longitude>
  </city>
  <city name="Budatu">
    <latitude>0.9</latitude>
    <longitude>33.5833333</longitude>
  </city>
  <city name="Budda">
    <latitude>-0.3</latitude>
    <longitude>31.7</longitude>
  </city>
  <city name="Budde">
    <latitude>0.1166667</latitude>
    <longitude>32.1833333</longitude>
  </city>
  <city name="Bude">
    <latitude>0.1166667</latitude>
    <longitude>32.1833333</longitude>
  </city>
  <city name="Budehe">
    <latitude>0.9833333</latitude>
    <longitude>33.5</longitude>
  </city>
  <city name="Budembe">
    <latitude>0.6666667</latitude>
    <longitude>33.85</longitude>
  </city>
  <city name="Budikidi">
    <latitude>0.4</latitude>
    <longitude>33.9333333</longitude>
  </city>
  <city name="Budimu">
    <latitude>0.2833333</latitude>
    <longitude>34.0166667</longitude>
  </city>
  <city name="Budini">
    <latitude>0.9166667</latitude>
    <longitude>33.5166667</longitude>
  </city>
  <city name="Budola">
    <latitude>1.1666667</latitude>
    <longitude>33.2833333</longitude>
  </city>
  <city name="Budondo">
    <latitude>0.5155556</latitude>
    <longitude>33.165</longitude>
  </city>
  <city name="Budongo">
    <latitude>1.6316667</latitude>
    <longitude>31.5591667</longitude>
  </city>
  <city name="Bududa">
    <latitude>0.9966667</latitude>
    <longitude>34.3308333</longitude>
  </city>
  <city name="Budumba">
    <latitude>0.8186111</latitude>
    <longitude>33.8544444</longitude>
  </city>
  <city name="Buduna">
    <latitude>0.8</latitude>
    <longitude>33.7833333</longitude>
  </city>
  <city name="Budzi">
    <latitude>1.25</latitude>
    <longitude>31.95</longitude>
  </city>
  <city name="Budzibwera">
    <latitude>0.9166667</latitude>
    <longitude>32.6666667</longitude>
  </city>
  <city name="Bufindi">
    <latitude>-1.345</latitude>
    <longitude>29.8502778</longitude>
  </city>
  <city name="Bufumbo">
    <latitude>1.0438889</latitude>
    <longitude>34.2583333</longitude>
  </city>
  <city name="Bufumira">
    <latitude>-0.3333333</latitude>
    <longitude>32.3833333</longitude>
  </city>
  <city name="Bufundi">
    <latitude>-1.345</latitude>
    <longitude>29.8502778</longitude>
  </city>
  <city name="Bugaba">
    <latitude>1.1666667</latitude>
    <longitude>31.5833333</longitude>
  </city>
  <city name="Bugabe">
    <latitude>0.5333333</latitude>
    <longitude>32.9833333</longitude>
  </city>
  <city name="Bugadi">
    <latitude>0.3141667</latitude>
    <longitude>33.4897222</longitude>
  </city>
  <city name="Bugaia">
    <latitude>0.6166667</latitude>
    <longitude>33.3166667</longitude>
  </city>
  <city name="Bugai">
    <latitude>0.5833333</latitude>
    <longitude>33.9166667</longitude>
  </city>
  <city name="Bugaju">
    <latitude>-0.4666667</latitude>
    <longitude>31.5833333</longitude>
  </city>
  <city name="Bugalama">
    <latitude>-0.4925</latitude>
    <longitude>30.265</longitude>
  </city>
  <city name="Bugalamwa">
    <latitude>1.5333333</latitude>
    <longitude>32.0333333</longitude>
  </city>
  <city name="Bugamba">
    <latitude>-0.7408333</latitude>
    <longitude>30.5233333</longitude>
  </city>
  <city name="Bugambe">
    <latitude>1.3833333</latitude>
    <longitude>31.25</longitude>
  </city>
  <city name="Bugambira">
    <latitude>-1.1166667</latitude>
    <longitude>29.7</longitude>
  </city>
  <city name="Bugambo">
    <latitude>0.8833333</latitude>
    <longitude>33.4166667</longitude>
  </city>
  <city name="Bugana">
    <latitude>2.0652778</latitude>
    <longitude>31.5241667</longitude>
  </city>
  <city name="Buganga">
    <latitude>0.0033333</latitude>
    <longitude>31.98</longitude>
  </city>
  <city name="Bugangari">
    <latitude>-0.7641667</latitude>
    <longitude>29.8744444</longitude>
  </city>
  <city name="Buganja">
    <latitude>0.7333333</latitude>
    <longitude>33.9333333</longitude>
  </city>
  <city name="Buganyi">
    <latitude>0.8</latitude>
    <longitude>31.5666667</longitude>
  </city>
  <city name="Buganza">
    <latitude>-0.8625</latitude>
    <longitude>30.9225</longitude>
  </city>
  <city name="Bugarama">
    <latitude>-0.4925</latitude>
    <longitude>30.265</longitude>
  </city>
  <city name="Bugata">
    <latitude>0.3</latitude>
    <longitude>33.5333333</longitude>
  </city>
  <city name="Bugaya">
    <latitude>0.6166667</latitude>
    <longitude>33.3166667</longitude>
  </city>
  <city name="Bugayuwa">
    <latitude>0.9</latitude>
    <longitude>33.0333333</longitude>
  </city>
  <city name="Bugela">
    <latitude>-0.9166667</latitude>
    <longitude>31.7166667</longitude>
  </city>
  <city name="Bugema">
    <latitude>1.0333333</latitude>
    <longitude>34.1666667</longitude>
  </city>
  <city name="Bugembe">
    <latitude>1.4833333</latitude>
    <longitude>32.0</longitude>
  </city>
  <city name="Bugenge">
    <latitude>-0.2166667</latitude>
    <longitude>31.5333333</longitude>
  </city>
  <city name="Bugera">
    <latitude>-0.9166667</latitude>
    <longitude>31.7166667</longitude>
  </city>
  <city name="Bugere">
    <latitude>-0.5666667</latitude>
    <longitude>31.6833333</longitude>
  </city>
  <city name="Bugeye">
    <latitude>1.1166667</latitude>
    <longitude>32.2666667</longitude>
  </city>
  <city name="Bugeyuwa">
    <latitude>0.9</latitude>
    <longitude>33.0333333</longitude>
  </city>
  <city name="Bugigi">
    <latitude>0.25</latitude>
    <longitude>32.75</longitude>
  </city>
  <city name="Buginyanya">
    <latitude>1.2133333</latitude>
    <longitude>34.3930556</longitude>
  </city>
  <city name="Bugiri">
    <latitude>1.0833333</latitude>
    <longitude>33.7166667</longitude>
  </city>
  <city name="Bugitimwa">
    <latitude>1.15</latitude>
    <longitude>34.4</longitude>
  </city>
  <city name="Bugoba">
    <latitude>0.6666667</latitude>
    <longitude>33.3666667</longitude>
  </city>
  <city name="Bugobango">
    <latitude>0.1</latitude>
    <longitude>31.9166667</longitude>
  </city>
  <city name="Bugobero">
    <latitude>0.8602778</latitude>
    <longitude>34.2555556</longitude>
  </city>
  <city name="Bugobi">
    <latitude>0.7166667</latitude>
    <longitude>33.7719444</longitude>
  </city>
  <city name="Bugodo">
    <latitude>0.95</latitude>
    <longitude>33.55</longitude>
  </city>
  <city name="Bugoigo">
    <latitude>1.9</latitude>
    <longitude>31.4</longitude>
  </city>
  <city name="Bugole">
    <latitude>0.8666667</latitude>
    <longitude>33.3833333</longitude>
  </city>
  <city name="Bugolobi">
    <latitude>0.3166667</latitude>
    <longitude>32.6166667</longitude>
  </city>
  <city name="Bugologolo">
    <latitude>-0.0166667</latitude>
    <longitude>31.05</longitude>
  </city>
  <city name="Bugoma">
    <latitude>0.4319444</latitude>
    <longitude>33.0336111</longitude>
  </city>
  <city name="Bugombe">
    <latitude>-0.0797222</latitude>
    <longitude>32.7613889</longitude>
  </city>
  <city name="Bugombo Mission">
    <latitude>-0.0797222</latitude>
    <longitude>32.7613889</longitude>
  </city>
  <city name="Bugombwa">
    <latitude>0.7</latitude>
    <longitude>30.0666667</longitude>
  </city>
  <city name="Bugomola">
    <latitude>-0.9166667</latitude>
    <longitude>31.3833333</longitude>
  </city>
  <city name="Bugomolo">
    <latitude>-0.9166667</latitude>
    <longitude>31.3833333</longitude>
  </city>
  <city name="Bugomora">
    <latitude>-0.55</latitude>
    <longitude>30.0166667</longitude>
  </city>
  <city name="Bugona">
    <latitude>0.8666667</latitude>
    <longitude>30.95</longitude>
  </city>
  <city name="Bugondo">
    <latitude>1.5905556</latitude>
    <longitude>33.3005556</longitude>
  </city>
  <city name="Bugonge">
    <latitude>-0.7666667</latitude>
    <longitude>29.8</longitude>
  </city>
  <city name="Bugongi">
    <latitude>-0.6330556</latitude>
    <longitude>30.2541667</longitude>
  </city>
  <city name="Bugongo">
    <latitude>0.85</latitude>
    <longitude>33.4</longitude>
  </city>
  <city name="Bugonio">
    <latitude>-0.7666667</latitude>
    <longitude>29.8</longitude>
  </city>
  <city name="Bugonje">
    <latitude>-0.7333333</latitude>
    <longitude>29.8</longitude>
  </city>
  <city name="Bugonyoka">
    <latitude>0.8</latitude>
    <longitude>33.3166667</longitude>
  </city>
  <city name="Bugonzi">
    <latitude>-0.3666667</latitude>
    <longitude>31.3833333</longitude>
  </city>
  <city name="Bugosa">
    <latitude>0.85</latitude>
    <longitude>33.85</longitude>
  </city>
  <city name="Bugoto">
    <latitude>0.3333333</latitude>
    <longitude>33.6166667</longitude>
  </city>
  <city name="Bugoye">
    <latitude>0.3383333</latitude>
    <longitude>30.0772222</longitude>
  </city>
  <city name="Bugubo">
    <latitude>0.55</latitude>
    <longitude>33.8</longitude>
  </city>
  <city name="Bugujju">
    <latitude>0.65</latitude>
    <longitude>31.9666667</longitude>
  </city>
  <city name="Bugulama">
    <latitude>1.0833333</latitude>
    <longitude>31.5</longitude>
  </city>
  <city name="Bugule">
    <latitude>0.4333333</latitude>
    <longitude>33.1</longitude>
  </city>
  <city name="Buguluma">
    <latitude>0.5569444</latitude>
    <longitude>33.2763889</longitude>
  </city>
  <city name="Bugulumbia">
    <latitude>0.8113889</latitude>
    <longitude>33.2111111</longitude>
  </city>
  <city name="Bugumira">
    <latitude>0.7833333</latitude>
    <longitude>33.05</longitude>
  </city>
  <city name="Bugumya">
    <latitude>1.0333333</latitude>
    <longitude>32.9</longitude>
  </city>
  <city name="Bugunda">
    <latitude>0.7833333</latitude>
    <longitude>33.8166667</longitude>
  </city>
  <city name="Bugungu">
    <latitude>0.4</latitude>
    <longitude>33.2</longitude>
  </city>
  <city name="Bugusege">
    <latitude>1.1222222</latitude>
    <longitude>34.2652778</longitude>
  </city>
  <city name="Bugushu">
    <latitude>0.1</latitude>
    <longitude>30.6666667</longitude>
  </city>
  <city name="Bugwa">
    <latitude>1.3</latitude>
    <longitude>34.3333333</longitude>
  </city>
  <city name="Bugwangi">
    <latitude>0.9266667</latitude>
    <longitude>33.9808333</longitude>
  </city>
  <city name="Bugwangoma">
    <latitude>0.5</latitude>
    <longitude>33.7166667</longitude>
  </city>
  <city name="Bugwara">
    <latitude>1.0</latitude>
    <longitude>31.1</longitude>
  </city>
  <city name="Bugwe">
    <latitude>0.9411111</latitude>
    <longitude>33.6002778</longitude>
  </city>
  <city name="Buhanika">
    <latitude>1.4166667</latitude>
    <longitude>31.4166667</longitude>
  </city>
  <city name="Buhara">
    <latitude>-1.3588889</latitude>
    <longitude>30.0330556</longitude>
  </city>
  <city name="Buhehe">
    <latitude>0.3511111</latitude>
    <longitude>34.0247222</longitude>
  </city>
  <city name="Buhera">
    <latitude>-0.2833333</latitude>
    <longitude>30.1</longitude>
  </city>
  <city name="Buhesi">
    <latitude>0.6</latitude>
    <longitude>30.2</longitude>
  </city>
  <city name="Buhimba">
    <latitude>1.3472222</latitude>
    <longitude>31.3080556</longitude>
  </city>
  <city name="Buhinda">
    <latitude>-0.3166667</latitude>
    <longitude>30.0833333</longitude>
  </city>
  <city name="Buhoma">
    <latitude>-0.9666667</latitude>
    <longitude>29.6</longitude>
  </city>
  <city name="Buhugu">
    <latitude>1.2</latitude>
    <longitude>34.3166667</longitude>
  </city>
  <city name="Buhuhra">
    <latitude>0.4</latitude>
    <longitude>30.1166667</longitude>
  </city>
  <city name="Buhuka">
    <latitude>1.2405556</latitude>
    <longitude>30.7588889</longitude>
  </city>
  <city name="Buhungura">
    <latitude>-0.8333333</latitude>
    <longitude>30.7333333</longitude>
  </city>
  <city name="Buhungurua">
    <latitude>-0.8333333</latitude>
    <longitude>30.7333333</longitude>
  </city>
  <city name="Buiga">
    <latitude>0.1</latitude>
    <longitude>32.3333333</longitude>
  </city>
  <city name="Buikwe">
    <latitude>0.3375</latitude>
    <longitude>33.0105556</longitude>
  </city>
  <city name="Builce">
    <latitude>0.35</latitude>
    <longitude>31.9833333</longitude>
  </city>
  <city name="Buinja">
    <latitude>-0.2166667</latitude>
    <longitude>31.6</longitude>
  </city>
  <city name="Buiri">
    <latitude>-0.4</latitude>
    <longitude>32.2333333</longitude>
  </city>
  <city name="Buita">
    <latitude>0.7833333</latitude>
    <longitude>32.7833333</longitude>
  </city>
  <city name="Buitya">
    <latitude>-0.2666667</latitude>
    <longitude>29.8833333</longitude>
  </city>
  <city name="Buiza">
    <latitude>0.9833333</latitude>
    <longitude>32.9666667</longitude>
  </city>
  <city name="Bujabe">
    <latitude>1.5333333</latitude>
    <longitude>32.0833333</longitude>
  </city>
  <city name="Bujagule">
    <latitude>0.9</latitude>
    <longitude>31.2333333</longitude>
  </city>
  <city name="Bujawo">
    <latitude>1.0666667</latitude>
    <longitude>31.0166667</longitude>
  </city>
  <city name="Bujerere">
    <latitude>0.6333333</latitude>
    <longitude>29.9666667</longitude>
  </city>
  <city name="Bujeru">
    <latitude>0.7166667</latitude>
    <longitude>31.1666667</longitude>
  </city>
  <city name="Bujogolo">
    <latitude>0.8333333</latitude>
    <longitude>30.9333333</longitude>
  </city>
  <city name="Bujongolo">
    <latitude>0.45</latitude>
    <longitude>31.9333333</longitude>
  </city>
  <city name="Bujuba">
    <latitude>0.95</latitude>
    <longitude>33.35</longitude>
  </city>
  <city name="Bujugu">
    <latitude>1.1833333</latitude>
    <longitude>33.4333333</longitude>
  </city>
  <city name="Bujugwa">
    <latitude>1.15</latitude>
    <longitude>32.0333333</longitude>
  </city>
  <city name="Bujuko">
    <latitude>0.3355556</latitude>
    <longitude>32.3594444</longitude>
  </city>
  <city name="Bujumba">
    <latitude>-0.3333333</latitude>
    <longitude>32.2833333</longitude>
  </city>
  <city name="Bujuni">
    <latitude>0.7833333</latitude>
    <longitude>31.1</longitude>
  </city>
  <city name="Bujunjuzi">
    <latitude>0.3261111</latitude>
    <longitude>31.5725</longitude>
  </city>
  <city name="Bujunzuzi">
    <latitude>0.3261111</latitude>
    <longitude>31.5725</longitude>
  </city>
  <city name="Bujuta">
    <latitude>0.3833333</latitude>
    <longitude>33.15</longitude>
  </city>
  <city name="Bujuto">
    <latitude>0.3833333</latitude>
    <longitude>33.15</longitude>
  </city>
  <city name="Bujwaya">
    <latitude>0.9333333</latitude>
    <longitude>32.9333333</longitude>
  </city>
  <city name="Bukaana">
    <latitude>-0.1333333</latitude>
    <longitude>31.4666667</longitude>
  </city>
  <city name="Bukabeba">
    <latitude>0.8141667</latitude>
    <longitude>33.9138889</longitude>
  </city>
  <city name="Bukabi">
    <latitude>1.0666667</latitude>
    <longitude>32.5166667</longitude>
  </city>
  <city name="Bukade">
    <latitude>0.54</latitude>
    <longitude>34.0208333</longitude>
  </city>
  <city name="Bukaga">
    <latitude>0.1833333</latitude>
    <longitude>32.1666667</longitude>
  </city>
  <city name="Bukaka">
    <latitude>0.2</latitude>
    <longitude>33.7666667</longitude>
  </city>
  <city name="Bukakata">
    <latitude>-0.3</latitude>
    <longitude>32.0333333</longitude>
  </city>
  <city name="Bukakata Pier">
    <latitude>-0.3</latitude>
    <longitude>32.0333333</longitude>
  </city>
  <city name="Bukalasa">
    <latitude>0.7072222</latitude>
    <longitude>32.5133333</longitude>
  </city>
  <city name="Bukalasi">
    <latitude>1.0052778</latitude>
    <longitude>34.4011111</longitude>
  </city>
  <city name="Bukaleba">
    <latitude>0.4166667</latitude>
    <longitude>33.3833333</longitude>
  </city>
  <city name="Bukaliha">
    <latitude>0.4180556</latitude>
    <longitude>34.0013889</longitude>
  </city>
  <city name="Bukamba">
    <latitude>-0.1577778</latitude>
    <longitude>31.6041667</longitude>
  </city>
  <city name="Bukandula">
    <latitude>0.1666667</latitude>
    <longitude>31.85</longitude>
  </city>
  <city name="Bukanga">
    <latitude>0.7091667</latitude>
    <longitude>33.3577778</longitude>
  </city>
  <city name="Bukangara">
    <latitude>-0.0166667</latitude>
    <longitude>29.8166667</longitude>
  </city>
  <city name="Bukanya">
    <latitude>0.8833333</latitude>
    <longitude>33.35</longitude>
  </city>
  <city name="Bukasaba">
    <latitude>0.3683333</latitude>
    <longitude>34.0305556</longitude>
  </city>
  <city name="Bukasa">
    <latitude>0.55</latitude>
    <longitude>33.3</longitude>
  </city>
  <city name="Bukasero">
    <latitude>0.3833333</latitude>
    <longitude>33.4666667</longitude>
  </city>
  <city name="Bukatira">
    <latitude>0.6</latitude>
    <longitude>32.2833333</longitude>
  </city>
  <city name="Bukatube">
    <latitude>0.4</latitude>
    <longitude>33.4333333</longitude>
  </city>
  <city name="Bukawamala">
    <latitude>0.2833333</latitude>
    <longitude>32.3333333</longitude>
  </city>
  <city name="Bukeda">
    <latitude>0.25</latitude>
    <longitude>33.8833333</longitude>
  </city>
  <city name="Bukedea">
    <latitude>1.3169444</latitude>
    <longitude>34.0505556</longitude>
  </city>
  <city name="Bukemba">
    <latitude>0.3</latitude>
    <longitude>33.75</longitude>
  </city>
  <city name="Bukendi">
    <latitude>0.7666667</latitude>
    <longitude>33.3666667</longitude>
  </city>
  <city name="Bukerere">
    <latitude>0.4333333</latitude>
    <longitude>32.7</longitude>
  </city>
  <city name="Bukeri">
    <latitude>-0.4422222</latitude>
    <longitude>31.7697222</longitude>
  </city>
  <city name="Bukeso">
    <latitude>-0.2166667</latitude>
    <longitude>31.9666667</longitude>
  </city>
  <city name="Bukhabusi">
    <latitude>0.95</latitude>
    <longitude>34.3333333</longitude>
  </city>
  <city name="Bukhalu">
    <latitude>1.3</latitude>
    <longitude>34.25</longitude>
  </city>
  <city name="Bukhasaba">
    <latitude>0.3683333</latitude>
    <longitude>34.0305556</longitude>
  </city>
  <city name="Bukhaweka">
    <latitude>0.9188889</latitude>
    <longitude>34.33</longitude>
  </city>
  <city name="Bukhubalo">
    <latitude>0.4905556</latitude>
    <longitude>33.9313889</longitude>
  </city>
  <city name="Bukiberu">
    <latitude>0.0333333</latitude>
    <longitude>32.4333333</longitude>
  </city>
  <city name="Bukidea">
    <latitude>1.3169444</latitude>
    <longitude>34.0505556</longitude>
  </city>
  <city name="Bukiga">
    <latitude>1.05</latitude>
    <longitude>34.3333333</longitude>
  </city>
  <city name="Bukigai">
    <latitude>1.0030556</latitude>
    <longitude>34.3488889</longitude>
  </city>
  <city name="Bukimbiri">
    <latitude>-1.1955556</latitude>
    <longitude>29.6916667</longitude>
  </city>
  <city name="Bukinda">
    <latitude>-1.2027778</latitude>
    <longitude>30.1241667</longitude>
  </city>
  <city name="Bukindwa">
    <latitude>2.2</latitude>
    <longitude>31.45</longitude>
  </city>
  <city name="Bukiralire">
    <latitude>0.9</latitude>
    <longitude>33.9666667</longitude>
  </city>
  <city name="Bukiro">
    <latitude>-0.0666667</latitude>
    <longitude>30.6333333</longitude>
  </city>
  <city name="Bukito">
    <latitude>1.5666667</latitude>
    <longitude>33.25</longitude>
  </city>
  <city name="Bukiyiti">
    <latitude>1.1333333</latitude>
    <longitude>34.2666667</longitude>
  </city>
  <city name="Buklasi">
    <latitude>1.0052778</latitude>
    <longitude>34.4011111</longitude>
  </city>
  <city name="Bukoba">
    <latitude>1.5</latitude>
    <longitude>31.7833333</longitude>
  </city>
  <city name="Bukobe">
    <latitude>0.435</latitude>
    <longitude>33.9633333</longitude>
  </city>
  <city name="Bukobo">
    <latitude>1.0166667</latitude>
    <longitude>33.3333333</longitude>
  </city>
  <city name="Bukoka">
    <latitude>0.4666667</latitude>
    <longitude>31.9666667</longitude>
  </city>
  <city name="Bukoki">
    <latitude>1.0333333</latitude>
    <longitude>32.1666667</longitude>
  </city>
  <city name="Bukoko">
    <latitude>0.75</latitude>
    <longitude>31.3833333</longitude>
  </city>
  <city name="Bukola">
    <latitude>0.2833333</latitude>
    <longitude>32.0333333</longitude>
  </city>
  <city name="Bukololo">
    <latitude>0.7333333</latitude>
    <longitude>32.2333333</longitude>
  </city>
  <city name="Bukolongo">
    <latitude>-0.6666667</latitude>
    <longitude>30.0833333</longitude>
  </city>
  <city name="Bukoloto">
    <latitude>0.6833333</latitude>
    <longitude>32.9166667</longitude>
  </city>
  <city name="Bukolwa">
    <latitude>0.7333333</latitude>
    <longitude>32.4833333</longitude>
  </city>
  <city name="Bukoma">
    <latitude>0.8716667</latitude>
    <longitude>33.3475</longitude>
  </city>
  <city name="Bukomansimbe">
    <latitude>-0.1577778</latitude>
    <longitude>31.6041667</longitude>
  </city>
  <city name="Bukomansimbi">
    <latitude>-0.1577778</latitude>
    <longitude>31.6041667</longitude>
  </city>
  <city name="Bukomba">
    <latitude>0.9166667</latitude>
    <longitude>32.9666667</longitude>
  </city>
  <city name="Bukomero">
    <latitude>0.6975</latitude>
    <longitude>32.0286111</longitude>
  </city>
  <city name="Bukona">
    <latitude>0.6666667</latitude>
    <longitude>33.55</longitude>
  </city>
  <city name="Bukonda">
    <latitude>0.8166667</latitude>
    <longitude>31.0333333</longitude>
  </city>
  <city name="Bukonde">
    <latitude>1.05</latitude>
    <longitude>33.5333333</longitude>
  </city>
  <city name="Bukongo">
    <latitude>0.3833333</latitude>
    <longitude>31.4333333</longitude>
  </city>
  <city name="Bukongolo">
    <latitude>-0.6666667</latitude>
    <longitude>30.0833333</longitude>
  </city>
  <city name="Bukonyo">
    <latitude>0.1244444</latitude>
    <longitude>29.9119444</longitude>
  </city>
  <city name="Bukoto">
    <latitude>0.35</latitude>
    <longitude>32.6</longitude>
  </city>
  <city name="Bukoyo">
    <latitude>0.5986111</latitude>
    <longitude>33.4608333</longitude>
  </city>
  <city name="Bukuba">
    <latitude>-0.6333333</latitude>
    <longitude>30.7333333</longitude>
  </city>
  <city name="Bukubaituba">
    <latitude>1.1</latitude>
    <longitude>33.3833333</longitude>
  </city>
  <city name="Bukubizi">
    <latitude>0.3544444</latitude>
    <longitude>33.1958333</longitude>
  </city>
  <city name="Buku">
    <latitude>0.0666667</latitude>
    <longitude>32.4333333</longitude>
  </city>
  <city name="Bukuja">
    <latitude>0.3333333</latitude>
    <longitude>32.9333333</longitude>
  </city>
  <city name="Bukuku">
    <latitude>0.5666667</latitude>
    <longitude>32.2666667</longitude>
  </city>
  <city name="Bukulubya">
    <latitude>0.35</latitude>
    <longitude>33.3833333</longitude>
  </city>
  <city name="Bukulula">
    <latitude>-0.1805556</latitude>
    <longitude>31.8488889</longitude>
  </city>
  <city name="Bukumankola">
    <latitude>0.9166667</latitude>
    <longitude>33.5166667</longitude>
  </city>
  <city name="Bukumi">
    <latitude>0.8144444</latitude>
    <longitude>31.3447222</longitude>
  </city>
  <city name="Bukunda">
    <latitude>-0.4833333</latitude>
    <longitude>31.6833333</longitude>
  </city>
  <city name="Bukungu">
    <latitude>1.4183333</latitude>
    <longitude>32.9430556</longitude>
  </city>
  <city name="Bukunja">
    <latitude>0.1166667</latitude>
    <longitude>32.9833333</longitude>
  </city>
  <city name="Bukunya">
    <latitude>0.2333333</latitude>
    <longitude>33.9166667</longitude>
  </city>
  <city name="Bukusi">
    <latitude>0.8113889</latitude>
    <longitude>33.9627778</longitude>
  </city>
  <city name="Bukusu">
    <latitude>0.3530556</latitude>
    <longitude>32.4513889</longitude>
  </city>
  <city name="Bukutaituba">
    <latitude>1.1</latitude>
    <longitude>33.3833333</longitude>
  </city>
  <city name="Bukutu">
    <latitude>0.7833333</latitude>
    <longitude>33.25</longitude>
  </city>
  <city name="Bukutula">
    <latitude>1.2</latitude>
    <longitude>33.3666667</longitude>
  </city>
  <city name="Bukuya">
    <latitude>0.6786111</latitude>
    <longitude>31.8197222</longitude>
  </city>
  <city name="Bukwa">
    <latitude>1.2591667</latitude>
    <longitude>34.7538889</longitude>
  </city>
  <city name="Bukwali">
    <latitude>0.65</latitude>
    <longitude>30.2833333</longitude>
  </city>
  <city name="Bukwanga">
    <latitude>0.7666667</latitude>
    <longitude>30.0666667</longitude>
  </city>
  <city name="Bukwata">
    <latitude>0.4666667</latitude>
    <longitude>32.1666667</longitude>
  </city>
  <city name="Bukwiri">
    <latitude>1.1308333</latitude>
    <longitude>31.5905556</longitude>
  </city>
  <city name="Bukwo">
    <latitude>1.2591667</latitude>
    <longitude>34.7538889</longitude>
  </city>
  <city name="Bukyanju">
    <latitude>-0.6333333</latitude>
    <longitude>31.7666667</longitude>
  </city>
  <city name="Bulagazi">
    <latitude>0.9166667</latitude>
    <longitude>33.7</longitude>
  </city>
  <city name="Bulago">
    <latitude>1.25</latitude>
    <longitude>34.35</longitude>
  </city>
  <city name="Bulagwe">
    <latitude>1.0</latitude>
    <longitude>31.5833333</longitude>
  </city>
  <city name="Bulako">
    <latitude>0.8666667</latitude>
    <longitude>34.2166667</longitude>
  </city>
  <city name="Bulamadzi">
    <latitude>0.6</latitude>
    <longitude>31.45</longitude>
  </city>
  <city name="Bulamagi">
    <latitude>0.9833333</latitude>
    <longitude>31.15</longitude>
  </city>
  <city name="Bulamba">
    <latitude>0.3541667</latitude>
    <longitude>33.8408333</longitude>
  </city>
  <city name="Bulambiro">
    <latitude>0.3833333</latitude>
    <longitude>32.6</longitude>
  </city>
  <city name="Bulambuli">
    <latitude>1.1666667</latitude>
    <longitude>34.3833333</longitude>
  </city>
  <city name="Bulamu">
    <latitude>0.3666667</latitude>
    <longitude>32.3</longitude>
  </city>
  <city name="Bulando">
    <latitude>-0.35</latitude>
    <longitude>31.7666667</longitude>
  </city>
  <city name="Bulanga">
    <latitude>0.5622222</latitude>
    <longitude>33.4088889</longitude>
  </city>
  <city name="Bulange">
    <latitude>0.7288889</latitude>
    <longitude>33.7036111</longitude>
  </city>
  <city name="Bulangi">
    <latitude>1.2</latitude>
    <longitude>32.85</longitude>
  </city>
  <city name="Bulangira">
    <latitude>1.1166667</latitude>
    <longitude>33.9</longitude>
  </city>
  <city name="Bulanku">
    <latitude>0.5933333</latitude>
    <longitude>33.6</longitude>
  </city>
  <city name="Bulasana">
    <latitude>-0.45</latitude>
    <longitude>31.4666667</longitude>
  </city>
  <city name="Bulawula">
    <latitude>-0.1</latitude>
    <longitude>31.8333333</longitude>
  </city>
  <city name="Bulaza">
    <latitude>1.0</latitude>
    <longitude>30.7</longitude>
  </city>
  <city name="Bule">
    <latitude>0.1</latitude>
    <longitude>31.9666667</longitude>
  </city>
  <city name="Bulekeyi">
    <latitude>0.3213889</latitude>
    <longitude>33.9455556</longitude>
  </city>
  <city name="Buleleya">
    <latitude>0.7</latitude>
    <longitude>29.9833333</longitude>
  </city>
  <city name="Bulema">
    <latitude>0.8833333</latitude>
    <longitude>32.0666667</longitude>
  </city>
  <city name="Bulemba">
    <latitude>0.1</latitude>
    <longitude>30.7</longitude>
  </city>
  <city name="Bulembo">
    <latitude>1.4</latitude>
    <longitude>32.9666667</longitude>
  </city>
  <city name="Bulembu">
    <latitude>0.3333333</latitude>
    <longitude>33.5333333</longitude>
  </city>
  <city name="Bulembwe">
    <latitude>1.05</latitude>
    <longitude>32.3</longitude>
  </city>
  <city name="Bulenga">
    <latitude>0.3166667</latitude>
    <longitude>32.5</longitude>
  </city>
  <city name="Bulera">
    <latitude>0.5041667</latitude>
    <longitude>32.0202778</longitude>
  </city>
  <city name="Buliganya">
    <latitude>0.7666667</latitude>
    <longitude>33.4166667</longitude>
  </city>
  <city name="Buligenyi">
    <latitude>1.3</latitude>
    <longitude>34.3166667</longitude>
  </city>
  <city name="Buligi">
    <latitude>0.45</latitude>
    <longitude>31.8833333</longitude>
  </city>
  <city name="Bulimba">
    <latitude>0.8666667</latitude>
    <longitude>33.95</longitude>
  </city>
  <city name="Bulimbale">
    <latitude>-0.3833333</latitude>
    <longitude>31.2</longitude>
  </city>
  <city name="Bulinde">
    <latitude>0.8</latitude>
    <longitude>32.4833333</longitude>
  </city>
  <city name="Bulindi">
    <latitude>1.4763889</latitude>
    <longitude>31.4405556</longitude>
  </city>
  <city name="Bulindo">
    <latitude>0.4333333</latitude>
    <longitude>32.6333333</longitude>
  </city>
  <city name="Bulisa">
    <latitude>2.1791667</latitude>
    <longitude>31.4022222</longitude>
  </city>
  <city name="Buloba">
    <latitude>0.3294444</latitude>
    <longitude>32.4213889</longitude>
  </city>
  <city name="Bulo">
    <latitude>0.1166667</latitude>
    <longitude>32.0</longitude>
  </city>
  <city name="Bulolo">
    <latitude>0.95</latitude>
    <longitude>33.7333333</longitude>
  </city>
  <city name="Bulolombe">
    <latitude>0.0541667</latitude>
    <longitude>33.2716667</longitude>
  </city>
  <city name="Bulonda">
    <latitude>0.4333333</latitude>
    <longitude>32.3666667</longitude>
  </city>
  <city name="Bulondo">
    <latitude>0.45</latitude>
    <longitude>32.4333333</longitude>
  </city>
  <city name="Bulongo">
    <latitude>0.7561111</latitude>
    <longitude>33.3338889</longitude>
  </city>
  <city name="Bulopa">
    <latitude>0.8483333</latitude>
    <longitude>33.2508333</longitude>
  </city>
  <city name="Bulowoza">
    <latitude>0.6</latitude>
    <longitude>33.4333333</longitude>
  </city>
  <city name="Buluba">
    <latitude>0.4833333</latitude>
    <longitude>33.4</longitude>
  </city>
  <city name="Bulubandi">
    <latitude>0.6</latitude>
    <longitude>33.4833333</longitude>
  </city>
  <city name="Bulucheke">
    <latitude>1.0333333</latitude>
    <longitude>34.3833333</longitude>
  </city>
  <city name="Buluchele">
    <latitude>1.0333333</latitude>
    <longitude>34.3833333</longitude>
  </city>
  <city name="Buluganya">
    <latitude>1.2197222</latitude>
    <longitude>34.3477778</longitude>
  </city>
  <city name="Bulugui">
    <latitude>0.5816667</latitude>
    <longitude>33.8913889</longitude>
  </city>
  <city name="Bulukatoni">
    <latitude>3.0166667</latitude>
    <longitude>31.2333333</longitude>
  </city>
  <city name="Buluko">
    <latitude>1.1333333</latitude>
    <longitude>31.2333333</longitude>
  </city>
  <city name="Bulule">
    <latitude>0.2833333</latitude>
    <longitude>33.85</longitude>
  </city>
  <city name="Bulumba">
    <latitude>1.0166667</latitude>
    <longitude>33.45</longitude>
  </city>
  <city name="Bulumbi">
    <latitude>0.4433333</latitude>
    <longitude>34.0608333</longitude>
  </city>
  <city name="Bulumbu">
    <latitude>0.1333333</latitude>
    <longitude>32.35</longitude>
  </city>
  <city name="Bulumwaki">
    <latitude>0.7333333</latitude>
    <longitude>33.4666667</longitude>
  </city>
  <city name="Bulungi">
    <latitude>1.1166667</latitude>
    <longitude>31.9666667</longitude>
  </city>
  <city name="Bulunguli">
    <latitude>0.6833333</latitude>
    <longitude>33.6</longitude>
  </city>
  <city name="Buluta">
    <latitude>1.15</latitude>
    <longitude>32.5666667</longitude>
  </city>
  <city name="Buluube">
    <latitude>0.2166667</latitude>
    <longitude>33.5333333</longitude>
  </city>
  <city name="Buluya">
    <latitude>0.8313889</latitude>
    <longitude>33.1033333</longitude>
  </city>
  <city name="Bulwa">
    <latitude>0.1833333</latitude>
    <longitude>33.3</longitude>
  </city>
  <city name="Bulwada">
    <latitude>0.2</latitude>
    <longitude>31.7833333</longitude>
  </city>
  <city name="Bulwanda">
    <latitude>1.0333333</latitude>
    <longitude>31.2166667</longitude>
  </city>
  <city name="Bulwanyi">
    <latitude>0.2166667</latitude>
    <longitude>32.4166667</longitude>
  </city>
  <city name="Bulwenge">
    <latitude>0.3530556</latitude>
    <longitude>34.0722222</longitude>
  </city>
  <city name="Bulyaikubi">
    <latitude>1.0</latitude>
    <longitude>33.5166667</longitude>
  </city>
  <city name="Bulyakubi">
    <latitude>1.0</latitude>
    <longitude>33.5166667</longitude>
  </city>
  <city name="Bulyambide">
    <latitude>0.75</latitude>
    <longitude>31.8166667</longitude>
  </city>
  <city name="Bulyanga">
    <latitude>1.6333333</latitude>
    <longitude>31.55</longitude>
  </city>
  <city name="Bulyangada">
    <latitude>0.4333333</latitude>
    <longitude>33.55</longitude>
  </city>
  <city name="Bulyango">
    <latitude>1.6333333</latitude>
    <longitude>31.55</longitude>
  </city>
  <city name="Bumadu">
    <latitude>0.7166667</latitude>
    <longitude>30.0833333</longitude>
  </city>
  <city name="Bumagabula">
    <latitude>1.1666667</latitude>
    <longitude>34.3833333</longitude>
  </city>
  <city name="Bumageni">
    <latitude>1.0166667</latitude>
    <longitude>34.1833333</longitude>
  </city>
  <city name="Bumangi">
    <latitude>-0.3166667</latitude>
    <longitude>32.25</longitude>
  </city>
  <city name="Bumanya">
    <latitude>1.0</latitude>
    <longitude>33.4833333</longitude>
  </city>
  <city name="Bumasifwa">
    <latitude>1.1833333</latitude>
    <longitude>34.35</longitude>
  </city>
  <city name="Bumasikye">
    <latitude>0.88</latitude>
    <longitude>34.1775</longitude>
  </city>
  <city name="Bumbaire">
    <latitude>-0.5780556</latitude>
    <longitude>30.1972222</longitude>
  </city>
  <city name="Bumbo">
    <latitude>0.8611111</latitude>
    <longitude>34.3980556</longitude>
  </city>
  <city name="Bumboi">
    <latitude>1.05</latitude>
    <longitude>34.2333333</longitude>
  </city>
  <city name="Bumbu">
    <latitude>0.5663889</latitude>
    <longitude>32.5155556</longitude>
  </city>
  <city name="Bume">
    <latitude>0.2</latitude>
    <longitude>32.3833333</longitude>
  </city>
  <city name="Bumeru">
    <latitude>0.2108333</latitude>
    <longitude>33.7786111</longitude>
  </city>
  <city name="Bumogoli">
    <latitude>1.2666667</latitude>
    <longitude>33.2833333</longitude>
  </city>
  <city name="Bumomi">
    <latitude>1.2333333</latitude>
    <longitude>31.7833333</longitude>
  </city>
  <city name="Bumoze">
    <latitude>0.6833333</latitude>
    <longitude>33.65</longitude>
  </city>
  <city name="Bumozi">
    <latitude>0.6833333</latitude>
    <longitude>33.65</longitude>
  </city>
  <city name="Bumulimba">
    <latitude>0.4811111</latitude>
    <longitude>34.0186111</longitude>
  </city>
  <city name="Bumungi">
    <latitude>0.3933333</latitude>
    <longitude>34.0783333</longitude>
  </city>
  <city name="Bumunji">
    <latitude>0.3933333</latitude>
    <longitude>34.0783333</longitude>
  </city>
  <city name="Bumwambu">
    <latitude>1.2666667</latitude>
    <longitude>34.3666667</longitude>
  </city>
  <city name="Bumwangu">
    <latitude>0.35</latitude>
    <longitude>33.8</longitude>
  </city>
  <city name="Bunabala">
