<?xml version="1.0" encoding="UTF-8"?>
<country code="vn" name="Vietnam">
  <city name="Aàm Tâm">
    <latitude>10.716667</latitude>
    <longitude>107.866667</longitude>
  </city>
  <city name="A Ba Yu Can">
    <latitude>15.916667</latitude>
    <longitude>107.683333</longitude>
  </city>
  <city name="Aben Young">
    <latitude>15.75</latitude>
    <longitude>107.6</longitude>
  </city>
  <city name="A Blan">
    <latitude>15.833333</latitude>
    <longitude>107.533333</longitude>
  </city>
  <city name="A Boum">
    <latitude>16.316667</latitude>
    <longitude>107.066667</longitude>
  </city>
  <city name="A Brahon">
    <latitude>15.683333</latitude>
    <longitude>107.583333</longitude>
  </city>
  <city name="Abri Pavie">
    <latitude>21.8</latitude>
    <longitude>103.1</longitude>
  </city>
  <city name="A Choc">
    <latitude>16.9</latitude>
    <longitude>106.783333</longitude>
  </city>
  <city name="A Daigne">
    <latitude>16.316667</latitude>
    <longitude>106.983333</longitude>
  </city>
  <city name="A Dang">
    <latitude>16.416667</latitude>
    <longitude>106.983333</longitude>
  </city>
  <city name="Adial">
    <latitude>15.816667</latitude>
    <longitude>107.616667</longitude>
  </city>
  <city name="A Dua Ap">
    <latitude>16.733333</latitude>
    <longitude>106.583333</longitude>
  </city>
  <city name="A Gia">
    <latitude>11.566667</latitude>
    <longitude>108.7</longitude>
  </city>
  <city name="A Gioi">
    <latitude>16.5</latitude>
    <longitude>106.8</longitude>
  </city>
  <city name="A Goho">
    <latitude>15.633333</latitude>
    <longitude>107.45</longitude>
  </city>
  <city name="A Hiale">
    <latitude>15.916667</latitude>
    <longitude>107.566667</longitude>
  </city>
  <city name="A Hoi">
    <latitude>15.666667</latitude>
    <longitude>107.35</longitude>
  </city>
  <city name="A Hourn">
    <latitude>15.616667</latitude>
    <longitude>107.483333</longitude>
  </city>
  <city name="Ai Blun">
    <latitude>13.333333</latitude>
    <longitude>108.716667</longitude>
  </city>
  <city name="Ai Ha">
    <latitude>20.366667</latitude>
    <longitude>105.283333</longitude>
  </city>
  <city name="Ai Mo">
    <latitude>21.083333</latitude>
    <longitude>105.9</longitude>
  </city>
  <city name="Ai Nghia">
    <latitude>15.883333</latitude>
    <longitude>108.1</longitude>
  </city>
  <city name="Ái Nghiã">
    <latitude>15.883333</latitude>
    <longitude>108.116667</longitude>
  </city>
  <city name="Ai Ngua">
    <latitude>21.583333</latitude>
    <longitude>103.983333</longitude>
  </city>
  <city name="Ai Quôc">
    <latitude>21.337972</latitude>
    <longitude>105.486509</longitude>
  </city>
  <city name="Ai Tau Ha">
    <latitude>10.266667</latitude>
    <longitude>105.866667</longitude>
  </city>
  <city name="Ai Thon">
    <latitude>21.35</latitude>
    <longitude>106.066667</longitude>
  </city>
  <city name="Ai Thuong">
    <latitude>20.333333</latitude>
    <longitude>105.266667</longitude>
  </city>
  <city name="Ai Tu">
    <latitude>16.766667</latitude>
    <longitude>107.15</longitude>
  </city>
  <city name="Ai Yin Young">
    <latitude>15.916667</latitude>
    <longitude>107.6</longitude>
  </city>
  <city name="Aka">
    <latitude>16.083333</latitude>
    <longitude>107.616667</longitude>
  </city>
  <city name="A Kar">
    <latitude>16.083333</latitude>
    <longitude>107.616667</longitude>
  </city>
  <city name="Ale Iock">
    <latitude>16.266667</latitude>
    <longitude>107.183333</longitude>
  </city>
  <city name="A Le Loch">
    <latitude>16.266667</latitude>
    <longitude>107.183333</longitude>
  </city>
  <city name="Ale Lock">
    <latitude>16.266667</latitude>
    <longitude>107.183333</longitude>
  </city>
  <city name="Ale Ninh">
    <latitude>16.266667</latitude>
    <longitude>107.166667</longitude>
  </city>
  <city name="A Le Thiêm">
    <latitude>16.283333</latitude>
    <longitude>107.15</longitude>
  </city>
  <city name="A Lou">
    <latitude>22.716667</latitude>
    <longitude>103.583333</longitude>
  </city>
  <city name="A Lou Pu La">
    <latitude>22.733333</latitude>
    <longitude>103.616667</longitude>
  </city>
  <city name="A Lou Ta Sai Keou">
    <latitude>22.7</latitude>
    <longitude>103.6</longitude>
  </city>
  <city name="A Lou Ta Sui Keou">
    <latitude>22.7</latitude>
    <longitude>103.6</longitude>
  </city>
  <city name="A Luoi">
    <latitude>16.266667</latitude>
    <longitude>107.233333</longitude>
  </city>
  <city name="A Mai">
    <latitude>21.55</latitude>
    <longitude>104.95</longitude>
  </city>
  <city name="Á Mé">
    <latitude>22.35</latitude>
    <longitude>102.566667</longitude>
  </city>
  <city name="Am Ha">
    <latitude>21.583333</latitude>
    <longitude>105.033333</longitude>
  </city>
  <city name="Am Ha Diem">
    <latitude>18.233333</latitude>
    <longitude>106.066667</longitude>
  </city>
  <city name="A Mou">
    <latitude>22.716667</latitude>
    <longitude>103.633333</longitude>
  </city>
  <city name="Ampil">
    <latitude>11.516667</latitude>
    <longitude>106.233333</longitude>
  </city>
  <city name="Am Th">
    <latitude>18.216667</latitude>
    <longitude>106.066667</longitude>
  </city>
  <city name="Am Thuong">
    <latitude>21.55</latitude>
    <longitude>105.016667</longitude>
  </city>
  <city name="A Nan">
    <latitude>22.483333</latitude>
    <longitude>104.166667</longitude>
  </city>
  <city name="An Bá">
    <latitude>14.983333</latitude>
    <longitude>108.85</longitude>
  </city>
  <city name="An Bái">
    <latitude>20.583333</latitude>
    <longitude>106.566667</longitude>
  </city>
  <city name="An Bàn">
    <latitude>15.9</latitude>
    <longitude>108.333333</longitude>
  </city>
  <city name="An Bang">
    <latitude>15.783333</latitude>
    <longitude>108.016667</longitude>
  </city>
  <city name="An Bao">
    <latitude>14.283333</latitude>
    <longitude>109.066667</longitude>
  </city>
  <city name="An Biên">
    <latitude>9.769444</latitude>
    <longitude>105.025</longitude>
  </city>
  <city name="An Binh">
    <latitude>16.833333</latitude>
    <longitude>107.083333</longitude>
  </city>
  <city name="An Bình">
    <latitude>10.783333</latitude>
    <longitude>105.35</longitude>
  </city>
  <city name="An Binh Thanh">
    <latitude>13.366667</latitude>
    <longitude>109.25</longitude>
  </city>
  <city name="An Binh Trai">
    <latitude>15.166667</latitude>
    <longitude>108.633333</longitude>
  </city>
  <city name="An Bo">
    <latitude>21.033333</latitude>
    <longitude>106.466667</longitude>
  </city>
  <city name="An Buong">
    <latitude>14.316667</latitude>
    <longitude>109.133333</longitude>
  </city>
  <city name="An Can">
    <latitude>21.4</latitude>
    <longitude>105.966667</longitude>
  </city>
  <city name="An Cap">
    <latitude>21.4</latitude>
    <longitude>105.966667</longitude>
  </city>
  <city name="An Cau">
    <latitude>20.65</latitude>
    <longitude>106.216667</longitude>
  </city>
  <city name="An Chan">
    <latitude>21.516667</latitude>
    <longitude>104.166667</longitude>
  </city>
  <city name="An Chang">
    <latitude>21.516667</latitude>
    <longitude>104.166667</longitude>
  </city>
  <city name="An Chanh">
    <latitude>9.916667</latitude>
    <longitude>106.2</longitude>
  </city>
  <city name="An Chánh">
    <latitude>13.916667</latitude>
    <longitude>109.0</longitude>
  </city>
  <city name="An Châu">
    <latitude>21.333333</latitude>
    <longitude>106.85</longitude>
  </city>
  <city name="An Chau Ap">
    <latitude>14.85</latitude>
    <longitude>108.916667</longitude>
  </city>
  <city name="An Chi">
    <latitude>14.983333</latitude>
    <longitude>108.833333</longitude>
  </city>
  <city name="An Chinh">
    <latitude>15.783333</latitude>
    <longitude>108.1</longitude>
  </city>
  <city name="An Co18">
    <latitude>17.05</latitude>
    <longitude>107.1</longitude>
  </city>
  <city name="An Co">
    <latitude>20.6</latitude>
    <longitude>106.583333</longitude>
  </city>
  <city name="An Cu">
    <latitude>16.233333</latitude>
    <longitude>108.083333</longitude>
  </city>
  <city name="An Cúc">
    <latitude>20.583333</latitude>
    <longitude>106.516667</longitude>
  </city>
  <city name="An Cuong">
    <latitude>15.3</latitude>
    <longitude>108.85</longitude>
  </city>
  <city name="An Cuu">
    <latitude>13.9</latitude>
    <longitude>109.15</longitude>
  </city>
  <city name="An Ðà">
    <latitude>20.666667</latitude>
    <longitude>105.75</longitude>
  </city>
  <city name="An Da">
    <latitude>20.183333</latitude>
    <longitude>105.633333</longitude>
  </city>
  <city name="An Dai">
    <latitude>15.65</latitude>
    <longitude>108.4</longitude>
  </city>
  <city name="An Dân">
    <latitude>20.583333</latitude>
    <longitude>106.483333</longitude>
  </city>
  <city name="An Dao">
    <latitude>20.316667</latitude>
    <longitude>106.4</longitude>
  </city>
  <city name="An Ðe18">
    <latitude>20.5</latitude>
    <longitude>106.25</longitude>
  </city>
  <city name="An Diem">
    <latitude>20.966667</latitude>
    <longitude>106.233333</longitude>
  </city>
  <city name="An Dien">
    <latitude>9.902222</latitude>
    <longitude>106.543333</longitude>
  </city>
  <city name="An Dien Bac">
    <latitude>14.033333</latitude>
    <longitude>108.733333</longitude>
  </city>
  <city name="An Diên Nam">
    <latitude>14.016667</latitude>
    <longitude>108.733333</longitude>
  </city>
  <city name="An Dinh">
    <latitude>9.974722</latitude>
    <longitude>106.545833</longitude>
  </city>
  <city name="An Ðinh">
    <latitude>16.916667</latitude>
    <longitude>107.016667</longitude>
  </city>
  <city name="An Dinh Cau">
    <latitude>9.915278</latitude>
    <longitude>106.144167</longitude>
  </city>
  <city name="An Ðo18">
    <latitude>14.65</latitude>
    <longitude>109.0</longitude>
  </city>
  <city name="Án Ðo18">
    <latitude>20.15</latitude>
    <longitude>105.45</longitude>
  </city>
  <city name="An Do18">
    <latitude>20.166667</latitude>
    <longitude>105.65</longitude>
  </city>
  <city name="An Ðoài">
    <latitude>21.033333</latitude>
    <longitude>106.366667</longitude>
  </city>
  <city name="An Do">
    <latitude>16.483333</latitude>
    <longitude>107.516667</longitude>
  </city>
  <city name="An Doi">
    <latitude>21.033333</latitude>
    <longitude>106.366667</longitude>
  </city>
  <city name="An Dom">
    <latitude>16.733333</latitude>
    <longitude>107.166667</longitude>
  </city>
  <city name="An Don">
    <latitude>16.733333</latitude>
    <longitude>107.166667</longitude>
  </city>
  <city name="Ân Ðôn">
    <latitude>14.35</latitude>
    <longitude>109.016667</longitude>
  </city>
  <city name="An Dong">
    <latitude>10.1</latitude>
    <longitude>105.716667</longitude>
  </city>
  <city name="An Duc">
    <latitude>14.0</latitude>
    <longitude>109.1</longitude>
  </city>
  <city name="An Duong">
    <latitude>16.533333</latitude>
    <longitude>107.7</longitude>
  </city>
  <city name="An Duyên">
    <latitude>20.4</latitude>
    <longitude>106.116667</longitude>
  </city>
  <city name="Ang Duong">
    <latitude>20.716667</latitude>
    <longitude>106.466667</longitude>
  </city>
  <city name="Áng Giang">
    <latitude>22.733333</latitude>
    <longitude>106.133333</longitude>
  </city>
  <city name="An Gia">
    <latitude>16.833333</latitude>
    <longitude>107.133333</longitude>
  </city>
  <city name="Angiang">
    <latitude>10.7</latitude>
    <longitude>105.116667</longitude>
  </city>
  <city name="An Giang">
    <latitude>14.35</latitude>
    <longitude>109.1</longitude>
  </city>
  <city name="An Giáo">
    <latitude>15.783333</latitude>
    <longitude>108.4</longitude>
  </city>
  <city name="An Giat">
    <latitude>14.933333</latitude>
    <longitude>108.666667</longitude>
  </city>
  <city name="An Giu">
    <latitude>14.483333</latitude>
    <longitude>109.066667</longitude>
  </city>
  <city name="Ang Ngoai">
    <latitude>20.7</latitude>
    <longitude>106.466667</longitude>
  </city>
  <city name="Ang Phao">
    <latitude>20.8</latitude>
    <longitude>105.766667</longitude>
  </city>
  <city name="Ang Ta">
    <latitude>22.216667</latitude>
    <longitude>105.75</longitude>
  </city>
  <city name="Ang Tang">
    <latitude>11.333333</latitude>
    <longitude>107.016667</longitude>
  </city>
  <city name="An Hà">
    <latitude>15.083333</latitude>
    <longitude>108.816667</longitude>
  </city>
  <city name="An Hai">
    <latitude>15.216667</latitude>
    <longitude>108.933333</longitude>
  </city>
  <city name="An Hai Phuong">
    <latitude>15.366667</latitude>
    <longitude>109.116667</longitude>
  </city>
  <city name="An Han">
    <latitude>18.733333</latitude>
    <longitude>105.666667</longitude>
  </city>
  <city name="An Hành">
    <latitude>14.0</latitude>
    <longitude>109.066667</longitude>
  </city>
  <city name="An Hâu">
    <latitude>18.733333</latitude>
    <longitude>105.666667</longitude>
  </city>
  <city name="An Hay">
    <latitude>15.216667</latitude>
    <longitude>108.933333</longitude>
  </city>
  <city name="Anh Do">
    <latitude>13.383333</latitude>
    <longitude>109.25</longitude>
  </city>
  <city name="An Hiep">
    <latitude>10.2</latitude>
    <longitude>105.916667</longitude>
  </city>
  <city name="An Hóa">
    <latitude>10.266667</latitude>
    <longitude>106.433333</longitude>
  </city>
  <city name="An Hoa">
    <latitude>16.483333</latitude>
    <longitude>107.566667</longitude>
  </city>
  <city name="An Hòa">
    <latitude>9.966667</latitude>
    <longitude>105.116667</longitude>
  </city>
  <city name="An Hoa Dong">
    <latitude>10.216667</latitude>
    <longitude>105.85</longitude>
  </city>
  <city name="An Hòa Tây">
    <latitude>15.616667</latitude>
    <longitude>108.366667</longitude>
  </city>
  <city name="An Hoi">
    <latitude>9.92</latitude>
    <longitude>106.547778</longitude>
  </city>
  <city name="An Hôi">
    <latitude>18.766667</latitude>
    <longitude>105.3</longitude>
  </city>
  <city name="An Hoi Thon">
    <latitude>10.833333</latitude>
    <longitude>106.633333</longitude>
  </city>
  <city name="An Hop">
    <latitude>15.633333</latitude>
    <longitude>108.366667</longitude>
  </city>
  <city name="Anh Son">
    <latitude>18.9</latitude>
    <longitude>105.316667</longitude>
  </city>
  <city name="An Kahe">
    <latitude>13.95</latitude>
    <longitude>108.65</longitude>
  </city>
  <city name="An Khánh">
    <latitude>10.216667</latitude>
    <longitude>105.85</longitude>
  </city>
  <city name="An Khánh Xã">
    <latitude>10.7875</latitude>
    <longitude>106.733889</longitude>
  </city>
  <city name="An Khê">
    <latitude>20.833333</latitude>
    <longitude>106.7</longitude>
  </city>
  <city name="An Khuong">
    <latitude>15.3</latitude>
    <longitude>108.633333</longitude>
  </city>
  <city name="Ankroet">
    <latitude>11.983333</latitude>
    <longitude>108.35</longitude>
  </city>
  <city name="An Ký">
    <latitude>15.2</latitude>
    <longitude>108.916667</longitude>
  </city>
  <city name="An La">
    <latitude>20.566667</latitude>
    <longitude>106.25</longitude>
  </city>
  <city name="An Lac">
    <latitude>17.25</latitude>
    <longitude>106.75</longitude>
  </city>
  <city name="An Lac Dong">
    <latitude>14.183333</latitude>
    <longitude>109.033333</longitude>
  </city>
  <city name="An Lac Tay">
    <latitude>14.2</latitude>
    <longitude>109.033333</longitude>
  </city>
  <city name="An Lai">
    <latitude>16.566667</latitude>
    <longitude>107.583333</longitude>
  </city>
  <city name="An Lâm">
    <latitude>22.033722</latitude>
    <longitude>105.112828</longitude>
  </city>
  <city name="An Lam">
    <latitude>11.133333</latitude>
    <longitude>108.15</longitude>
  </city>
  <city name="An Lan">
    <latitude>11.133333</latitude>
    <longitude>108.15</longitude>
  </city>
  <city name="An Lãng">
    <latitude>20.983333</latitude>
    <longitude>106.533333</longitude>
  </city>
  <city name="An Lão">
    <latitude>20.8</latitude>
    <longitude>106.466667</longitude>
  </city>
  <city name="An Lão Ap">
    <latitude>17.166667</latitude>
    <longitude>106.866667</longitude>
  </city>
  <city name="An Lap">
    <latitude>21.366667</latitude>
    <longitude>105.566667</longitude>
  </city>
  <city name="An Lau">
    <latitude>15.433333</latitude>
    <longitude>108.4</longitude>
  </city>
  <city name="An Lâu Nam">
    <latitude>15.433333</latitude>
    <longitude>108.4</longitude>
  </city>
  <city name="An Le">
    <latitude>18.366667</latitude>
    <longitude>105.85</longitude>
  </city>
  <city name="An Lê">
    <latitude>20.5</latitude>
    <longitude>106.366667</longitude>
  </city>
  <city name="An Lich">
    <latitude>21.580961</latitude>
    <longitude>105.310677</longitude>
  </city>
  <city name="An Liêm">
    <latitude>20.516667</latitude>
    <longitude>106.266667</longitude>
  </city>
  <city name="An Linh">
    <latitude>11.333333</latitude>
    <longitude>106.716667</longitude>
  </city>
  <city name="An Lo">
    <latitude>16.55</latitude>
    <longitude>107.466667</longitude>
  </city>
  <city name="An Loc">
    <latitude>16.616667</latitude>
    <longitude>107.566667</longitude>
  </city>
  <city name="An Lôc">
    <latitude>11.65</latitude>
    <longitude>106.6</longitude>
  </city>
  <city name="An Loi">
    <latitude>9.980833</latitude>
    <longitude>106.628889</longitude>
  </city>
  <city name="An Loi Ap">
    <latitude>14.816667</latitude>
    <longitude>108.9</longitude>
  </city>
  <city name="An Loi Dong">
    <latitude>10.766667</latitude>
    <longitude>106.733333</longitude>
  </city>
  <city name="An Long">
    <latitude>10.716667</latitude>
    <longitude>105.383333</longitude>
  </city>
  <city name="An Luan">
    <latitude>20.816667</latitude>
    <longitude>106.566667</longitude>
  </city>
  <city name="An Lu">
    <latitude>20.916667</latitude>
    <longitude>106.7</longitude>
  </city>
  <city name="An Luong">
    <latitude>21.0</latitude>
    <longitude>106.35</longitude>
  </city>
  <city name="An Luu">
    <latitude>16.466667</latitude>
    <longitude>107.716667</longitude>
  </city>
  <city name="An Lý">
    <latitude>15.633333</latitude>
    <longitude>108.333333</longitude>
  </city>
  <city name="An Ma">
    <latitude>22.416667</latitude>
    <longitude>105.6</longitude>
  </city>
  <city name="An Mâ">
    <latitude>20.933333</latitude>
    <longitude>104.816667</longitude>
  </city>
  <city name="An Mê">
    <latitude>21.466667</latitude>
    <longitude>105.883333</longitude>
  </city>
  <city name="An Miêng">
    <latitude>20.9</latitude>
    <longitude>104.966667</longitude>
  </city>
  <city name="An Mo">
    <latitude>22.3</latitude>
    <longitude>106.316667</longitude>
  </city>
  <city name="An Mong">
    <latitude>20.566667</latitude>
    <longitude>106.0</longitude>
  </city>
  <city name="An My">
    <latitude>16.95</latitude>
    <longitude>107.116667</longitude>
  </city>
  <city name="An My Trai">
    <latitude>15.133333</latitude>
    <longitude>108.7</longitude>
  </city>
  <city name="An Nam Ly">
    <latitude>21.35</latitude>
    <longitude>105.816667</longitude>
  </city>
  <city name="An Nap">
    <latitude>20.583333</latitude>
    <longitude>106.316667</longitude>
  </city>
  <city name="An Ngãi">
    <latitude>13.883333</latitude>
    <longitude>109.1</longitude>
  </city>
  <city name="An Ngai">
    <latitude>10.483333</latitude>
    <longitude>107.233333</longitude>
  </city>
  <city name="An Nghia">
    <latitude>22.141235</latitude>
    <longitude>105.206057</longitude>
  </city>
  <city name="An Nghiên">
    <latitude>13.016667</latitude>
    <longitude>109.216667</longitude>
  </city>
  <city name="An Nghiep">
    <latitude>20.8</latitude>
    <longitude>106.316667</longitude>
  </city>
  <city name="An Nha">
    <latitude>16.933333</latitude>
    <longitude>106.983333</longitude>
  </city>
  <city name="An Nhân">
    <latitude>15.15</latitude>
    <longitude>108.833333</longitude>
  </city>
  <city name="An Nhiên">
    <latitude>18.366667</latitude>
    <longitude>105.883333</longitude>
  </city>
  <city name="An Nhon">
    <latitude>9.886111</latitude>
    <longitude>106.588611</longitude>
  </city>
  <city name="An Nhon Hoa">
    <latitude>9.783333</latitude>
    <longitude>106.183333</longitude>
  </city>
  <city name="An Nhon Tay">
    <latitude>11.1</latitude>
    <longitude>106.516667</longitude>
  </city>
  <city name="An Nhon Xa">
    <latitude>10.833333</latitude>
    <longitude>106.666667</longitude>
  </city>
  <city name="An Nhuê">
    <latitude>14.1</latitude>
    <longitude>109.166667</longitude>
  </city>
  <city name="An Nhut">
    <latitude>10.483333</latitude>
    <longitude>107.25</longitude>
  </city>
  <city name="An Nhut Tan">
    <latitude>10.566667</latitude>
    <longitude>106.533333</longitude>
  </city>
  <city name="An Ninh">
    <latitude>17.016667</latitude>
    <longitude>107.1</longitude>
  </city>
  <city name="An Ninh Noi">
    <latitude>20.983333</latitude>
    <longitude>106.566667</longitude>
  </city>
  <city name="An Nong">
    <latitude>10.583333</latitude>
    <longitude>104.95</longitude>
  </city>
  <city name="An Noóng">
    <latitude>21.2</latitude>
    <longitude>106.8</longitude>
  </city>
  <city name="An Nuong">
    <latitude>21.2</latitude>
    <longitude>106.8</longitude>
  </city>
  <city name="An Phong">
    <latitude>10.6</latitude>
    <longitude>105.416667</longitude>
  </city>
  <city name="An Phú">
    <latitude>10.666667</latitude>
    <longitude>105.433333</longitude>
  </city>
  <city name="Ân Phú">
    <latitude>18.483333</latitude>
    <longitude>105.55</longitude>
  </city>
  <city name="An Phu">
    <latitude>11.016667</latitude>
    <longitude>108.133333</longitude>
  </city>
  <city name="An Phu Ap">
    <latitude>20.15</latitude>
    <longitude>106.233333</longitude>
  </city>
  <city name="An Phúc">
    <latitude>21.765644</latitude>
    <longitude>105.234493</longitude>
  </city>
  <city name="An Phu Dong">
    <latitude>10.795833</latitude>
    <longitude>106.756944</longitude>
  </city>
  <city name="An Phú Ðông">
    <latitude>10.854167</latitude>
    <longitude>106.701667</longitude>
  </city>
  <city name="An Phu Ha">
    <latitude>16.316667</latitude>
    <longitude>107.783333</longitude>
  </city>
  <city name="An Phuoc">
    <latitude>14.983333</latitude>
    <longitude>108.883333</longitude>
  </city>
  <city name="An Phuoc Chinh">
    <latitude>14.983333</latitude>
    <longitude>108.883333</longitude>
  </city>
  <city name="An Phuong">
    <latitude>13.966667</latitude>
    <longitude>108.7</longitude>
  </city>
  <city name="An Phu Phuong">
    <latitude>15.8</latitude>
    <longitude>108.383333</longitude>
  </city>
  <city name="An Phú Tây">
    <latitude>10.683333</latitude>
    <longitude>106.6</longitude>
  </city>
  <city name="An Pon">
    <latitude>20.916667</latitude>
    <longitude>104.616667</longitude>
  </city>
  <city name="An Quang">
    <latitude>14.116667</latitude>
    <longitude>109.2</longitude>
  </city>
  <city name="An Qui">
    <latitude>20.75</latitude>
    <longitude>106.5</longitude>
  </city>
  <city name="An Quí">
    <latitude>20.616667</latitude>
    <longitude>106.483333</longitude>
  </city>
  <city name="An Quy">
    <latitude>13.916667</latitude>
    <longitude>108.633333</longitude>
  </city>
  <city name="An Sen">
    <latitude>15.0</latitude>
    <longitude>108.883333</longitude>
  </city>
  <city name="An Son">
    <latitude>13.8</latitude>
    <longitude>109.116667</longitude>
  </city>
  <city name="An Son C">
    <latitude>13.95</latitude>
    <longitude>108.616667</longitude>
  </city>
  <city name="An Tâm">
    <latitude>15.816667</latitude>
    <longitude>108.15</longitude>
  </city>
  <city name="An Tân">
    <latitude>20.866667</latitude>
    <longitude>106.333333</longitude>
  </city>
  <city name="An Tây">
    <latitude>14.45</latitude>
    <longitude>109.016667</longitude>
  </city>
  <city name="An Thaan">
    <latitude>10.966667</latitude>
    <longitude>106.766667</longitude>
  </city>
  <city name="An Thach">
    <latitude>16.35</latitude>
    <longitude>107.75</longitude>
  </city>
  <city name="An Thach Thach Nan">
    <latitude>14.883333</latitude>
    <longitude>108.95</longitude>
  </city>
  <city name="An Thài">
    <latitude>16.733333</latitude>
    <longitude>107.216667</longitude>
  </city>
  <city name="An Thái">
    <latitude>20.966667</latitude>
    <longitude>106.516667</longitude>
  </city>
  <city name="An Thai">
    <latitude>14.533333</latitude>
    <longitude>109.066667</longitude>
  </city>
  <city name="An Thai Thuong">
    <latitude>16.783333</latitude>
    <longitude>106.95</longitude>
  </city>
  <city name="An Thanh">
    <latitude>9.958333</latitude>
    <longitude>106.579722</longitude>
  </city>
  <city name="An Thành">
    <latitude>10.7</latitude>
    <longitude>105.45</longitude>
  </city>
  <city name="An Thanh Nhì">
    <latitude>9.552778</latitude>
    <longitude>106.253333</longitude>
  </city>
  <city name="An Thanh Thuy">
    <latitude>10.333333</latitude>
    <longitude>106.516667</longitude>
  </city>
  <city name="An The">
    <latitude>14.883333</latitude>
    <longitude>108.966667</longitude>
  </city>
  <city name="An Thi">
    <latitude>20.733333</latitude>
    <longitude>106.1</longitude>
  </city>
  <city name="An Thiem">
    <latitude>20.983333</latitude>
    <longitude>107.0</longitude>
  </city>
  <city name="An Thien">
    <latitude>14.35</latitude>
    <longitude>109.0</longitude>
  </city>
  <city name="An Thinh">
    <latitude>18.883333</latitude>
    <longitude>105.283333</longitude>
  </city>
  <city name="An Tho18">
    <latitude>14.883333</latitude>
    <longitude>108.966667</longitude>
  </city>
  <city name="An Tho">
    <latitude>20.75</latitude>
    <longitude>106.466667</longitude>
  </city>
  <city name="An Thoi">
    <latitude>10.2</latitude>
    <longitude>105.483333</longitude>
  </city>
  <city name="An Thói">
    <latitude>15.316667</latitude>
    <longitude>108.866667</longitude>
  </city>
  <city name="An Tho Thon">
    <latitude>17.766667</latitude>
    <longitude>106.05</longitude>
  </city>
  <city name="An Thuan">
    <latitude>9.983333</latitude>
    <longitude>106.616667</longitude>
  </city>
  <city name="An Thuong">
    <latitude>13.966667</latitude>
    <longitude>108.733333</longitude>
  </city>
  <city name="An Thuong Ap">
    <latitude>14.8</latitude>
    <longitude>108.966667</longitude>
  </city>
  <city name="An Thuy">
    <latitude>9.983333</latitude>
    <longitude>106.616667</longitude>
  </city>
  <city name="An Thuyet">
    <latitude>15.183333</latitude>
    <longitude>108.733333</longitude>
  </city>
  <city name="An Tien">
    <latitude>16.983333</latitude>
    <longitude>107.05</longitude>
  </city>
  <city name="An Tinh">
    <latitude>14.316667</latitude>
    <longitude>109.133333</longitude>
  </city>
  <city name="An Tinh Ba">
    <latitude>9.836667</latitude>
    <longitude>106.046667</longitude>
  </city>
  <city name="An Toàn">
    <latitude>20.766667</latitude>
    <longitude>106.733333</longitude>
  </city>
  <city name="An Trach">
    <latitude>16.833333</latitude>
    <longitude>107.25</longitude>
  </city>
  <city name="An Trang">
    <latitude>15.133333</latitude>
    <longitude>108.666667</longitude>
  </city>
  <city name="An Tri">
    <latitude>14.133333</latitude>
    <longitude>109.15</longitude>
  </city>
  <city name="An Triêu">
    <latitude>21.183333</latitude>
    <longitude>106.316667</longitude>
  </city>
  <city name="An Trinh">
    <latitude>14.116667</latitude>
    <longitude>109.05</longitude>
  </city>
  <city name="An Tros">
    <latitude>20.85</latitude>
    <longitude>106.65</longitude>
  </city>
  <city name="An Truc">
    <latitude>20.85</latitude>
    <longitude>106.65</longitude>
  </city>
  <city name="An Truong">
    <latitude>13.8</latitude>
    <longitude>108.983333</longitude>
  </city>
  <city name="An Truy">
    <latitude>20.35</latitude>
    <longitude>106.166667</longitude>
  </city>
  <city name="An Truyen">
    <latitude>16.5</latitude>
    <longitude>107.633333</longitude>
  </city>
  <city name="An Túc">
    <latitude>13.95</latitude>
    <longitude>108.65</longitude>
  </city>
  <city name="An Tu Ha">
    <latitude>20.316667</latitude>
    <longitude>106.5</longitude>
  </city>
  <city name="An Tuong">
    <latitude>14.283333</latitude>
    <longitude>109.05</longitude>
  </city>
  <city name="An Tuyên">
    <latitude>15.7</latitude>
    <longitude>108.466667</longitude>
  </city>
  <city name="An Tuyet">
    <latitude>15.183333</latitude>
    <longitude>108.733333</longitude>
  </city>
  <city name="An Vang">
    <latitude>15.566667</latitude>
    <longitude>108.183333</longitude>
  </city>
  <city name="An Van Thuong">
    <latitude>16.45</latitude>
    <longitude>107.533333</longitude>
  </city>
  <city name="An Ve">
    <latitude>20.65</latitude>
    <longitude>106.35</longitude>
  </city>
  <city name="An Vinh">
    <latitude>21.216667</latitude>
    <longitude>106.816667</longitude>
  </city>
  <city name="An Vinh Phuong">
    <latitude>15.366667</latitude>
    <longitude>109.133333</longitude>
  </city>
  <city name="An Xá">
    <latitude>17.233333</latitude>
    <longitude>106.766667</longitude>
  </city>
  <city name="An Xã">
    <latitude>15.383333</latitude>
    <longitude>108.333333</longitude>
  </city>
  <city name="An Xuan">
    <latitude>16.566667</latitude>
    <longitude>107.566667</longitude>
  </city>
  <city name="An Xuân">
    <latitude>10.871944</latitude>
    <longitude>106.666667</longitude>
  </city>
  <city name="An Xuyen">
    <latitude>9.266667</latitude>
    <longitude>105.283333</longitude>
  </city>
  <city name="Ao Búc">
    <latitude>21.808548</latitude>
    <longitude>105.434355</longitude>
  </city>
  <city name="Ao Có">
    <latitude>21.745663</latitude>
    <longitude>105.454765</longitude>
  </city>
  <city name="Ao Kênh">
    <latitude>20.783333</latitude>
    <longitude>105.633333</longitude>
  </city>
  <city name="Ao Loan">
    <latitude>21.4</latitude>
    <longitude>106.65</longitude>
  </city>
  <city name="Ao Louan">
    <latitude>21.4</latitude>
    <longitude>106.65</longitude>
  </city>
  <city name="Ao Tan">
    <latitude>21.35</latitude>
    <longitude>106.683333</longitude>
  </city>
  <city name="Ao Vè">
    <latitude>21.283333</latitude>
    <longitude>106.55</longitude>
  </city>
  <city name="A Pa Chai">
    <latitude>22.4</latitude>
    <longitude>102.216667</longitude>
  </city>
  <city name="Ap A Dua">
    <latitude>16.733333</latitude>
    <longitude>106.583333</longitude>
  </city>
  <city name="Ap An Binh">
    <latitude>10.1</latitude>
    <longitude>106.316667</longitude>
  </city>
  <city name="Ap An Co">
    <latitude>9.506944</latitude>
    <longitude>106.068611</longitude>
  </city>
  <city name="Ap An Dien">
    <latitude>9.902222</latitude>
    <longitude>106.543333</longitude>
  </city>
  <city name="Ap An Dinh">
    <latitude>10.316667</latitude>
    <longitude>106.466667</longitude>
  </city>
  <city name="Ap An Dong">
    <latitude>10.083333</latitude>
    <longitude>106.216667</longitude>
  </city>
  <city name="Ap An Dung">
    <latitude>10.366667</latitude>
    <longitude>104.583333</longitude>
  </city>
  <city name="Ap Ang Trang So">
    <latitude>11.333333</latitude>
    <longitude>107.016667</longitude>
  </city>
  <city name="Ap An Hau">
    <latitude>10.033333</latitude>
    <longitude>106.15</longitude>
  </city>
  <city name="Ap An Hiep">
    <latitude>10.966667</latitude>
    <longitude>106.333333</longitude>
  </city>
  <city name="Ap An Hoa">
    <latitude>10.483333</latitude>
    <longitude>104.9</longitude>
  </city>
  <city name="Ap An Hoa Thuong">
    <latitude>10.233333</latitude>
    <longitude>106.033333</longitude>
  </city>
  <city name="Ap An Hoi">
    <latitude>9.92</latitude>
    <longitude>106.547778</longitude>
  </city>
  <city name="Ap An Hung">
    <latitude>10.983333</latitude>
    <longitude>106.35</longitude>
  </city>
  <city name="Ap An Khanh Ha">
    <latitude>10.233333</latitude>
    <longitude>106.033333</longitude>
  </city>
  <city name="Ap An Khuong">
    <latitude>10.2</latitude>
    <longitude>105.516667</longitude>
  </city>
  <city name="Ap An Kroet">
    <latitude>11.983333</latitude>
    <longitude>108.35</longitude>
  </city>
  <city name="Ap An Lac">
    <latitude>10.066667</latitude>
    <longitude>106.15</longitude>
  </city>
  <city name="Ap An Lai">
    <latitude>10.583333</latitude>
    <longitude>106.483333</longitude>
  </city>
  <city name="Ap An Lam">
    <latitude>11.133333</latitude>
    <longitude>108.15</longitude>
  </city>
  <city name="Ap An Lao">
    <latitude>17.166667</latitude>
    <longitude>106.866667</longitude>
  </city>
  <city name="Ap An Le">
    <latitude>10.3</latitude>
    <longitude>105.9</longitude>
  </city>
  <city name="Ap an Lo">
    <latitude>16.55</latitude>
    <longitude>107.466667</longitude>
  </city>
  <city name="Ap An Loc A">
    <latitude>16.616667</latitude>
    <longitude>107.566667</longitude>
  </city>
  <city name="Ap An Loc">
    <latitude>10.05</latitude>
    <longitude>106.2</longitude>
  </city>
  <city name="Ap An Loi">
    <latitude>10.05</latitude>
    <longitude>106.35</longitude>
  </city>
  <city name="Ap An Loi Dong">
    <latitude>10.766667</latitude>
    <longitude>106.733333</longitude>
  </city>
  <city name="Ap An Luong">
    <latitude>10.383333</latitude>
    <longitude>105.466667</longitude>
  </city>
  <city name="Ap An Minh">
    <latitude>10.683333</latitude>
    <longitude>105.383333</longitude>
  </city>
  <city name="Ap An My">
    <latitude>10.366667</latitude>
    <longitude>105.483333</longitude>
  </city>
  <city name="Ap An Nhon">
    <latitude>10.116667</latitude>
    <longitude>106.35</longitude>
  </city>
  <city name="Ap An Ninh">
    <latitude>10.316667</latitude>
    <longitude>105.516667</longitude>
  </city>
  <city name="Ap An Nong">
    <latitude>10.6</latitude>
    <longitude>104.95</longitude>
  </city>
  <city name="Ap An Phu">
    <latitude>10.383333</latitude>
    <longitude>105.516667</longitude>
  </city>
  <city name="Ap An Phuoc">
    <latitude>10.016667</latitude>
    <longitude>106.133333</longitude>
  </city>
  <city name="Ap An Qui">
    <latitude>10.416667</latitude>
    <longitude>105.466667</longitude>
  </city>
  <city name="Ap An Quoi">
    <latitude>10.383333</latitude>
    <longitude>105.616667</longitude>
  </city>
  <city name="Ap An Quy">
    <latitude>10.316667</latitude>
    <longitude>104.616667</longitude>
  </city>
  <city name="Ap An Thai">
    <latitude>10.416667</latitude>
    <longitude>105.466667</longitude>
  </city>
  <city name="Ap An Thanh">
    <latitude>10.933333</latitude>
    <longitude>105.1</longitude>
  </city>
  <city name="Ap An Thien">
    <latitude>10.366667</latitude>
    <longitude>106.033333</longitude>
  </city>
  <city name="Ap An Tho18">
    <latitude>9.883333</latitude>
    <longitude>106.0</longitude>
  </city>
  <city name="Ap An Thoi">
    <latitude>10.2</latitude>
    <longitude>105.483333</longitude>
  </city>
  <city name="Ap An Thuan">
    <latitude>10.4</latitude>
    <longitude>105.466667</longitude>
  </city>
  <city name="Ap An Thuan Thuong">
    <latitude>10.583333</latitude>
    <longitude>106.55</longitude>
  </city>
  <city name="Ap An Thuy Tay">
    <latitude>10.283333</latitude>
    <longitude>106.116667</longitude>
  </city>
  <city name="Ap An Tin">
    <latitude>10.333333</latitude>
    <longitude>104.566667</longitude>
  </city>
  <city name="Ap An Tinh">
    <latitude>10.433333</latitude>
    <longitude>105.483333</longitude>
  </city>
  <city name="Ap An Tinh Ba">
    <latitude>9.836667</latitude>
    <longitude>106.046667</longitude>
  </city>
  <city name="Ap An Trach">
    <latitude>10.05</latitude>
    <longitude>106.316667</longitude>
  </city>
  <city name="Ap An Trach Dong">
    <latitude>9.300833</latitude>
    <longitude>105.820833</longitude>
  </city>
  <city name="Ap An Tri">
    <latitude>10.316667</latitude>
    <longitude>105.9</longitude>
  </city>
  <city name="Ap An Vien">
    <latitude>10.85</latitude>
    <longitude>107.05</longitude>
  </city>
  <city name="Ap An Vieng">
    <latitude>10.85</latitude>
    <longitude>107.05</longitude>
  </city>
  <city name="Ap An Xuan">
    <latitude>16.566667</latitude>
    <longitude>107.566667</longitude>
  </city>
  <city name="A Pat">
    <latitude>16.366667</latitude>
    <longitude>107.033333</longitude>
  </city>
  <city name="A Pa Tiai">
    <latitude>22.4</latitude>
    <longitude>102.216667</longitude>
  </city>
  <city name="A Pa Tlai">
    <latitude>22.4</latitude>
    <longitude>102.216667</longitude>
  </city>
  <city name="A Patt">
    <latitude>16.35</latitude>
    <longitude>107.05</longitude>
  </city>
  <city name="Ap Au Tho">
    <latitude>9.361667</latitude>
    <longitude>106.135278</longitude>
  </city>
  <city name="Ap Ba Ai">
    <latitude>9.523611</latitude>
    <longitude>105.385</longitude>
  </city>
  <city name="Ap Ba Ai II">
    <latitude>9.516667</latitude>
    <longitude>105.383333</longitude>
  </city>
  <city name="Ap Ba">
    <latitude>10.266667</latitude>
    <longitude>106.416667</longitude>
  </city>
  <city name="Ap Ba Bang">
    <latitude>11.35</latitude>
    <longitude>106.716667</longitude>
  </city>
  <city name="Ap Ba Beo">
    <latitude>9.115278</latitude>
    <longitude>105.105833</longitude>
  </city>
  <city name="Ap Bac">
    <latitude>10.616667</latitude>
    <longitude>105.45</longitude>
  </city>
  <city name="Ap Bac Chan">
    <latitude>10.783333</latitude>
    <longitude>105.916667</longitude>
  </city>
  <city name="Ap Bac Dong">
    <latitude>10.583333</latitude>
    <longitude>106.35</longitude>
  </city>
  <city name="Ap Ba Chang">
    <latitude>9.375</latitude>
    <longitude>105.650556</longitude>
  </city>
  <city name="Ap Bach Thanh">
    <latitude>16.583333</latitude>
    <longitude>107.433333</longitude>
  </city>
  <city name="Ap Ba Chuc">
    <latitude>10.5</latitude>
    <longitude>104.9</longitude>
  </city>
  <city name="Ap Bac Lan">
    <latitude>10.8</latitude>
    <longitude>106.55</longitude>
  </city>
  <city name="Ap Bac Thanh">
    <latitude>10.283333</latitude>
    <longitude>105.266667</longitude>
  </city>
  <city name="Ap Ba Ghe">
    <latitude>11.3</latitude>
    <longitude>108.466667</longitude>
  </city>
  <city name="Ap Bai Bang">
    <latitude>11.366667</latitude>
    <longitude>106.7</longitude>
  </city>
  <city name="Ap Bai Bon">
    <latitude>10.6</latitude>
    <longitude>106.333333</longitude>
  </city>
  <city name="Ap Bai Ghe">
    <latitude>9.083333</latitude>
    <longitude>104.816667</longitude>
  </city>
  <city name="Ap Bai Yen">
    <latitude>11.4</latitude>
    <longitude>106.716667</longitude>
  </city>
  <city name="Ap Ba Lan">
    <latitude>10.15</latitude>
    <longitude>105.916667</longitude>
  </city>
  <city name="Ap Ba Lap">
    <latitude>10.616667</latitude>
    <longitude>106.483333</longitude>
  </city>
  <city name="Ap Ba Mao">
    <latitude>11.0</latitude>
    <longitude>106.216667</longitude>
  </city>
  <city name="Ap Ba My">
    <latitude>9.895</latitude>
    <longitude>106.055556</longitude>
  </city>
  <city name="Ap Ba Nam">
    <latitude>8.983333</latitude>
    <longitude>105.283333</longitude>
  </city>
  <city name="Ap Ba Nghe">
    <latitude>9.916667</latitude>
    <longitude>106.066667</longitude>
  </city>
  <city name="Ap Ba Nhan">
    <latitude>9.244722</latitude>
    <longitude>105.13</longitude>
  </city>
  <city name="Ap Ba Nho">
    <latitude>10.483333</latitude>
    <longitude>106.6</longitude>
  </city>
  <city name="Ap Bao">
    <latitude>11.133333</latitude>
    <longitude>106.116667</longitude>
  </city>
  <city name="Ap Bao Binh">
    <latitude>10.883333</latitude>
    <longitude>107.266667</longitude>
  </city>
  <city name="Ap Bao Cha">
    <latitude>9.325278</latitude>
    <longitude>105.190556</longitude>
  </city>
  <city name="Ap Bao Chanh">
    <latitude>10.966667</latitude>
    <longitude>107.316667</longitude>
  </city>
  <city name="Ap Bao Cong">
    <latitude>10.95</latitude>
    <longitude>106.416667</longitude>
  </city>
  <city name="Ap Bao Cua">
    <latitude>10.866667</latitude>
    <longitude>106.4</longitude>
  </city>
  <city name="Ap Bao Dinh">
    <latitude>10.9</latitude>
    <longitude>107.266667</longitude>
  </city>
  <city name="Ap Bao Dung">
    <latitude>11.116667</latitude>
    <longitude>106.25</longitude>
  </city>
  <city name="Ap Bao Go">
    <latitude>11.116667</latitude>
    <longitude>106.2</longitude>
  </city>
  <city name="Ap Bao Nau">
    <latitude>11.2</latitude>
    <longitude>106.183333</longitude>
  </city>
  <city name="Ap Bao Sau">
    <latitude>9.533333</latitude>
    <longitude>105.583333</longitude>
  </city>
  <city name="Ap Bao Sen">
    <latitude>10.7</latitude>
    <longitude>106.866667</longitude>
  </city>
  <city name="Ap Bao Siem">
    <latitude>10.95</latitude>
    <longitude>106.516667</longitude>
  </city>
  <city name="Ap Bao Thuan">
    <latitude>10.05</latitude>
    <longitude>106.65</longitude>
  </city>
  <city name="Ap Bao Trai">
    <latitude>10.883333</latitude>
    <longitude>106.4</longitude>
  </city>
  <city name="Ap Bao Tram">
    <latitude>11.15</latitude>
    <longitude>106.15</longitude>
  </city>
  <city name="Ap Ba Quan">
    <latitude>10.716667</latitude>
    <longitude>105.983333</longitude>
  </city>
  <city name="Ap Ba Rinh">
    <latitude>9.766667</latitude>
    <longitude>105.85</longitude>
  </city>
  <city name="Ap Ba Ta">
    <latitude>11.05</latitude>
    <longitude>107.616667</longitude>
  </city>
  <city name="Ap Ba The">
    <latitude>10.25</latitude>
    <longitude>105.15</longitude>
  </city>
  <city name="Ap Ba Tien">
    <latitude>10.731944</latitude>
    <longitude>106.608889</longitude>
  </city>
  <city name="Ap Ba Tieu">
    <latitude>9.879444</latitude>
    <longitude>106.375</longitude>
  </city>
  <city name="Ap Ba Trum">
    <latitude>9.4425</latitude>
    <longitude>105.976111</longitude>
  </city>
  <city name="Ap Ba Tu">
    <latitude>11.283333</latitude>
    <longitude>106.566667</longitude>
  </city>
  <city name="Ap Bau">
    <latitude>19.133333</latitude>
    <longitude>105.25</longitude>
  </city>
  <city name="Ap Bau Bang">
    <latitude>11.266667</latitude>
    <longitude>106.633333</longitude>
  </city>
  <city name="Ap Bau Beo">
    <latitude>9.711389</latitude>
    <longitude>106.503611</longitude>
  </city>
  <city name="Ap Bau Bien">
    <latitude>10.95</latitude>
    <longitude>105.8</longitude>
  </city>
  <city name="Ap Bau Ca">
    <latitude>9.293889</latitude>
    <longitude>105.4825</longitude>
  </city>
  <city name="Ap Bau Cam">
    <latitude>11.383333</latitude>
    <longitude>106.7</longitude>
  </city>
  <city name="Ap Bau Ca Mot">
    <latitude>9.320278</latitude>
    <longitude>105.419722</longitude>
  </city>
  <city name="Ap Bau Co">
    <latitude>11.233333</latitude>
    <longitude>106.716667</longitude>
  </city>
  <city name="Ap Bau Dieu">
    <latitude>11.0</latitude>
    <longitude>106.433333</longitude>
  </city>
  <city name="Ap Bau Dung">
    <latitude>11.016667</latitude>
    <longitude>106.216667</longitude>
  </city>
  <city name="Ap Bau Long">
    <latitude>11.35</latitude>
    <longitude>106.65</longitude>
  </city>
  <city name="Ap Bau Lung">
    <latitude>11.033333</latitude>
    <longitude>106.2</longitude>
  </city>
  <city name="Ap Bau Me">
    <latitude>11.016667</latitude>
    <longitude>106.2</longitude>
  </city>
  <city name="Ap Bau Nau">
    <latitude>10.916667</latitude>
    <longitude>105.766667</longitude>
  </city>
  <city name="Ap Bau Rong">
    <latitude>10.933333</latitude>
    <longitude>105.783333</longitude>
  </city>
  <city name="Ap Bau Sen">
    <latitude>11.3</latitude>
    <longitude>106.15</longitude>
  </city>
  <city name="Ap Bau Tram">
    <latitude>10.983333</latitude>
    <longitude>106.583333</longitude>
  </city>
  <city name="Ap Bau Vung">
    <latitude>9.016667</latitude>
    <longitude>105.083333</longitude>
  </city>
  <city name="Ap Ba Vinh">
    <latitude>9.142778</latitude>
    <longitude>105.209167</longitude>
  </city>
  <city name="Ap Bay">
    <latitude>9.286111</latitude>
    <longitude>105.196944</longitude>
  </city>
  <city name="Ap Bay Thua">
    <latitude>10.8</latitude>
    <longitude>105.4</longitude>
  </city>
  <city name="Ap Bec Hen Lon">
    <latitude>9.316667</latitude>
    <longitude>105.683333</longitude>
  </city>
  <city name="Ap Be Moi">
    <latitude>11.683333</latitude>
    <longitude>106.616667</longitude>
  </city>
  <city name="Ap Ben Cam">
    <latitude>10.75</latitude>
    <longitude>106.916667</longitude>
  </city>
  <city name="Ap Ben Cau">
    <latitude>11.2</latitude>
    <longitude>106.633333</longitude>
  </city>
  <city name="Ap Ben Cay">
    <latitude>10.466667</latitude>
    <longitude>107.166667</longitude>
  </city>
  <city name="Ap Ben Cho">
    <latitude>11.183333</latitude>
    <longitude>106.383333</longitude>
  </city>
  <city name="Ap Ben Chua">
    <latitude>11.183333</latitude>
    <longitude>106.433333</longitude>
  </city>
  <city name="Ap Ben Da">
    <latitude>10.466667</latitude>
    <longitude>107.066667</longitude>
  </city>
  <city name="Ap Ben Dinh">
    <latitude>11.15</latitude>
    <longitude>106.166667</longitude>
  </city>
  <city name="Ap Ben Do Ao">
    <latitude>10.933333</latitude>
    <longitude>106.533333</longitude>
  </city>
  <city name="Ap Ben Do">
    <latitude>10.933333</latitude>
    <longitude>106.533333</longitude>
  </city>
  <city name="Ap Ben Doi">
    <latitude>11.2</latitude>
    <longitude>106.15</longitude>
  </city>
  <city name="Ap Ben Dong So">
    <latitude>11.233333</latitude>
    <longitude>106.65</longitude>
  </city>
  <city name="Ap Ben Go">
    <latitude>9.218056</latitude>
    <longitude>105.083333</longitude>
  </city>
  <city name="Ap Ben Ke">
    <latitude>10.65</latitude>
    <longitude>107.45</longitude>
  </city>
  <city name="Ap Ben Ma">
    <latitude>9.278889</latitude>
    <longitude>105.374722</longitude>
  </city>
  <city name="Ap Ben Muong">
    <latitude>11.166667</latitude>
    <longitude>106.233333</longitude>
  </city>
  <city name="Ap Ben Rong">
    <latitude>11.2</latitude>
    <longitude>106.2</longitude>
  </city>
  <city name="Ap Ben San">
    <latitude>11.2</latitude>
    <longitude>106.516667</longitude>
  </city>
  <city name="Ap Ben Thang">
    <latitude>10.933333</latitude>
    <longitude>106.333333</longitude>
  </city>
  <city name="Ap Ben The">
    <latitude>11.016667</latitude>
    <longitude>106.616667</longitude>
  </city>
  <city name="Ap Ben Tram">
    <latitude>10.85</latitude>
    <longitude>105.85</longitude>
  </city>
  <city name="Ap Ben Tranh">
    <latitude>11.283333</latitude>
    <longitude>106.45</longitude>
  </city>
  <city name="Ap Ben Xoai">
    <latitude>10.9</latitude>
    <longitude>105.95</longitude>
  </city>
  <city name="Ap Bia">
    <latitude>10.833333</latitude>
    <longitude>107.516667</longitude>
  </city>
  <city name="Ap Bich Son">
    <latitude>11.933333</latitude>
    <longitude>107.766667</longitude>
  </city>
  <city name="Ap Bie18n">
    <latitude>9.25</latitude>
    <longitude>105.783333</longitude>
  </city>
  <city name="Ap Bien">
    <latitude>9.247222</latitude>
    <longitude>105.779722</longitude>
  </city>
  <city name="Ap Bin Chanh">
    <latitude>10.566667</latitude>
    <longitude>105.25</longitude>
  </city>
  <city name="Ap Binh An">
    <latitude>10.483333</latitude>
    <longitude>105.333333</longitude>
  </city>
  <city name="Ap Binh-An Xuan">
    <latitude>15.4</latitude>
    <longitude>108.366667</longitude>
  </city>
  <city name="Ap Binh">
    <latitude>10.483333</latitude>
    <longitude>105.666667</longitude>
  </city>
  <city name="Ap Binh Ba">
    <latitude>11.833333</latitude>
    <longitude>109.233333</longitude>
  </city>
  <city name="Ap Binh Chanh">
    <latitude>10.566667</latitude>
    <longitude>105.25</longitude>
  </city>
  <city name="Ap Binh Chau">
    <latitude>10.85</latitude>
    <longitude>105.833333</longitude>
  </city>
  <city name="Ap Binh Dien">
    <latitude>10.533333</latitude>
    <longitude>106.483333</longitude>
  </city>
  <city name="Ap Binh Dinh">
    <latitude>10.166667</latitude>
    <longitude>106.033333</longitude>
  </city>
  <city name="Ap Binh Dong">
    <latitude>9.994722</latitude>
    <longitude>106.396944</longitude>
  </city>
  <city name="Ap Binh Dong Ha">
    <latitude>10.116667</latitude>
    <longitude>106.533333</longitude>
  </city>
  <city name="Ap Binh Duc">
    <latitude>10.65</latitude>
    <longitude>106.7</longitude>
  </city>
  <city name="Ap Binh Duong">
    <latitude>10.05</latitude>
    <longitude>105.733333</longitude>
  </city>
  <city name="Ap Binh Giao">
    <latitude>10.65</latitude>
    <longitude>106.616667</longitude>
  </city>
  <city name="Ap Binh Hiep">
    <latitude>10.366667</latitude>
    <longitude>105.533333</longitude>
  </city>
  <city name="Ap Binh Hoa">
    <latitude>10.283333</latitude>
    <longitude>106.016667</longitude>
  </city>
  <city name="Ap Binh-Hoa A va B">
    <latitude>11.016667</latitude>
    <longitude>106.233333</longitude>
  </city>
  <city name="Ap Binh Hoi">
    <latitude>10.383333</latitude>
    <longitude>105.55</longitude>
  </city>
  <city name="Ap Binh Hung">
    <latitude>10.55</latitude>
    <longitude>105.266667</longitude>
  </city>
  <city name="Ap Binh Huu">
    <latitude>10.833333</latitude>
    <longitude>106.466667</longitude>
  </city>
  <city name="Ap Binh Ke">
    <latitude>10.033333</latitude>
    <longitude>105.65</longitude>
  </city>
  <city name="Ap Binh Khanh">
    <latitude>10.383333</latitude>
    <longitude>105.416667</longitude>
  </city>
  <city name="Ap Binh Khuong">
    <latitude>10.466667</latitude>
    <longitude>106.566667</longitude>
  </city>
  <city name="Ap Binh Lac">
    <latitude>10.066667</latitude>
    <longitude>105.75</longitude>
  </city>
  <city name="Ap Binh Lam">
    <latitude>11.016667</latitude>
    <longitude>108.133333</longitude>
  </city>
  <city name="Ap Binh Lan">
    <latitude>11.783333</latitude>
    <longitude>107.066667</longitude>
  </city>
  <city name="Ap Binh Loc">
    <latitude>9.155278</latitude>
    <longitude>105.029722</longitude>
  </city>
  <city name="Ap Binh Loi">
    <latitude>10.333333</latitude>
    <longitude>105.5</longitude>
  </city>
  <city name="Ap Binh Long">
    <latitude>10.383333</latitude>
    <longitude>105.766667</longitude>
  </city>
  <city name="Ap Binh Luong">
    <latitude>11.35</latitude>
    <longitude>106.066667</longitude>
  </city>
  <city name="Ap Binh Luong Dong">
    <latitude>10.583333</latitude>
    <longitude>106.383333</longitude>
  </city>
  <city name="Ap Binh Ly">
    <latitude>10.9</latitude>
    <longitude>105.383333</longitude>
  </city>
  <city name="Ap Binh Nhi">
    <latitude>10.35</latitude>
    <longitude>106.566667</longitude>
  </city>
  <city name="Ap Binh Ninh">
    <latitude>10.166667</latitude>
    <longitude>106.516667</longitude>
  </city>
  <city name="Ap Binh Pho">
    <latitude>10.033333</latitude>
    <longitude>105.733333</longitude>
  </city>
  <city name="Ap Binh Phu">
    <latitude>10.45</latitude>
    <longitude>105.366667</longitude>
  </city>
  <city name="Ap Binh Phuc Dong">
    <latitude>10.383333</latitude>
    <longitude>106.466667</longitude>
  </city>
  <city name="Ap Binh Phung">
    <latitude>10.283333</latitude>
    <longitude>106.05</longitude>
  </city>
  <city name="Ap Binh Phuoc">
    <latitude>10.45</latitude>
    <longitude>105.566667</longitude>
  </city>
  <city name="Ap Binh Quang">
    <latitude>10.516667</latitude>
    <longitude>106.4</longitude>
  </city>
  <city name="Ap Binh Qui">
    <latitude>10.166667</latitude>
    <longitude>106.483333</longitude>
  </city>
  <city name="Ap Binh Quon">
    <latitude>10.4</latitude>
    <longitude>106.483333</longitude>
  </city>
  <city name="Ap Binh Quy">
    <latitude>10.916667</latitude>
    <longitude>106.666667</longitude>
  </city>
  <city name="Ap Binh Son">
    <latitude>10.8</latitude>
    <longitude>107.016667</longitude>
  </city>
  <city name="Ap Binh Sung">
    <latitude>10.366667</latitude>
    <longitude>105.533333</longitude>
  </city>
  <city name="Ap Binh Ta">
    <latitude>10.833333</latitude>
    <longitude>106.466667</longitude>
  </city>
  <city name="Ap Binh Tan">
    <latitude>10.45</latitude>
    <longitude>105.55</longitude>
  </city>
  <city name="Âp Bình Than">
    <latitude>10.916667</latitude>
    <longitude>106.7</longitude>
  </city>
  <city name="Ap Binh Thanh">
    <latitude>10.416667</latitude>
    <longitude>105.416667</longitude>
  </city>
  <city name="Ap Binh Thanh Trung">
    <latitude>10.2</latitude>
    <longitude>105.216667</longitude>
  </city>
  <city name="Ap Binh Thi">
    <latitude>10.816667</latitude>
    <longitude>106.45</longitude>
  </city>
  <city name="Ap Binh Thien">
    <latitude>10.166667</latitude>
    <longitude>106.0</longitude>
  </city>
  <city name="Ap Binh Tho">
    <latitude>10.533333</latitude>
    <longitude>105.283333</longitude>
  </city>
  <city name="Ap Binh Thoi">
    <latitude>10.4</latitude>
    <longitude>105.416667</longitude>
  </city>
  <city name="Ap Binh Thuan">
    <latitude>10.183333</latitude>
    <longitude>106.7</longitude>
  </city>
  <city name="Ap Binh Thuong">
    <latitude>10.016667</latitude>
    <longitude>105.733333</longitude>
  </city>
  <city name="Ap Binh Thuy">
    <latitude>10.833333</latitude>
    <longitude>106.5</longitude>
  </city>
  <city name="Ap Binh Tien">
    <latitude>10.183333</latitude>
    <longitude>106.516667</longitude>
  </city>
  <city name="Ap Binh Tri">
    <latitude>10.433333</latitude>
    <longitude>106.566667</longitude>
  </city>
  <city name="Ap Binh Trung">
    <latitude>10.466667</latitude>
    <longitude>105.55</longitude>
  </city>
  <city name="Ap Binh Truong Tay">
    <latitude>10.566667</latitude>
    <longitude>106.466667</longitude>
  </city>
  <city name="Ap Binh Tu">
    <latitude>10.9</latitude>
    <longitude>108.066667</longitude>
  </city>
  <city name="Ap Binh Xuan">
    <latitude>10.183333</latitude>
    <longitude>106.55</longitude>
  </city>
  <city name="Ap Binh Yen">
    <latitude>10.533333</latitude>
    <longitude>106.4</longitude>
  </city>
  <city name="Ap Bo">
    <latitude>11.15</latitude>
    <longitude>106.716667</longitude>
  </city>
  <city name="Ap Bo Cang">
    <latitude>11.25</latitude>
    <longitude>106.5</longitude>
  </city>
  <city name="Ap Boi">
    <latitude>19.3</latitude>
    <longitude>105.416667</longitude>
  </city>
  <city name="Ap Boi Loi">
    <latitude>9.578333</latitude>
    <longitude>105.262222</longitude>
  </city>
  <city name="Ap Bo La">
    <latitude>11.2</latitude>
    <longitude>106.733333</longitude>
  </city>
  <city name="Ap Bo Lon">
    <latitude>11.333333</latitude>
    <longitude>106.2</longitude>
  </city>
  <city name="Ap Bon">
    <latitude>15.7</latitude>
    <longitude>108.116667</longitude>
  </city>
  <city name="Ap Bon B'sop">
    <latitude>11.933333</latitude>
    <longitude>107.75</longitude>
  </city>
  <city name="Ap Bong Gieng">
    <latitude>10.633333</latitude>
    <longitude>106.8</longitude>
  </city>
  <city name="Ap Bong Trang">
    <latitude>11.2</latitude>
    <longitude>106.666667</longitude>
  </city>
  <city name="Ap Bo Ray">
    <latitude>11.383333</latitude>
    <longitude>108.1</longitude>
  </city>
  <city name="Ap Both Ko Ky">
    <latitude>9.566667</latitude>
    <longitude>106.0</longitude>
  </city>
  <city name="Ap Boum">
    <latitude>16.316667</latitude>
    <longitude>107.066667</longitude>
  </city>
  <city name="Ap Brahon">
    <latitude>15.683333</latitude>
    <longitude>107.583333</longitude>
  </city>
  <city name="Ap Bu Karr">
    <latitude>11.783333</latitude>
    <longitude>106.85</longitude>
  </city>
  <city name="Ap Bung Binh">
    <latitude>9.136389</latitude>
    <longitude>105.207222</longitude>
  </city>
  <city name="Ap Bung Cau">
    <latitude>11.016667</latitude>
    <longitude>106.65</longitude>
  </city>
  <city name="Ap Bung Chong">
    <latitude>9.55</latitude>
    <longitude>106.05</longitude>
  </city>
  <city name="Ap Bung Lon">
    <latitude>9.916111</latitude>
    <longitude>106.018611</longitude>
  </city>
  <city name="Ap Bung Rieng">
    <latitude>10.566667</latitude>
    <longitude>107.483333</longitude>
  </city>
  <city name="Ap Bung Thom">
    <latitude>9.574444</latitude>
    <longitude>106.108889</longitude>
  </city>
  <city name="Ap Bung Tung">
    <latitude>9.403889</latitude>
    <longitude>106.013889</longitude>
  </city>
  <city name="Ap Bu Nho">
    <latitude>11.733333</latitude>
    <longitude>106.85</longitude>
  </city>
  <city name="Ap Buo18i Can">
    <latitude>9.233333</latitude>
    <longitude>105.733333</longitude>
  </city>
  <city name="Ap Bu Thanh">
    <latitude>11.7</latitude>
    <longitude>106.683333</longitude>
  </city>
  <city name="Ap Ca Cac">
    <latitude>10.816667</latitude>
    <longitude>105.766667</longitude>
  </city>
  <city name="Ap Ca Co">
    <latitude>9.591111</latitude>
    <longitude>106.323056</longitude>
  </city>
  <city name="Ap Ca Coi">
    <latitude>9.591111</latitude>
    <longitude>106.323056</longitude>
  </city>
  <city name="Ap Ca Goc">
    <latitude>10.833333</latitude>
    <longitude>105.683333</longitude>
  </city>
  <city name="Ap Ca Hang">
    <latitude>10.15</latitude>
    <longitude>106.233333</longitude>
  </city>
  <city name="Ap Ca Hoan">
    <latitude>10.716667</latitude>
    <longitude>105.966667</longitude>
  </city>
  <city name="Ap Cai Chuoi">
    <latitude>10.233333</latitude>
    <longitude>106.0</longitude>
  </city>
  <city name="Ap Cai Cuu">
    <latitude>9.450278</latitude>
    <longitude>105.732222</longitude>
  </city>
  <city name="Ap Cai Day">
    <latitude>9.35</latitude>
    <longitude>105.716667</longitude>
  </city>
  <city name="Ap Cai Dia">
    <latitude>9.615</latitude>
    <longitude>105.368611</longitude>
  </city>
  <city name="Ap Cai Duoc Nho">
    <latitude>9.866667</latitude>
    <longitude>105.366667</longitude>
  </city>
  <city name="Ap Cai Gia">
    <latitude>9.751667</latitude>
    <longitude>106.49</longitude>
  </city>
  <city name="Ap Cai Giay">
    <latitude>9.35</latitude>
    <longitude>105.716667</longitude>
  </city>
  <city name="Ap Cai Gieng">
    <latitude>9.027222</latitude>
    <longitude>105.054722</longitude>
  </city>
  <city name="Ap Cai Giua">
    <latitude>9.245833</latitude>
    <longitude>105.158611</longitude>
  </city>
  <city name="Ap Cai Goc">
    <latitude>10.85</latitude>
    <longitude>105.7</longitude>
  </city>
  <city name="Ap Cai Keo">
    <latitude>9.096111</latitude>
    <longitude>105.295</longitude>
  </city>
  <city name="Ap Cai Mon">
    <latitude>10.833333</latitude>
    <longitude>105.733333</longitude>
  </city>
  <city name="Ap Cai Ngan">
    <latitude>9.153333</latitude>
    <longitude>105.213333</longitude>
  </city>
  <city name="Ap Cai Nhum">
    <latitude>9.878333</latitude>
    <longitude>105.337222</longitude>
  </city>
  <city name="Ap Cai Qua">
    <latitude>10.1</latitude>
    <longitude>106.0</longitude>
  </city>
  <city name="Ap Cai Ran">
    <latitude>9.606667</latitude>
    <longitude>105.550556</longitude>
  </city>
  <city name="Ap Cai Rang">
    <latitude>9.086944</latitude>
    <longitude>105.046944</longitude>
  </city>
  <city name="Ap Cai Ro">
    <latitude>9.048889</latitude>
    <longitude>105.122222</longitude>
  </city>
  <city name="Ap Cai Sach">
    <latitude>10.8</latitude>
    <longitude>105.783333</longitude>
  </city>
  <city name="Ap Cai Su">
    <latitude>9.883333</latitude>
    <longitude>105.1</longitude>
  </city>
  <city name="Ap Cai Tac">
    <latitude>11.116667</latitude>
    <longitude>106.116667</longitude>
  </city>
  <city name="Ap Cai Tram">
    <latitude>9.288056</latitude>
    <longitude>105.655278</longitude>
  </city>
  <city name="Ap Cai Trau">
    <latitude>9.566667</latitude>
    <longitude>105.583333</longitude>
  </city>
  <city name="Ap Cai Vang">
    <latitude>9.496111</latitude>
    <longitude>105.38</longitude>
  </city>
  <city name="Ap Ca Lanh Tamung">
    <latitude>10.6</latitude>
    <longitude>104.966667</longitude>
  </city>
  <city name="Ap Ca Loc">
    <latitude>9.618333</latitude>
    <longitude>106.276667</longitude>
  </city>
  <city name="Ap Cam Son">
    <latitude>9.983333</latitude>
    <longitude>106.333333</longitude>
  </city>
  <city name="Ap Ca Na">
    <latitude>10.016667</latitude>
    <longitude>105.966667</longitude>
  </city>
  <city name="Ap Can De">
    <latitude>10.816667</latitude>
    <longitude>106.35</longitude>
  </city>
  <city name="Ap Ca Nga">
    <latitude>10.816667</latitude>
    <longitude>105.75</longitude>
  </city>
  <city name="Ap Cang Nom">
    <latitude>9.785556</latitude>
    <longitude>106.381389</longitude>
  </city>
  <city name="Ap Canh Den">
    <latitude>9.460278</latitude>
    <longitude>105.288056</longitude>
  </city>
  <city name="Ap Ca Nhen Tren">
    <latitude>11.05</latitude>
    <longitude>106.233333</longitude>
  </city>
  <city name="Ap Ca Nhung">
    <latitude>9.783333</latitude>
    <longitude>105.266667</longitude>
  </city>
  <city name="Ap Canle">
    <latitude>11.716667</latitude>
    <longitude>106.6</longitude>
  </city>
  <city name="Ap Can Lo">
    <latitude>10.433333</latitude>
    <longitude>106.133333</longitude>
  </city>
  <city name="Ap Can Thanh">
    <latitude>10.45</latitude>
    <longitude>105.3</longitude>
  </city>
  <city name="Ap Can Thoi">
    <latitude>10.466667</latitude>
    <longitude>105.3</longitude>
  </city>
  <city name="Ap Cao Bang">
    <latitude>16.566667</latitude>
    <longitude>107.466667</longitude>
  </city>
  <city name="Ap Cao Lanh">
    <latitude>9.884167</latitude>
    <longitude>105.175556</longitude>
  </city>
  <city name="Ap Cao Xa">
    <latitude>20.95</latitude>
    <longitude>106.266667</longitude>
  </city>
  <city name="Ap Ca Pho">
    <latitude>10.433333</latitude>
    <longitude>104.583333</longitude>
  </city>
  <city name="Ap Ca Quan">
    <latitude>10.7</latitude>
    <longitude>106.0</longitude>
  </city>
  <city name="Ap Ca Rung">
    <latitude>10.8</latitude>
    <longitude>105.833333</longitude>
  </city>
  <city name="Ap Ca Tac">
    <latitude>10.2</latitude>
    <longitude>106.416667</longitude>
  </city>
  <city name="Ap Cau Ba">
    <latitude>9.524444</latitude>
    <longitude>105.796111</longitude>
  </city>
  <city name="Ap Cau Cay">
    <latitude>11.333333</latitude>
    <longitude>107.016667</longitude>
  </city>
  <city name="Ap Cau Giai">
    <latitude>10.5</latitude>
    <longitude>104.833333</longitude>
  </city>
  <city name="Ap Cau Khoi">
    <latitude>11.25</latitude>
    <longitude>106.216667</longitude>
  </city>
  <city name="Ap Cau Ngan">
    <latitude>10.033333</latitude>
    <longitude>106.35</longitude>
  </city>
  <city name="Ap Cau Quang">
    <latitude>10.733333</latitude>
    <longitude>107.866667</longitude>
  </city>
  <city name="Ap Cau Sang">
    <latitude>10.916667</latitude>
    <longitude>106.6</longitude>
  </city>
  <city name="Ap Cau Sen">
    <latitude>10.783333</latitude>
    <longitude>105.8</longitude>
  </city>
  <city name="Ap Cau Thang">
    <latitude>10.266667</latitude>
    <longitude>104.583333</longitude>
  </city>
  <city name="Ap Cau Xay">
    <latitude>10.516667</latitude>
    <longitude>106.633333</longitude>
  </city>
  <city name="Ap Ca Vang">
    <latitude>10.95</latitude>
    <longitude>105.5</longitude>
  </city>
  <city name="Ap Cay Cam">
    <latitude>10.85</latitude>
    <longitude>105.983333</longitude>
  </city>
  <city name="Ap Cay Cham">
    <latitude>11.016667</latitude>
    <longitude>106.766667</longitude>
  </city>
  <city name="Ap Cay Day">
    <latitude>9.35</latitude>
    <longitude>105.716667</longitude>
  </city>
  <city name="Ap Cay Duong">
    <latitude>9.3</latitude>
    <longitude>105.578611</longitude>
  </city>
  <city name="Ap Cay Gia">
    <latitude>9.145833</latitude>
    <longitude>105.298889</longitude>
  </city>
  <city name="Ap Cay Gian">
    <latitude>9.212222</latitude>
    <longitude>105.489444</longitude>
  </city>
  <city name="Ap Cay Gua">
    <latitude>9.210278</latitude>
    <longitude>105.375833</longitude>
  </city>
  <city name="Ap Cay Sop">
    <latitude>9.128333</latitude>
    <longitude>105.251944</longitude>
  </city>
  <city name="Ap Cay Xang">
    <latitude>11.083333</latitude>
    <longitude>107.233333</longitude>
  </city>
  <city name="Ap Cha Do">
    <latitude>11.466667</latitude>
    <longitude>106.3</longitude>
  </city>
  <city name="Ap Cham">
    <latitude>11.066667</latitude>
    <longitude>107.683333</longitude>
  </city>
  <city name="Ap Chang Be">
    <latitude>9.119444</latitude>
    <longitude>105.321111</longitude>
  </city>
  <city name="Ap Chang Hai">
    <latitude>11.85</latitude>
    <longitude>106.733333</longitude>
  </city>
  <city name="Ap Chanh">
    <latitude>10.881111</latitude>
    <longitude>106.5975</longitude>
  </city>
  <city name="Ap Chanh Hung">
    <latitude>10.183333</latitude>
    <longitude>106.1</longitude>
  </city>
  <city name="Ap Chanh Tuong">
    <latitude>10.566667</latitude>
    <longitude>106.6</longitude>
  </city>
  <city name="Ap Chau Ma">
    <latitude>10.716667</latitude>
    <longitude>105.35</longitude>
  </city>
  <city name="Ap Chau Thanh">
    <latitude>9.476944</latitude>
    <longitude>106.16</longitude>
  </city>
  <city name="Ap Chau Thoi">
    <latitude>10.7</latitude>
    <longitude>105.133333</longitude>
  </city>
  <city name="Ap Cha Va">
    <latitude>9.851111</latitude>
    <longitude>106.449444</longitude>
  </city>
  <city name="Ap Chi">
    <latitude>9.3775</latitude>
    <longitude>106.043333</longitude>
  </city>
  <city name="Ap Chin">
    <latitude>10.2</latitude>
    <longitude>106.183333</longitude>
  </city>
  <city name="Ap Chinh An">
    <latitude>16.666667</latitude>
    <longitude>107.416667</longitude>
  </city>
  <city name="Ap Chinh Hoa">
    <latitude>10.766667</latitude>
    <longitude>106.416667</longitude>
  </city>
  <city name="Ap Cho">
    <latitude>10.05</latitude>
    <longitude>106.55</longitude>
  </city>
  <city name="Ap Cho Ben">
    <latitude>10.466667</latitude>
    <longitude>107.216667</longitude>
  </city>
  <city name="Ap Cho Dinh">
    <latitude>10.95</latitude>
    <longitude>108.15</longitude>
  </city>
  <city name="Ap Choi Moi">
    <latitude>10.966667</latitude>
    <longitude>106.216667</longitude>
  </city>
  <city name="Ap Cho Kinh Cung">
    <latitude>9.805278</latitude>
    <longitude>105.647222</longitude>
  </city>
  <city name="Ap Chom Ca">
    <latitude>10.55</latitude>
    <longitude>105.283333</longitude>
  </city>
  <city name="Ap Chom Chui">
    <latitude>9.752778</latitude>
    <longitude>106.306944</longitude>
  </city>
  <city name="Ap Chong Giang">
    <latitude>9.7625</latitude>
    <longitude>106.358611</longitude>
  </city>
  <city name="Ap Chong No">
    <latitude>9.855556</latitude>
    <longitude>106.043333</longitude>
  </city>
  <city name="Ap Chong Su">
    <latitude>9.992778</latitude>
    <longitude>105.164167</longitude>
  </city>
  <city name="Ap Chong Tap">
    <latitude>9.880278</latitude>
    <longitude>106.301111</longitude>
  </city>
  <city name="Ap Chon Thanh">
    <latitude>11.4</latitude>
    <longitude>106.6</longitude>
  </city>
  <city name="Ap Chot">
    <latitude>9.9575</latitude>
    <longitude>106.138611</longitude>
  </city>
  <city name="Ap Chua Ba Leng">
    <latitude>9.686667</latitude>
    <longitude>105.837778</longitude>
  </city>
  <city name="Ap Chua Hoa">
    <latitude>11.516667</latitude>
    <longitude>106.733333</longitude>
  </city>
  <city name="Ap Chuoi Nuoc">
    <latitude>11.15</latitude>
    <longitude>106.1</longitude>
  </city>
  <city name="Ap Co18 Bi">
    <latitude>16.5</latitude>
    <longitude>107.45</longitude>
  </city>
  <city name="Ap Co18 Co">
    <latitude>9.416667</latitude>
    <longitude>105.95</longitude>
  </city>
  <city name="Ap Co18 Thap">
    <latitude>16.55</latitude>
    <longitude>107.466667</longitude>
  </city>
  <city name="Ap Co18 Trach">
    <latitude>11.2</latitude>
    <longitude>106.4</longitude>
  </city>
  <city name="Ap Co18 Xuan">
    <latitude>16.533333</latitude>
    <longitude>107.383333</longitude>
  </city>
  <city name="Ap Co">
    <latitude>21.274159</latitude>
    <longitude>105.392489</longitude>
  </city>
  <city name="Ap Co Ba">
    <latitude>9.529167</latitude>
    <longitude>105.609444</longitude>
  </city>
  <city name="Ap Con Cu">
    <latitude>9.55</latitude>
    <longitude>106.45</longitude>
  </city>
  <city name="Ap Cong Ca">
    <latitude>10.516667</latitude>
    <longitude>104.683333</longitude>
  </city>
  <city name="Ap Cong Dien">
    <latitude>9.406944</latitude>
    <longitude>105.738056</longitude>
  </city>
  <city name="Ap Cong Nghiep">
    <latitude>9.1</latitude>
    <longitude>104.9</longitude>
  </city>
  <city name="Ap Co Sa">
    <latitude>11.183333</latitude>
    <longitude>106.166667</longitude>
  </city>
  <city name="Ap Co Sang">
    <latitude>10.466667</latitude>
    <longitude>104.583333</longitude>
  </city>
  <city name="Ap Co Tuat">
    <latitude>9.95</latitude>
    <longitude>105.283333</longitude>
  </city>
  <city name="Ap Co Xuoc">
    <latitude>9.156667</latitude>
    <longitude>105.078889</longitude>
  </city>
  <city name="Ap Cu B">
    <latitude>10.683333</latitude>
    <longitude>107.216667</longitude>
  </city>
  <city name="Ap Cu La">
    <latitude>9.9</latitude>
    <longitude>105.166667</longitude>
  </city>
  <city name="Ap Cu Lao">
    <latitude>10.813889</latitude>
    <longitude>106.591389</longitude>
  </city>
  <city name="Ap Cu Lao Tre">
    <latitude>10.95</latitude>
    <longitude>106.383333</longitude>
  </city>
  <city name="Ap Da Bac">
    <latitude>9.183333</latitude>
    <longitude>104.816667</longitude>
  </city>
  <city name="Ap Da Chong">
    <latitude>21.133333</latitude>
    <longitude>105.333333</longitude>
  </city>
  <city name="Ap Dai An">
    <latitude>9.8</latitude>
    <longitude>106.0</longitude>
  </city>
  <city name="Ap Dai Bai">
    <latitude>9.339167</latitude>
    <longitude>106.066111</longitude>
  </city>
  <city name="Ap Dai La">
    <latitude>16.033333</latitude>
    <longitude>108.116667</longitude>
  </city>
  <city name="Ap Dai Mong">
    <latitude>9.798056</latitude>
    <longitude>106.181111</longitude>
  </city>
  <city name="Ap Dai Nga">
    <latitude>11.533333</latitude>
    <longitude>107.866667</longitude>
  </city>
  <city name="Ap Dai Tai">
    <latitude>10.916667</latitude>
    <longitude>108.083333</longitude>
  </city>
  <city name="Ap Dai Thanh">
    <latitude>11.983333</latitude>
    <longitude>108.983333</longitude>
  </city>
  <city name="Ap Da Loc">
    <latitude>11.933333</latitude>
    <longitude>108.516667</longitude>
  </city>
  <city name="Ap Da Loi">
    <latitude>11.933333</latitude>
    <longitude>108.466667</longitude>
  </city>
  <city name="Ap Da Mai">
    <latitude>10.833333</latitude>
    <longitude>107.683333</longitude>
  </city>
  <city name="Ap Dam Chit">
    <latitude>10.533333</latitude>
    <longitude>104.65</longitude>
  </city>
  <city name="Ap Dam Thu">
    <latitude>10.583333</latitude>
    <longitude>106.383333</longitude>
  </city>
  <city name="Ap Dam Tra Cu">
    <latitude>9.682222</latitude>
    <longitude>106.208889</longitude>
  </city>
  <city name="Ap Dang Gia Dit">
    <latitude>12.05</latitude>
    <longitude>108.4</longitude>
  </city>
  <city name="Ap Dangia">
    <latitude>12.016667</latitude>
    <longitude>108.433333</longitude>
  </city>
  <city name="Ap Dang Lam">
    <latitude>9.703889</latitude>
    <longitude>106.366944</longitude>
  </city>
  <city name="Ap Dan Kia">
    <latitude>12.016667</latitude>
    <longitude>108.4</longitude>
  </city>
  <city name="Ap Dao">
    <latitude>10.9</latitude>
    <longitude>106.316667</longitude>
  </city>
  <city name="Ap Dao Du">
    <latitude>9.616944</latitude>
    <longitude>105.508611</longitude>
  </city>
  <city name="Ap Dao Vien">
    <latitude>9.45</latitude>
    <longitude>105.8</longitude>
  </city>
  <city name="Ap Da Phuoc">
    <latitude>16.066667</latitude>
    <longitude>108.15</longitude>
  </city>
  <city name="Ap Dap Truong">
    <latitude>10.316667</latitude>
    <longitude>106.666667</longitude>
  </city>
  <city name="Ap Dat Chay">
    <latitude>9.016667</latitude>
    <longitude>104.916667</longitude>
  </city>
  <city name="Ap Dat Do">
    <latitude>10.05</latitude>
    <longitude>104.0</longitude>
  </city>
  <city name="Ap Da Thanh">
    <latitude>11.966667</latitude>
    <longitude>108.433333</longitude>
  </city>
  <city name="Ap Da Thien">
    <latitude>11.966667</latitude>
    <longitude>108.45</longitude>
  </city>
  <city name="Ap Dau Chich">
    <latitude>11.35</latitude>
    <longitude>105.95</longitude>
  </city>
  <city name="Ap Dau Giong">
    <latitude>9.8</latitude>
    <longitude>106.35</longitude>
  </city>
  <city name="Ap Dau La">
    <latitude>9.196389</latitude>
    <longitude>105.423056</longitude>
  </city>
  <city name="Ap Day Ba">
    <latitude>9.479444</latitude>
    <longitude>105.883611</longitude>
  </city>
  <city name="Ap Day Oan">
    <latitude>9.591111</latitude>
    <longitude>105.537778</longitude>
  </city>
  <city name="Ap Den">
    <latitude>10.633333</latitude>
    <longitude>107.483333</longitude>
  </city>
  <city name="Ap Dien Hoi">
    <latitude>9.560278</latitude>
    <longitude>105.668611</longitude>
  </city>
  <city name="Ap Dien Tang">
    <latitude>17.366667</latitude>
    <longitude>106.733333</longitude>
  </city>
  <city name="Ap Dien Thay Hoi">
    <latitude>9.8</latitude>
    <longitude>105.516667</longitude>
  </city>
  <city name="Ap Dien Truong">
    <latitude>9.05</latitude>
    <longitude>104.933333</longitude>
  </city>
  <city name="Ap Dieu Hoa">
    <latitude>11.033333</latitude>
    <longitude>106.783333</longitude>
  </city>
  <city name="Ap Dinh An">
    <latitude>11.883333</latitude>
    <longitude>108.483333</longitude>
  </city>
  <city name="Ap Dinh">
    <latitude>10.778611</latitude>
    <longitude>106.710833</longitude>
  </city>
  <city name="Ap Dinh Ba">
    <latitude>10.75</latitude>
    <longitude>107.883333</longitude>
  </city>
  <city name="Ap Dinh Hoa">
    <latitude>10.2</latitude>
    <longitude>105.666667</longitude>
  </city>
  <city name="Ap Dinh Phu">
    <latitude>9.912778</latitude>
    <longitude>105.228889</longitude>
  </city>
  <city name="Ap Dinh Tan">
    <latitude>9.955556</latitude>
    <longitude>105.251944</longitude>
  </city>
  <city name="Ap Dinh Thoi">
    <latitude>10.216667</latitude>
    <longitude>106.1</longitude>
  </city>
  <city name="Ap Doan Van">
    <latitude>12.066667</latitude>
    <longitude>107.483333</longitude>
  </city>
  <city name="Ap Do Hoa">
    <latitude>10.616667</latitude>
    <longitude>106.866667</longitude>
  </city>
  <city name="Ap Dong An">
    <latitude>10.35</latitude>
    <longitude>105.383333</longitude>
  </city>
  <city name="Ap Don Ganh">
    <latitude>11.233333</latitude>
    <longitude>106.566667</longitude>
  </city>
  <city name="Ap Dong">
    <latitude>10.483333</latitude>
    <longitude>105.566667</longitude>
  </city>
  <city name="Ap Dong Binh">
    <latitude>10.1</latitude>
    <longitude>105.316667</longitude>
  </city>
  <city name="Ap Dong Binh Trach">
    <latitude>10.35</latitude>
    <longitude>105.35</longitude>
  </city>
  <city name="Ap Dong Cao">
    <latitude>9.548889</latitude>
    <longitude>106.434444</longitude>
  </city>
  <city name="Ap Dong Chinh">
    <latitude>11.2</latitude>
    <longitude>106.733333</longitude>
  </city>
  <city name="Ap Dong Co Ki">
    <latitude>10.916667</latitude>
    <longitude>105.083333</longitude>
  </city>
  <city name="Ap Dong Da">
    <latitude>11.283333</latitude>
    <longitude>106.783333</longitude>
  </city>
  <city name="Ap Dong Do">
    <latitude>21.283333</latitude>
    <longitude>105.766667</longitude>
  </city>
  <city name="Ap Dong Gi">
    <latitude>16.483333</latitude>
    <longitude>107.683333</longitude>
  </city>
  <city name="Ap Dong Hiep">
    <latitude>10.95</latitude>
    <longitude>106.616667</longitude>
  </city>
  <city name="Ap Dong Hoa">
    <latitude>10.666667</latitude>
    <longitude>105.033333</longitude>
  </city>
  <city name="Ap Dong Ho">
    <latitude>16.616667</latitude>
    <longitude>107.45</longitude>
  </city>
  <city name="Ap Dong Hung">
    <latitude>10.016667</latitude>
    <longitude>105.85</longitude>
  </city>
  <city name="Ap Dong Lam">
    <latitude>16.55</latitude>
    <longitude>107.516667</longitude>
  </city>
  <city name="Ap Dong Lan">
    <latitude>10.666667</latitude>
    <longitude>106.966667</longitude>
  </city>
  <city name="Ap Dong Loc">
    <latitude>10.1</latitude>
    <longitude>105.266667</longitude>
  </city>
  <city name="Ap Dong Loi">
    <latitude>10.033333</latitude>
    <longitude>105.833333</longitude>
  </city>
  <city name="Ap Dong Lon">
    <latitude>9.293611</latitude>
    <longitude>105.550833</longitude>
  </city>
  <city name="Ap Dong Long">
    <latitude>11.683333</latitude>
    <longitude>106.6</longitude>
  </city>
  <city name="Ap Dong Mieu I">
    <latitude>9.277778</latitude>
    <longitude>105.440556</longitude>
  </city>
  <city name="Ap Dong My">
    <latitude>9.908056</latitude>
    <longitude>105.802222</longitude>
  </city>
  <city name="Ap Dong Nguon">
    <latitude>10.383333</latitude>
    <longitude>106.6</longitude>
  </city>
  <city name="Ap Dong Nhi">
    <latitude>10.816667</latitude>
    <longitude>106.716667</longitude>
  </city>
  <city name="Âp Ðông Nhì">
    <latitude>10.820833</latitude>
    <longitude>106.696111</longitude>
  </city>
  <city name="Ap Dong Nhon">
    <latitude>10.2</latitude>
    <longitude>106.466667</longitude>
  </city>
  <city name="Ap Dong Nhut">
    <latitude>10.95</latitude>
    <longitude>106.616667</longitude>
  </city>
  <city name="Ap Dong Ninh">
    <latitude>10.416667</latitude>
    <longitude>106.516667</longitude>
  </city>
  <city name="Ap Dong Phat">
    <latitude>11.616667</latitude>
    <longitude>106.616667</longitude>
  </city>
  <city name="Ap Dong Phu">
    <latitude>10.35</latitude>
    <longitude>105.316667</longitude>
  </city>
  <city name="Ap Dong Phuoc">
    <latitude>10.05</latitude>
    <longitude>105.233333</longitude>
  </city>
  <city name="Ap Dong Qui">
    <latitude>10.316667</latitude>
    <longitude>105.766667</longitude>
  </city>
  <city name="Ap Dong Sac">
    <latitude>11.15</latitude>
    <longitude>106.75</longitude>
  </city>
  <city name="Ap Dong Sao">
    <latitude>10.95</latitude>
    <longitude>106.566667</longitude>
  </city>
  <city name="Ap Dong Son">
    <latitude>10.266667</latitude>
    <longitude>105.266667</longitude>
  </city>
  <city name="Ap Dong Tau">
    <latitude>11.733333</latitude>
    <longitude>106.75</longitude>
  </city>
  <city name="Ap Dong Thanh">
    <latitude>10.333333</latitude>
    <longitude>105.466667</longitude>
  </city>
  <city name="Ap Dong Thanh Thuong">
    <latitude>10.25</latitude>
    <longitude>106.033333</longitude>
  </city>
  <city name="Ap Dong Thoi">
    <latitude>10.4</latitude>
    <longitude>106.566667</longitude>
  </city>
  <city name="Ap Dong Xoai">
    <latitude>11.533333</latitude>
    <longitude>106.916667</longitude>
  </city>
  <city name="Ap Dong Xuan">
    <latitude>21.018937</latitude>
    <longitude>105.302453</longitude>
  </city>
  <city name="Ap Dua">
    <latitude>10.25</latitude>
    <longitude>106.45</longitude>
  </city>
  <city name="Ap Duc Hoa">
    <latitude>10.066667</latitude>
    <longitude>106.216667</longitude>
  </city>
  <city name="Ap Duc Hot">
    <latitude>10.066667</latitude>
    <longitude>106.216667</longitude>
  </city>
  <city name="Ap Duc My">
    <latitude>10.05</latitude>
    <longitude>106.283333</longitude>
  </city>
  <city name="Ap Duc Vinh">
    <latitude>11.583333</latitude>
    <longitude>106.616667</longitude>
  </city>
  <city name="Ap Duog Tac">
    <latitude>9.247778</latitude>
    <longitude>105.583611</longitude>
  </city>
  <city name="Ap Duong Dap">
    <latitude>11.033333</latitude>
    <longitude>106.783333</longitude>
  </city>
  <city name="Ap Duong Hoa">
    <latitude>10.3</latitude>
    <longitude>106.683333</longitude>
  </city>
  <city name="Ap Duong Long">
    <latitude>11.183333</latitude>
    <longitude>106.466667</longitude>
  </city>
  <city name="Ap Duong Phu">
    <latitude>10.516667</latitude>
    <longitude>106.333333</longitude>
  </city>
  <city name="Ap Duong Ranh">
    <latitude>9.133333</latitude>
    <longitude>104.816667</longitude>
  </city>
  <city name="À Pé Ló Tè">
    <latitude>22.466667</latitude>
    <longitude>102.35</longitude>
  </city>
  <city name="Ap Ganh Gia">
    <latitude>10.25</latitude>
    <longitude>103.966667</longitude>
  </city>
  <city name="Ap Gia Bac">
    <latitude>11.333333</latitude>
    <longitude>108.083333</longitude>
  </city>
  <city name="Ap Gia Binh">
    <latitude>11.05</latitude>
    <longitude>106.316667</longitude>
  </city>
  <city name="Ap Gia Hoi">
    <latitude>10.433333</latitude>
    <longitude>106.483333</longitude>
  </city>
  <city name="Ap Gia Huynh">
    <latitude>10.983333</latitude>
    <longitude>107.533333</longitude>
  </city>
  <city name="Ap Giai Lang">
    <latitude>9.438889</latitude>
    <longitude>106.065</longitude>
  </city>
  <city name="Ap Gia Khanh">
    <latitude>10.183333</latitude>
    <longitude>106.25</longitude>
  </city>
  <city name="Ap Gia Kiet">
    <latitude>9.966667</latitude>
    <longitude>106.0</longitude>
  </city>
  <city name="Ap Gia Lang">
    <latitude>9.438889</latitude>
    <longitude>106.065</longitude>
  </city>
  <city name="Ap Gia Loc">
    <latitude>11.05</latitude>
    <longitude>106.35</longitude>
  </city>
  <city name="Ap Giao Dien">
    <latitude>9.916111</latitude>
    <longitude>106.630833</longitude>
  </city>
  <city name="Ap Giao Du">
    <latitude>9.616667</latitude>
    <longitude>105.483333</longitude>
  </city>
  <city name="Ap Giao Hoa">
    <latitude>9.866667</latitude>
    <longitude>106.616667</longitude>
  </city>
  <city name="Ap Giao Thanh">
    <latitude>9.8925</latitude>
    <longitude>106.614167</longitude>
  </city>
  <city name="Ap Giao Thoi">
    <latitude>9.890833</latitude>
    <longitude>106.658333</longitude>
  </city>
  <city name="Ap Giap Minh">
    <latitude>11.45</latitude>
    <longitude>106.483333</longitude>
  </city>
  <city name="Ap Gia Thanh">
    <latitude>10.45</latitude>
    <longitude>107.333333</longitude>
  </city>
  <city name="Ap Gia Tuoch">
    <latitude>9.316667</latitude>
    <longitude>105.533333</longitude>
  </city>
  <city name="Ap Gia Vien">
    <latitude>16.566667</latitude>
    <longitude>107.466667</longitude>
  </city>
  <city name="Ap Giay Heo">
    <latitude>10.066667</latitude>
    <longitude>105.133333</longitude>
  </city>
  <city name="Ap Gieng Moi">
    <latitude>10.55</latitude>
    <longitude>107.066667</longitude>
  </city>
  <city name="Ap Giong">
    <latitude>10.333333</latitude>
    <longitude>106.7</longitude>
  </city>
  <city name="Ap Giong Cam">
    <latitude>9.6025</latitude>
    <longitude>105.4225</longitude>
  </city>
  <city name="Ap Giong Cat">
    <latitude>10.35</latitude>
    <longitude>106.666667</longitude>
  </city>
  <city name="Ap Giong Co">
    <latitude>9.524444</latitude>
    <longitude>105.966667</longitude>
  </city>
  <city name="Ap Giong Cui">
    <latitude>10.083333</latitude>
    <longitude>106.4</longitude>
  </city>
  <city name="Ap Giong Da">
    <latitude>9.9</latitude>
    <longitude>105.25</longitude>
  </city>
  <city name="Ap Giong Dai">
    <latitude>9.717222</latitude>
    <longitude>106.509167</longitude>
  </city>
  <city name="Ap Giong De">
    <latitude>10.9</latitude>
    <longitude>106.316667</longitude>
  </city>
  <city name="Ap Giong Dua">
    <latitude>9.9</latitude>
    <longitude>106.066667</longitude>
  </city>
  <city name="Ap Giong Gan">
    <latitude>10.116667</latitude>
    <longitude>106.6</longitude>
  </city>
  <city name="Ap Giong Gia">
    <latitude>9.241111</latitude>
    <longitude>105.650556</longitude>
  </city>
  <city name="Ap Giong Gieng">
    <latitude>9.592778</latitude>
    <longitude>106.531667</longitude>
  </city>
  <city name="Ap Giong Ke">
    <latitude>10.233333</latitude>
    <longitude>104.733333</longitude>
  </city>
  <city name="Ap Giong Me">
    <latitude>9.283333</latitude>
    <longitude>105.7</longitude>
  </city>
  <city name="Ap Giong Moi">
    <latitude>9.666667</latitude>
    <longitude>105.95</longitude>
  </city>
  <city name="Ap Giong Ta On">
    <latitude>10.466667</latitude>
    <longitude>104.65</longitude>
  </city>
  <city name="Ap Giong Tram">
    <latitude>9.600833</latitude>
    <longitude>106.535</longitude>
  </city>
  <city name="Ap Giong Trom">
    <latitude>10.033333</latitude>
    <longitude>106.5</longitude>
  </city>
  <city name="Ap Gio Ta">
    <latitude>11.816667</latitude>
    <longitude>109.116667</longitude>
  </city>
  <city name="Ap Giua">
    <latitude>10.6</latitude>
    <longitude>104.966667</longitude>
  </city>
  <city name="Ap Go">
    <latitude>10.116667</latitude>
    <longitude>105.983333</longitude>
  </city>
  <city name="Ap Go Bau">
    <latitude>10.6</latitude>
    <longitude>106.716667</longitude>
  </city>
  <city name="Ap Go Cao">
    <latitude>10.883333</latitude>
    <longitude>106.416667</longitude>
  </city>
  <city name="Ap Go Dat">
    <latitude>9.866667</latitude>
    <longitude>105.2</longitude>
  </city>
  <city name="Ap Go Dau">
    <latitude>10.65</latitude>
    <longitude>107.033333</longitude>
  </city>
  <city name="Ap Go Dinh">
    <latitude>10.733333</latitude>
    <longitude>107.883333</longitude>
  </city>
  <city name="Ap Go Dua">
    <latitude>10.8</latitude>
    <longitude>105.933333</longitude>
  </city>
  <city name="Ap Go Gon">
    <latitude>10.9</latitude>
    <longitude>105.6</longitude>
  </city>
  <city name="Ap Goho">
    <latitude>15.633333</latitude>
    <longitude>107.45</longitude>
  </city>
  <city name="Ap Go Muong">
    <latitude>9.193056</latitude>
    <longitude>105.266944</longitude>
  </city>
  <city name="Ap Go Ngai">
    <latitude>11.033333</latitude>
    <longitude>106.233333</longitude>
  </city>
  <city name="Ap Go Sao">
    <latitude>10.916667</latitude>
    <longitude>106.383333</longitude>
  </city>
  <city name="Ap Go Vo">
    <latitude>10.8</latitude>
    <longitude>105.95</longitude>
  </city>
  <city name="Ap Gu">
    <latitude>11.616667</latitude>
    <longitude>106.333333</longitude>
  </city>
  <city name="Ap Ha">
    <latitude>10.533333</latitude>
    <longitude>105.55</longitude>
  </city>
  <city name="Ap Ha Bao">
    <latitude>10.75</latitude>
    <longitude>105.133333</longitude>
  </city>
  <city name="Ap Ha Cang">
    <latitude>16.533333</latitude>
    <longitude>107.483333</longitude>
  </city>
  <city name="Ap Hac Hop">
    <latitude>9.455556</latitude>
    <longitude>106.155</longitude>
  </city>
  <city name="Ap Ha Do">
    <latitude>16.583333</latitude>
    <longitude>107.516667</longitude>
  </city>
  <city name="Ap Hai">
    <latitude>15.683333</latitude>
    <longitude>108.116667</longitude>
  </city>
  <city name="Ap Hai Nhuan">
    <latitude>16.666667</latitude>
    <longitude>107.5</longitude>
  </city>
  <city name="Ap Hai Tan">
    <latitude>11.166667</latitude>
    <longitude>108.566667</longitude>
  </city>
  <city name="Ap Ha Lac">
    <latitude>16.616667</latitude>
    <longitude>107.45</longitude>
  </city>
  <city name="Ap Ham Da">
    <latitude>11.833333</latitude>
    <longitude>106.983333</longitude>
  </city>
  <city name="Ap Hanh Lam">
    <latitude>10.216667</latitude>
    <longitude>106.05</longitude>
  </city>
  <city name="Ap Hanh My">
    <latitude>9.826111</latitude>
    <longitude>106.475278</longitude>
  </city>
  <city name="Ap Ha Thuy">
    <latitude>11.183333</latitude>
    <longitude>108.616667</longitude>
  </city>
  <city name="Ap Hau Hoa">
    <latitude>10.4</latitude>
    <longitude>106.016667</longitude>
  </city>
  <city name="Ap Hau Phu">
    <latitude>10.45</latitude>
    <longitude>106.0</longitude>
  </city>
  <city name="Ap Hau Quach">
    <latitude>11.2</latitude>
    <longitude>108.566667</longitude>
  </city>
  <city name="Ap Hau Qui">
    <latitude>10.466667</latitude>
    <longitude>105.966667</longitude>
  </city>
  <city name="Ap Hau Thanh">
    <latitude>10.15</latitude>
    <longitude>106.016667</longitude>
  </city>
  <city name="Ap Hau Trinh">
    <latitude>10.433333</latitude>
    <longitude>105.983333</longitude>
  </city>
  <city name="Ap Hiale">
    <latitude>15.916667</latitude>
    <longitude>107.566667</longitude>
  </city>
  <city name="Ap Hien An">
    <latitude>16.5</latitude>
    <longitude>107.383333</longitude>
  </city>
  <city name="Ap Hien Luong">
    <latitude>16.55</latitude>
    <longitude>107.466667</longitude>
  </city>
  <city name="Ap Hien Si">
    <latitude>16.533333</latitude>
    <longitude>107.433333</longitude>
  </city>
  <city name="Ap Hiep An">
    <latitude>11.216667</latitude>
    <longitude>108.433333</longitude>
  </city>
  <city name="Ap Hiep Duc">
    <latitude>11.183333</latitude>
    <longitude>108.616667</longitude>
  </city>
  <city name="Ap Hiep Hoa">
    <latitude>10.566667</latitude>
    <longitude>105.3</longitude>
  </city>
  <city name="Ap Hiep Hung">
    <latitude>10.616667</latitude>
    <longitude>105.266667</longitude>
  </city>
  <city name="Ap Hiep Thuan">
    <latitude>10.033333</latitude>
    <longitude>106.05</longitude>
  </city>
  <city name="Ap Hiep Trung">
    <latitude>10.583333</latitude>
    <longitude>105.283333</longitude>
  </city>
  <city name="Ap Hoa An">
    <latitude>10.283333</latitude>
    <longitude>106.433333</longitude>
  </city>
  <city name="Ap Hoa">
    <latitude>10.466667</latitude>
    <longitude>105.683333</longitude>
  </city>
  <city name="Ap Hoa Binh">
    <latitude>10.666667</latitude>
    <longitude>105.216667</longitude>
  </city>
  <city name="Ap Hoa Cu">
    <latitude>10.516667</latitude>
    <longitude>105.316667</longitude>
  </city>
  <city name="Ap Hoa Cuong">
    <latitude>11.466667</latitude>
    <longitude>106.483333</longitude>
  </city>
  <city name="Ap Hoa Dien">
    <latitude>11.05</latitude>
    <longitude>108.166667</longitude>
  </city>
  <city name="Ap Hoa Dinh">
    <latitude>10.216667</latitude>
    <longitude>105.633333</longitude>
  </city>
  <city name="Ap Hoa Dong">
    <latitude>9.815556</latitude>
    <longitude>105.441389</longitude>
  </city>
  <city name="Ap Hoa Duc">
    <latitude>9.566667</latitude>
    <longitude>105.95</longitude>
  </city>
  <city name="Ap Hoa Hao">
    <latitude>10.3</latitude>
    <longitude>106.116667</longitude>
  </city>
  <city name="Ap Hoa Hiep">
    <latitude>9.968889</latitude>
    <longitude>105.147778</longitude>
  </city>
  <city name="Ap Hoa Hung">
    <latitude>10.633333</latitude>
    <longitude>105.216667</longitude>
  </city>
  <city name="Ap Hoa Khanh">
    <latitude>10.183333</latitude>
    <longitude>106.233333</longitude>
  </city>
  <city name="Ap Hoa Khuong">
    <latitude>16.016667</latitude>
    <longitude>108.133333</longitude>
  </city>
  <city name="Ap Hoa Lac">
    <latitude>10.466667</latitude>
    <longitude>105.616667</longitude>
  </city>
  <city name="Ap Hoa Loc">
    <latitude>9.883333</latitude>
    <longitude>105.883333</longitude>
  </city>
  <city name="Ap Hoa Loi">
    <latitude>9.908611</latitude>
    <longitude>105.492778</longitude>
  </city>
  <city name="Ap Hoa Long">
    <latitude>10.433333</latitude>
    <longitude>105.383333</longitude>
  </city>
  <city name="Ap Hoa Luong">
    <latitude>16.35</latitude>
    <longitude>107.616667</longitude>
  </city>
  <city name="Ap Hoa Nam">
    <latitude>10.25</latitude>
    <longitude>106.316667</longitude>
  </city>
  <city name="Ap Hoanh Tau">
    <latitude>9.189444</latitude>
    <longitude>105.617778</longitude>
  </city>
  <city name="Ap Hoan Quang">
    <latitude>10.783333</latitude>
    <longitude>107.233333</longitude>
  </city>
  <city name="Ap Hoa Phau">
    <latitude>10.333333</latitude>
    <longitude>104.516667</longitude>
  </city>
  <city name="Ap Hoa Pho">
    <latitude>10.2</latitude>
    <longitude>106.15</longitude>
  </city>
  <city name="Ap Hoa Phu">
    <latitude>10.216667</latitude>
    <longitude>106.133333</longitude>
  </city>
  <city name="Ap Hoa Phuoc">
    <latitude>10.0</latitude>
    <longitude>105.133333</longitude>
  </city>
  <city name="Ap Hoa Qui">
    <latitude>9.85</latitude>
    <longitude>105.416667</longitude>
  </city>
  <city name="Ap Hoa Quy">
    <latitude>10.366667</latitude>
    <longitude>106.883333</longitude>
  </city>
  <city name="Ap Hoa Tach">
    <latitude>9.103333</latitude>
    <longitude>105.151389</longitude>
  </city>
  <city name="Ap Hoa Tam B">
    <latitude>9.566667</latitude>
    <longitude>105.95</longitude>
  </city>
  <city name="Ap Hoa Tan">
    <latitude>11.0</latitude>
    <longitude>108.166667</longitude>
  </city>
  <city name="Ap Hoa Tay">
    <latitude>9.793333</latitude>
    <longitude>105.374444</longitude>
  </city>
  <city name="Ap Hoa Thanh">
    <latitude>9.8525</latitude>
    <longitude>105.456389</longitude>
  </city>
  <city name="Ap Hoa Tho">
    <latitude>10.2</latitude>
    <longitude>106.266667</longitude>
  </city>
  <city name="Ap Hoa Thuan">
    <latitude>10.033333</latitude>
    <longitude>106.05</longitude>
  </city>
  <city name="Ap Hoa Thuong">
    <latitude>10.233333</latitude>
    <longitude>106.033333</longitude>
  </city>
  <city name="Ap Hoa Trung">
    <latitude>9.766667</latitude>
    <longitude>105.383333</longitude>
  </city>
  <city name="Ap Ho Da">
    <latitude>11.366667</latitude>
    <longitude>106.75</longitude>
  </city>
  <city name="Ap Hoi Ngai">
    <latitude>10.666667</latitude>
    <longitude>106.266667</longitude>
  </city>
  <city name="Ap Hoi Ngh">
    <latitude>10.666667</latitude>
    <longitude>106.266667</longitude>
  </city>
  <city name="Ap Hoi Phuoc">
    <latitude>10.483333</latitude>
    <longitude>107.05</longitude>
  </city>
  <city name="Ap Hoi Tam">
    <latitude>11.2</latitude>
    <longitude>108.6</longitude>
  </city>
  <city name="Ap Hoi Than">
    <latitude>10.983333</latitude>
    <longitude>106.6</longitude>
  </city>
  <city name="Ap Hoi Thanh">
    <latitude>10.516667</latitude>
    <longitude>107.05</longitude>
  </city>
  <city name="Ap Hoi Tho">
    <latitude>10.066667</latitude>
    <longitude>106.083333</longitude>
  </city>
  <city name="Ap Hon Heo">
    <latitude>10.3</latitude>
    <longitude>104.533333</longitude>
  </city>
  <city name="Ap Hon Soc">
    <latitude>10.15</latitude>
    <longitude>104.9</longitude>
  </city>
  <city name="Ap Ho Phong">
    <latitude>9.225833</latitude>
    <longitude>105.418611</longitude>
  </city>
  <city name="Ap Ho Set">
    <latitude>21.466667</latitude>
    <longitude>106.033333</longitude>
  </city>
  <city name="Ap Ho Tren">
    <latitude>10.35</latitude>
    <longitude>106.766667</longitude>
  </city>
  <city name="Ap Hung An">
    <latitude>10.1</latitude>
    <longitude>106.433333</longitude>
  </city>
  <city name="Ap Hung">
    <latitude>10.616667</latitude>
    <longitude>106.733333</longitude>
  </city>
  <city name="Ap Hung Binh">
    <latitude>10.116667</latitude>
    <longitude>106.5</longitude>
  </city>
  <city name="Ap Hung De">
